[{"type": "Feature", "geometry": {"type": "Point", "coordinates": [139.7086698, 35.6393717]}, "properties": {"film_id": 188991, "film_title": "ブリッジ・オブ・ヘル　独ソ・ポーランド東部戦線", "english_title": "Battery Number One", "year": 2015, "location_name": "ポーランド", "prefecture": null, "location_type": "represented", "info_source": "Represented_eiga_title", "directors": [], "genres": ["Drama", "War"], "studio": "", "studio_japanese": ""}}, {"type": "Feature", "geometry": {"type": "Point", "coordinates": [129.7872989, 33.0836539]}, "properties": {"film_id": 189001, "film_title": "HUNT 餌　ハント・エサ", "english_title": "Prey", "year": null, "location_name": "アムステルダム", "prefecture": null, "location_type": "represented", "info_source": "Represented_eiga_synopsis", "directors": [], "genres": [], "studio": "", "studio_japanese": ""}}, {"type": "Feature", "geometry": {"type": "Point", "coordinates": [142.2178413, 27.0477087]}, "properties": {"film_id": 189002, "film_title": "すべての終わり", "english_title": "How It Ends", "year": 2018, "location_name": "西海岸", "prefecture": null, "location_type": "represented", "info_source": "Represented_eiga_synopsis", "directors": [], "genres": ["Action", "Science Fiction", "Suspense"], "studio": "", "studio_japanese": ""}}, {"type": "Feature", "geometry": {"type": "Point", "coordinates": [127.6819039, 26.2161745]}, "properties": {"film_id": 189002, "film_title": "すべての終わり", "english_title": "How It Ends", "year": 2018, "location_name": "全米", "prefecture": null, "location_type": "represented", "info_source": "Represented_eiga_synopsis", "directors": [], "genres": ["Action", "Science Fiction", "Suspense"], "studio": "", "studio_japanese": ""}}, {"type": "Feature", "geometry": {"type": "Point", "coordinates": [135.7149079, 34.3612858]}, "properties": {"film_id": 189002, "film_title": "すべての終わり", "english_title": "How It Ends", "year": 2018, "location_name": "シカゴ", "prefecture": null, "location_type": "represented", "info_source": "Represented_eiga_synopsis", "directors": [], "genres": ["Action", "Science Fiction", "Suspense"], "studio": "", "studio_japanese": ""}}, {"type": "Feature", "geometry": {"type": "Point", "coordinates": [135.197347, 34.6865286]}, "properties": {"film_id": 189002, "film_title": "すべての終わり", "english_title": "How It Ends", "year": 2018, "location_name": "シアトル", "prefecture": null, "location_type": "represented", "info_source": "Represented_eiga_synopsis", "directors": [], "genres": ["Action", "Science Fiction", "Suspense"], "studio": "", "studio_japanese": ""}}, {"type": "Feature", "geometry": {"type": "Point", "coordinates": [139.6917724609375, 35.6896286010742]}, "properties": {"film_id": 189004, "film_title": "デデの愛", "english_title": "Dede", "year": null, "location_name": "東京", "prefecture": null, "location_type": "represented", "info_source": "Represented_eiga_synopsis", "directors": [], "genres": [], "studio": "", "studio_japanese": ""}}, {"type": "Feature", "geometry": {"type": "Point", "coordinates": [139.6917724609375, 35.6896286010742]}, "properties": {"film_id": 189005, "film_title": "他人の家", "english_title": "House of Others", "year": null, "location_name": "東京", "prefecture": null, "location_type": "represented", "info_source": "Represented_eiga_synopsis", "directors": [], "genres": [], "studio": "", "studio_japanese": ""}}, {"type": "Feature", "geometry": {"type": "Point", "coordinates": [135.3818433, 34.6499245]}, "properties": {"film_id": 189005, "film_title": "他人の家", "english_title": "House of Others", "year": null, "location_name": "クロアチア", "prefecture": null, "location_type": "represented", "info_source": "Represented_eiga_synopsis", "directors": [], "genres": [], "studio": "", "studio_japanese": ""}}, {"type": "Feature", "geometry": {"type": "Point", "coordinates": [139.6917724609375, 35.6896286010742]}, "properties": {"film_id": 189006, "film_title": "少年スサ", "english_title": "Susa", "year": null, "location_name": "東京", "prefecture": null, "location_type": "represented", "info_source": "Represented_eiga_synopsis", "directors": [], "genres": [], "studio": "", "studio_japanese": ""}}, {"type": "Feature", "geometry": {"type": "Point", "coordinates": [139.6917724609375, 35.6896286010742]}, "properties": {"film_id": 189007, "film_title": "ダンサー", "english_title": "Dancers", "year": null, "location_name": "東京", "prefecture": null, "location_type": "represented", "info_source": "Represented_eiga_synopsis", "directors": [], "genres": [], "studio": "", "studio_japanese": ""}}, {"type": "Feature", "geometry": {"type": "Point", "coordinates": [139.6917724609375, 35.6896286010742]}, "properties": {"film_id": 189008, "film_title": "微笑んで", "english_title": null, "year": null, "location_name": "東京", "prefecture": null, "location_type": "represented", "info_source": "Represented_eiga_synopsis", "directors": [], "genres": [], "studio": "", "studio_japanese": ""}}, {"type": "Feature", "geometry": {"type": "Point", "coordinates": [139.6917724609375, 35.6896286010742]}, "properties": {"film_id": 189009, "film_title": "大いなる緑の谷", "english_title": "Didi mtsvane veli", "year": null, "location_name": "東京", "prefecture": null, "location_type": "represented", "info_source": "Represented_eiga_synopsis", "directors": [], "genres": [], "studio": "", "studio_japanese": ""}}, {"type": "Feature", "geometry": {"type": "Point", "coordinates": [139.6917724609375, 35.6896286010742]}, "properties": {"film_id": 189010, "film_title": "ケトとコテ", "english_title": "Keto and Kote", "year": null, "location_name": "東京", "prefecture": null, "location_type": "represented", "info_source": "Represented_eiga_synopsis", "directors": [], "genres": [], "studio": "", "studio_japanese": ""}}, {"type": "Feature", "geometry": {"type": "Point", "coordinates": [139.6917724609375, 35.6896286010742]}, "properties": {"film_id": 189011, "film_title": "少女デドゥナ", "english_title": "Deduna", "year": null, "location_name": "東京", "prefecture": null, "location_type": "represented", "info_source": "Represented_eiga_synopsis", "directors": [], "genres": [], "studio": "", "studio_japanese": ""}}, {"type": "Feature", "geometry": {"type": "Point", "coordinates": [139.6917724609375, 35.6896286010742]}, "properties": {"film_id": 189012, "film_title": "メイダン　世界のへそ", "english_title": "Maidan, Nave of the World", "year": null, "location_name": "東京", "prefecture": null, "location_type": "represented", "info_source": "Represented_eiga_synopsis", "directors": [], "genres": [], "studio": "", "studio_japanese": ""}}, {"type": "Feature", "geometry": {"type": "Point", "coordinates": [139.6917724609375, 35.6896286010742]}, "properties": {"film_id": 189013, "film_title": "私のお祖母さん", "english_title": "My Grandmother", "year": null, "location_name": "東京", "prefecture": null, "location_type": "represented", "info_source": "Represented_eiga_synopsis", "directors": [], "genres": [], "studio": "", "studio_japanese": ""}}, {"type": "Feature", "geometry": {"type": "Point", "coordinates": [139.6917724609375, 35.6896286010742]}, "properties": {"film_id": 189014, "film_title": "スヴァネティの塩", "english_title": "Salt for Svanetia", "year": null, "location_name": "東京", "prefecture": null, "location_type": "represented", "info_source": "Represented_eiga_synopsis", "directors": [], "genres": [], "studio": "", "studio_japanese": ""}}, {"type": "Feature", "geometry": {"type": "Point", "coordinates": [139.6917724609375, 35.6896286010742]}, "properties": {"film_id": 189015, "film_title": "あぶない母さん", "english_title": "Scary Mother", "year": null, "location_name": "東京", "prefecture": null, "location_type": "represented", "info_source": "Represented_eiga_synopsis", "directors": [], "genres": [], "studio": "", "studio_japanese": ""}}, {"type": "Feature", "geometry": {"type": "Point", "coordinates": [139.6917724609375, 35.6896286010742]}, "properties": {"film_id": 189016, "film_title": "ヒブラ村", "english_title": "Khibula", "year": null, "location_name": "東京", "prefecture": null, "location_type": "represented", "info_source": "Represented_eiga_synopsis", "directors": [], "genres": [], "studio": "", "studio_japanese": ""}}, {"type": "Feature", "geometry": {"type": "Point", "coordinates": [139.6917724609375, 35.6896286010742]}, "properties": {"film_id": 189017, "film_title": "マニフェスト", "english_title": "Manifesto", "year": null, "location_name": "東京", "prefecture": null, "location_type": "represented", "info_source": "Represented_eiga_synopsis", "directors": [], "genres": [], "studio": "", "studio_japanese": ""}}, {"type": "Feature", "geometry": {"type": "Point", "coordinates": [139.7040506, 35.6617773]}, "properties": {"film_id": 189017, "film_title": "マニフェスト", "english_title": "Manifesto", "year": null, "location_name": "渋谷", "prefecture": "【東京都】", "location_type": "represented", "info_source": "Represented_eiga_synopsis", "directors": [], "genres": [], "studio": "", "studio_japanese": ""}}, {"type": "Feature", "geometry": {"type": "Point", "coordinates": [135.5011311, 34.6988954]}, "properties": {"film_id": 189020, "film_title": "沈黙の大陸", "english_title": "China Salesman", "year": 2017, "location_name": "アフリカ大陸", "prefecture": null, "location_type": "represented", "info_source": "Represented_eiga_synopsis", "directors": [], "genres": ["Action"], "studio": "", "studio_japanese": ""}}, {"type": "Feature", "geometry": {"type": "Point", "coordinates": [139.7238049, 35.6528477]}, "properties": {"film_id": 189021, "film_title": "ザ・ハント　ナチスに狙われた男", "english_title": "The 12th Man", "year": 2017, "location_name": "ノルウェー", "prefecture": null, "location_type": "represented", "info_source": "Represented_eiga_synopsis", "directors": [], "genres": ["Action", "War", "Biography"], "studio": "", "studio_japanese": ""}}, {"type": "Feature", "geometry": {"type": "Point", "coordinates": [139.7455898, 35.6483815]}, "properties": {"film_id": 189024, "film_title": "海へのオデッセイ　ジャック・クストー物語", "english_title": "The Odyssey", "year": 2016, "location_name": "地中海", "prefecture": null, "location_type": "represented", "info_source": "Represented_eiga_synopsis", "directors": [], "genres": ["Drama", "Biography"], "studio": "", "studio_japanese": ""}}, {"type": "Feature", "geometry": {"type": "Point", "coordinates": [139.5273226, 35.545374]}, "properties": {"film_id": 189025, "film_title": "カプリ島のレボリューション", "english_title": "Capri-Revolution", "year": 2018, "location_name": "カプリ島", "prefecture": "海外", "location_type": "represented", "info_source": "Represented_eiga_title", "directors": [], "genres": ["Drama"], "studio": "", "studio_japanese": ""}}, {"type": "Feature", "geometry": {"type": "Point", "coordinates": [139.6917724609375, 35.6896286010742]}, "properties": {"film_id": 189025, "film_title": "カプリ島のレボリューション", "english_title": "Capri-Revolution", "year": 2018, "location_name": "東京", "prefecture": null, "location_type": "represented", "info_source": "Represented_eiga_synopsis", "directors": [], "genres": ["Drama"], "studio": "", "studio_japanese": ""}}, {"type": "Feature", "geometry": {"type": "Point", "coordinates": [139.7606676, 35.6732638]}, "properties": {"film_id": 189025, "film_title": "カプリ島のレボリューション", "english_title": "Capri-Revolution", "year": 2018, "location_name": "有楽町", "prefecture": "【東京都】", "location_type": "represented", "info_source": "Represented_eiga_synopsis", "directors": [], "genres": ["Drama"], "studio": "", "studio_japanese": ""}}, {"type": "Feature", "geometry": {"type": "Point", "coordinates": [139.7421835, 35.6505828]}, "properties": {"film_id": 189025, "film_title": "カプリ島のレボリューション", "english_title": "Capri-Revolution", "year": 2018, "location_name": "ｲﾀﾘｱ", "prefecture": null, "location_type": "represented", "info_source": "Represented_eiga_synopsis", "directors": [], "genres": ["Drama"], "studio": "", "studio_japanese": ""}}, {"type": "Feature", "geometry": {"type": "Point", "coordinates": [139.6498136, 35.7026157]}, "properties": {"film_id": 189025, "film_title": "カプリ島のレボリューション", "english_title": "Capri-Revolution", "year": 2018, "location_name": "Capri", "prefecture": null, "location_type": "represented", "info_source": "Represented_eiga_synopsis", "directors": [], "genres": ["Drama"], "studio": "", "studio_japanese": ""}}, {"type": "Feature", "geometry": {"type": "Point", "coordinates": [132.3581381, 34.363713]}, "properties": {"film_id": 189028, "film_title": "パパと娘のハネムーン", "english_title": "Like Father", "year": 2018, "location_name": "カリブ海", "prefecture": null, "location_type": "represented", "info_source": "Represented_eiga_synopsis", "directors": [], "genres": ["Comedy", "Drama"], "studio": "", "studio_japanese": ""}}, {"type": "Feature", "geometry": {"type": "Point", "coordinates": [136.8681119, 35.1636573]}, "properties": {"film_id": 189037, "film_title": "アルファ　帰還（かえ）りし者たち", "english_title": "Alpha", "year": 2018, "location_name": "ヨーロッパ", "prefecture": null, "location_type": "represented", "info_source": "Represented_eiga_synopsis", "directors": ["アルバート・ヒューズ"], "genres": ["Action", "Adventure", "Drama"], "studio": "", "studio_japanese": ""}}, {"type": "Feature", "geometry": {"type": "Point", "coordinates": [135.5047867, 34.6628405]}, "properties": {"film_id": 189040, "film_title": "ナチスの愛したフェルメール", "english_title": "A Real Vermeer", "year": 2016, "location_name": "オランダ", "prefecture": null, "location_type": "represented", "info_source": "Represented_eiga_synopsis", "directors": [], "genres": ["Drama"], "studio": "", "studio_japanese": ""}}, {"type": "Feature", "geometry": {"type": "Point", "coordinates": [139.7369606, 35.689655]}, "properties": {"film_id": 189040, "film_title": "ナチスの愛したフェルメール", "english_title": "A Real Vermeer", "year": 2016, "location_name": "ルクセンブルク", "prefecture": null, "location_type": "represented", "info_source": "Represented_eiga_synopsis", "directors": [], "genres": ["Drama"], "studio": "", "studio_japanese": ""}}, {"type": "Feature", "geometry": {"type": "Point", "coordinates": [127.7669, 35.9078]}, "properties": {"film_id": 189042, "film_title": "君たちを忘れない　チョン・ウソンのイラクレポート", "english_title": null, "year": null, "location_name": "韓国", "prefecture": null, "location_type": "represented", "info_source": "Represented_eiga_synopsis", "directors": [], "genres": [], "studio": "", "studio_japanese": ""}}, {"type": "Feature", "geometry": {"type": "Point", "coordinates": [139.6928226, 35.663027]}, "properties": {"film_id": 189042, "film_title": "君たちを忘れない　チョン・ウソンのイラクレポート", "english_title": null, "year": null, "location_name": "イラク", "prefecture": null, "location_type": "represented", "info_source": "Represented_eiga_synopsis", "directors": [], "genres": [], "studio": "", "studio_japanese": ""}}, {"type": "Feature", "geometry": {"type": "Point", "coordinates": [139.6917724609375, 35.6896286010742]}, "properties": {"film_id": 189044, "film_title": "P.P.P.project + BEAST ARTS presents 「烈波壊虐音群突入911」", "english_title": "P.P.P.project + BEAST ARTS presents 「烈波壊虐音群突入911」", "year": null, "location_name": "東京", "prefecture": null, "location_type": "represented", "info_source": "Represented_eiga_synopsis", "directors": ["安田潤司"], "genres": [], "studio": "", "studio_japanese": ""}}, {"type": "Feature", "geometry": {"type": "Point", "coordinates": [139.7421835, 35.6505828]}, "properties": {"film_id": 189052, "film_title": "堕ちた希望", "english_title": "The Vice of Hope", "year": 2018, "location_name": "ｲﾀﾘｱ", "prefecture": null, "location_type": "represented", "info_source": "Represented_eiga_synopsis", "directors": ["エドアルド・デ・アンジェリス"], "genres": ["Drama", "Suspense"], "studio": "", "studio_japanese": ""}}, {"type": "Feature", "geometry": {"type": "Point", "coordinates": [140.352325, 38.2389384]}, "properties": {"film_id": 189053, "film_title": "冷たい汗", "english_title": "Cold Sweat", "year": null, "location_name": "アジア", "prefecture": null, "location_type": "represented", "info_source": "Represented_eiga_synopsis", "directors": [], "genres": [], "studio": "", "studio_japanese": ""}}, {"type": "Feature", "geometry": {"type": "Point", "coordinates": [140.352325, 38.2389384]}, "properties": {"film_id": 189054, "film_title": "母との距離", "english_title": "Distance", "year": null, "location_name": "アジア", "prefecture": null, "location_type": "represented", "info_source": "Represented_eiga_synopsis", "directors": [], "genres": [], "studio": "", "studio_japanese": ""}}, {"type": "Feature", "geometry": {"type": "Point", "coordinates": [140.352325, 38.2389384]}, "properties": {"film_id": 189055, "film_title": "はじめての別れ", "english_title": null, "year": null, "location_name": "アジア", "prefecture": null, "location_type": "represented", "info_source": "Represented_eiga_synopsis", "directors": [], "genres": [], "studio": "", "studio_japanese": ""}}, {"type": "Feature", "geometry": {"type": "Point", "coordinates": [140.352325, 38.2389384]}, "properties": {"film_id": 189056, "film_title": "海だけが知っている", "english_title": null, "year": null, "location_name": "アジア", "prefecture": null, "location_type": "represented", "info_source": "Represented_eiga_synopsis", "directors": [], "genres": [], "studio": "", "studio_japanese": ""}}, {"type": "Feature", "geometry": {"type": "Point", "coordinates": [140.352325, 38.2389384]}, "properties": {"film_id": 189058, "film_title": "武術の孤児", "english_title": null, "year": null, "location_name": "アジア", "prefecture": null, "location_type": "represented", "info_source": "Represented_eiga_synopsis", "directors": [], "genres": [], "studio": "", "studio_japanese": ""}}, {"type": "Feature", "geometry": {"type": "Point", "coordinates": [135.3814041, 34.6491709]}, "properties": {"film_id": 189063, "film_title": "サラとサリームに関する報告書", "english_title": "The Reports on Sarah and Saleem", "year": null, "location_name": "パレスチナ", "prefecture": null, "location_type": "represented", "info_source": "Represented_eiga_synopsis", "directors": [], "genres": [], "studio": "", "studio_japanese": ""}}, {"type": "Feature", "geometry": {"type": "Point", "coordinates": [135.5047867, 34.6628405]}, "properties": {"film_id": 189063, "film_title": "サラとサリームに関する報告書", "english_title": "The Reports on Sarah and Saleem", "year": null, "location_name": "オランダ", "prefecture": null, "location_type": "represented", "info_source": "Represented_eiga_synopsis", "directors": [], "genres": [], "studio": "", "studio_japanese": ""}}, {"type": "Feature", "geometry": {"type": "Point", "coordinates": [135.3821641, 34.6497802]}, "properties": {"film_id": 189065, "film_title": "赤い子牛", "english_title": "Red Cow", "year": null, "location_name": "イスラエル", "prefecture": null, "location_type": "represented", "info_source": "Represented_eiga_synopsis", "directors": [], "genres": [], "studio": "", "studio_japanese": ""}}, {"type": "Feature", "geometry": {"type": "Point", "coordinates": [135.7729345, 35.021253]}, "properties": {"film_id": 189069, "film_title": "めくるめく愛の詩", "english_title": "Ah... I'm Falling in Love", "year": null, "location_name": "東南アジア", "prefecture": null, "location_type": "represented", "info_source": "Represented_eiga_synopsis", "directors": ["ガリン・ヌグロホ"], "genres": [], "studio": "", "studio_japanese": ""}}, {"type": "Feature", "geometry": {"type": "Point", "coordinates": [139.9333665, 37.4973024]}, "properties": {"film_id": 189070, "film_title": "カンボジアの失われたロックンロール", "english_title": "Don't Think I've Forgotten: Cambodia's Lost Rock and Roll", "year": null, "location_name": "アメリカ人", "prefecture": null, "location_type": "represented", "info_source": "Represented_eiga_synopsis", "directors": [], "genres": [], "studio": "", "studio_japanese": ""}}, {"type": "Feature", "geometry": {"type": "Point", "coordinates": [135.7729345, 35.021253]}, "properties": {"film_id": 189070, "film_title": "カンボジアの失われたロックンロール", "english_title": "Don't Think I've Forgotten: Cambodia's Lost Rock and Roll", "year": null, "location_name": "東南アジア", "prefecture": null, "location_type": "represented", "info_source": "Represented_eiga_synopsis", "directors": [], "genres": [], "studio": "", "studio_japanese": ""}}, {"type": "Feature", "geometry": {"type": "Point", "coordinates": [127.7669, 35.9078]}, "properties": {"film_id": 189071, "film_title": "輝ける日々に", "english_title": "Go-Go Sisters", "year": null, "location_name": "韓国", "prefecture": null, "location_type": "represented", "info_source": "Represented_eiga_synopsis", "directors": [], "genres": [], "studio": "", "studio_japanese": ""}}, {"type": "Feature", "geometry": {"type": "Point", "coordinates": [139.6858213, 35.672831]}, "properties": {"film_id": 189071, "film_title": "輝ける日々に", "english_title": "Go-Go Sisters", "year": null, "location_name": "ベトナム", "prefecture": null, "location_type": "represented", "info_source": "Represented_eiga_synopsis", "directors": [], "genres": [], "studio": "", "studio_japanese": ""}}, {"type": "Feature", "geometry": {"type": "Point", "coordinates": [135.7729345, 35.021253]}, "properties": {"film_id": 189071, "film_title": "輝ける日々に", "english_title": "Go-Go Sisters", "year": null, "location_name": "東南アジア", "prefecture": null, "location_type": "represented", "info_source": "Represented_eiga_synopsis", "directors": [], "genres": [], "studio": "", "studio_japanese": ""}}, {"type": "Feature", "geometry": {"type": "Point", "coordinates": [139.6917724609375, 35.6896286010742]}, "properties": {"film_id": 189082, "film_title": "カルメン＆ロラ", "english_title": "Carmen & Lola", "year": null, "location_name": "東京", "prefecture": null, "location_type": "represented", "info_source": "Represented_eiga_synopsis", "directors": [], "genres": [], "studio": "", "studio_japanese": ""}}, {"type": "Feature", "geometry": {"type": "Point", "coordinates": [139.68408203125, 35.8924598693848]}, "properties": {"film_id": 189082, "film_title": "カルメン＆ロラ", "english_title": "Carmen & Lola", "year": null, "location_name": "新宿", "prefecture": null, "location_type": "represented", "info_source": "Represented_eiga_synopsis", "directors": [], "genres": [], "studio": "", "studio_japanese": ""}}, {"type": "Feature", "geometry": {"type": "Point", "coordinates": [139.6917724609375, 35.6896286010742]}, "properties": {"film_id": 189083, "film_title": "夢のフロリアノポリス", "english_title": "Florianópolis Dream", "year": null, "location_name": "東京", "prefecture": null, "location_type": "represented", "info_source": "Represented_eiga_synopsis", "directors": [], "genres": [], "studio": "", "studio_japanese": ""}}, {"type": "Feature", "geometry": {"type": "Point", "coordinates": [139.68408203125, 35.8924598693848]}, "properties": {"film_id": 189083, "film_title": "夢のフロリアノポリス", "english_title": "Florianópolis Dream", "year": null, "location_name": "新宿", "prefecture": null, "location_type": "represented", "info_source": "Represented_eiga_synopsis", "directors": [], "genres": [], "studio": "", "studio_japanese": ""}}, {"type": "Feature", "geometry": {"type": "Point", "coordinates": [139.6917724609375, 35.6896286010742]}, "properties": {"film_id": 189084, "film_title": "サビ", "english_title": "Rust", "year": null, "location_name": "東京", "prefecture": null, "location_type": "represented", "info_source": "Represented_eiga_synopsis", "directors": [], "genres": [], "studio": "", "studio_japanese": ""}}, {"type": "Feature", "geometry": {"type": "Point", "coordinates": [139.68408203125, 35.8924598693848]}, "properties": {"film_id": 189084, "film_title": "サビ", "english_title": "Rust", "year": null, "location_name": "新宿", "prefecture": null, "location_type": "represented", "info_source": "Represented_eiga_synopsis", "directors": [], "genres": [], "studio": "", "studio_japanese": ""}}, {"type": "Feature", "geometry": {"type": "Point", "coordinates": [139.6917724609375, 35.6896286010742]}, "properties": {"film_id": 189085, "film_title": "I Hate New York", "english_title": "I Hate New York", "year": null, "location_name": "東京", "prefecture": null, "location_type": "represented", "info_source": "Represented_eiga_synopsis", "directors": [], "genres": [], "studio": "", "studio_japanese": ""}}, {"type": "Feature", "geometry": {"type": "Point", "coordinates": [139.68408203125, 35.8924598693848]}, "properties": {"film_id": 189085, "film_title": "I Hate New York", "english_title": "I Hate New York", "year": null, "location_name": "新宿", "prefecture": null, "location_type": "represented", "info_source": "Represented_eiga_synopsis", "directors": [], "genres": [], "studio": "", "studio_japanese": ""}}, {"type": "Feature", "geometry": {"type": "Point", "coordinates": [139.6917724609375, 35.6896286010742]}, "properties": {"film_id": 189086, "film_title": "アブラカダブラ", "english_title": "Abracadabra", "year": null, "location_name": "東京", "prefecture": null, "location_type": "represented", "info_source": "Represented_eiga_synopsis", "directors": [], "genres": [], "studio": "", "studio_japanese": ""}}, {"type": "Feature", "geometry": {"type": "Point", "coordinates": [139.68408203125, 35.8924598693848]}, "properties": {"film_id": 189086, "film_title": "アブラカダブラ", "english_title": "Abracadabra", "year": null, "location_name": "新宿", "prefecture": null, "location_type": "represented", "info_source": "Represented_eiga_synopsis", "directors": [], "genres": [], "studio": "", "studio_japanese": ""}}, {"type": "Feature", "geometry": {"type": "Point", "coordinates": [139.6917724609375, 35.6896286010742]}, "properties": {"film_id": 189088, "film_title": "夏の鳥", "english_title": "Birds of Passage", "year": null, "location_name": "東京", "prefecture": null, "location_type": "represented", "info_source": "Represented_eiga_synopsis", "directors": ["シーロ・ゲーラ"], "genres": [], "studio": "", "studio_japanese": ""}}, {"type": "Feature", "geometry": {"type": "Point", "coordinates": [139.68408203125, 35.8924598693848]}, "properties": {"film_id": 189088, "film_title": "夏の鳥", "english_title": "Birds of Passage", "year": null, "location_name": "新宿", "prefecture": null, "location_type": "represented", "info_source": "Represented_eiga_synopsis", "directors": ["シーロ・ゲーラ"], "genres": [], "studio": "", "studio_japanese": ""}}, {"type": "Feature", "geometry": {"type": "Point", "coordinates": [139.6917724609375, 35.6896286010742]}, "properties": {"film_id": 189089, "film_title": "ローマ法王フランシスコ", "english_title": "Pope Francis: A Man of His Word", "year": 2018, "location_name": "東京", "prefecture": null, "location_type": "represented", "info_source": "Represented_eiga_synopsis", "directors": ["ビム・ベンダース"], "genres": ["Documentary"], "studio": "", "studio_japanese": ""}}, {"type": "Feature", "geometry": {"type": "Point", "coordinates": [139.68408203125, 35.8924598693848]}, "properties": {"film_id": 189089, "film_title": "ローマ法王フランシスコ", "english_title": "Pope Francis: A Man of His Word", "year": 2018, "location_name": "新宿", "prefecture": null, "location_type": "represented", "info_source": "Represented_eiga_synopsis", "directors": ["ビム・ベンダース"], "genres": ["Documentary"], "studio": "", "studio_japanese": ""}}, {"type": "Feature", "geometry": {"type": "Point", "coordinates": [139.6917724609375, 35.6896286010742]}, "properties": {"film_id": 189090, "film_title": "アナザー・デイ・オブ・ライフ", "english_title": "Another Day of Life", "year": null, "location_name": "東京", "prefecture": null, "location_type": "represented", "info_source": "Represented_eiga_synopsis", "directors": [], "genres": [], "studio": "", "studio_japanese": ""}}, {"type": "Feature", "geometry": {"type": "Point", "coordinates": [139.68408203125, 35.8924598693848]}, "properties": {"film_id": 189090, "film_title": "アナザー・デイ・オブ・ライフ", "english_title": "Another Day of Life", "year": null, "location_name": "新宿", "prefecture": null, "location_type": "represented", "info_source": "Represented_eiga_synopsis", "directors": [], "genres": [], "studio": "", "studio_japanese": ""}}, {"type": "Feature", "geometry": {"type": "Point", "coordinates": [139.6917724609375, 35.6896286010742]}, "properties": {"film_id": 189091, "film_title": "ベンジーニョ", "english_title": "Loveling", "year": null, "location_name": "東京", "prefecture": null, "location_type": "represented", "info_source": "Represented_eiga_synopsis", "directors": [], "genres": [], "studio": "", "studio_japanese": ""}}, {"type": "Feature", "geometry": {"type": "Point", "coordinates": [139.68408203125, 35.8924598693848]}, "properties": {"film_id": 189091, "film_title": "ベンジーニョ", "english_title": "Loveling", "year": null, "location_name": "新宿", "prefecture": null, "location_type": "represented", "info_source": "Represented_eiga_synopsis", "directors": [], "genres": [], "studio": "", "studio_japanese": ""}}, {"type": "Feature", "geometry": {"type": "Point", "coordinates": [135.382131, 34.6497324]}, "properties": {"film_id": 189091, "film_title": "ベンジーニョ", "english_title": "Loveling", "year": null, "location_name": "ウルグアイ", "prefecture": null, "location_type": "represented", "info_source": "Represented_eiga_synopsis", "directors": [], "genres": [], "studio": "", "studio_japanese": ""}}, {"type": "Feature", "geometry": {"type": "Point", "coordinates": [139.6917724609375, 35.6896286010742]}, "properties": {"film_id": 189092, "film_title": "ハード・ペイント", "english_title": "Hard Paint", "year": null, "location_name": "東京", "prefecture": null, "location_type": "represented", "info_source": "Represented_eiga_synopsis", "directors": [], "genres": [], "studio": "", "studio_japanese": ""}}, {"type": "Feature", "geometry": {"type": "Point", "coordinates": [139.68408203125, 35.8924598693848]}, "properties": {"film_id": 189092, "film_title": "ハード・ペイント", "english_title": "Hard Paint", "year": null, "location_name": "新宿", "prefecture": null, "location_type": "represented", "info_source": "Represented_eiga_synopsis", "directors": [], "genres": [], "studio": "", "studio_japanese": ""}}, {"type": "Feature", "geometry": {"type": "Point", "coordinates": [139.6917724609375, 35.6896286010742]}, "properties": {"film_id": 189093, "film_title": "アワ・マン・イン・トーキョー　ザ・バラッド・オブ・シン・ミヤタ", "english_title": null, "year": null, "location_name": "東京", "prefecture": null, "location_type": "represented", "info_source": "Represented_eiga_synopsis", "directors": [], "genres": [], "studio": "", "studio_japanese": ""}}, {"type": "Feature", "geometry": {"type": "Point", "coordinates": [139.68408203125, 35.8924598693848]}, "properties": {"film_id": 189093, "film_title": "アワ・マン・イン・トーキョー　ザ・バラッド・オブ・シン・ミヤタ", "english_title": null, "year": null, "location_name": "新宿", "prefecture": null, "location_type": "represented", "info_source": "Represented_eiga_synopsis", "directors": [], "genres": [], "studio": "", "studio_japanese": ""}}, {"type": "Feature", "geometry": {"type": "Point", "coordinates": [139.5352896, 36.2477591]}, "properties": {"film_id": 189094, "film_title": "MMRワクチン告発", "english_title": "Vaxxed: From Cover-Up to Catastrophe", "year": null, "location_name": "ユナイテッド", "prefecture": null, "location_type": "represented", "info_source": "Represented_eiga_synopsis", "directors": [], "genres": [], "studio": "", "studio_japanese": ""}}, {"type": "Feature", "geometry": {"type": "Point", "coordinates": [120.9605, 23.6978]}, "properties": {"film_id": 189097, "film_title": "幸福城市", "english_title": "Cities of Last Things", "year": null, "location_name": "台湾", "prefecture": null, "location_type": "represented", "info_source": "Represented_eiga_synopsis", "directors": ["ホー・ウィディン"], "genres": [], "studio": "", "studio_japanese": ""}}, {"type": "Feature", "geometry": {"type": "Point", "coordinates": [120.9605, 23.6978]}, "properties": {"film_id": 113811, "film_title": "自由行", "english_title": "A Family Tour", "year": 2018, "location_name": "台湾", "prefecture": null, "location_type": "represented", "info_source": "Represented_eiga_synopsis", "directors": ["イン・リャン", "イン・リャン"], "genres": [], "studio": "", "studio_japanese": ""}}, {"type": "Feature", "geometry": {"type": "Point", "coordinates": [127.7669, 35.9078]}, "properties": {"film_id": 189099, "film_title": "川沿いのホテル", "english_title": "Hotel by the River", "year": 2018, "location_name": "韓国", "prefecture": null, "location_type": "represented", "info_source": "Represented_eiga_synopsis", "directors": ["ホン・サンス"], "genres": [], "studio": "", "studio_japanese": ""}}, {"type": "Feature", "geometry": {"type": "Point", "coordinates": [139.6861772, 35.7068213]}, "properties": {"film_id": 189099, "film_title": "川沿いのホテル", "english_title": "Hotel by the River", "year": 2018, "location_name": "漢江", "prefecture": null, "location_type": "represented", "info_source": "Represented_eiga_synopsis", "directors": ["ホン・サンス"], "genres": [], "studio": "", "studio_japanese": ""}}, {"type": "Feature", "geometry": {"type": "Point", "coordinates": [135.3821641, 34.6497802]}, "properties": {"film_id": 189100, "film_title": "エルサレムの路面電車", "english_title": "A Tramway in Jerusalem", "year": null, "location_name": "イスラエル", "prefecture": null, "location_type": "represented", "info_source": "Represented_eiga_synopsis", "directors": ["アモス・ギタイ"], "genres": [], "studio": "", "studio_japanese": ""}}, {"type": "Feature", "geometry": {"type": "Point", "coordinates": [135.4975676, 34.7055523]}, "properties": {"film_id": 189101, "film_title": "ガザの友人への手紙", "english_title": null, "year": null, "location_name": "ガザ", "prefecture": null, "location_type": "represented", "info_source": "Represented_eiga_title", "directors": ["アモス・ギタイ"], "genres": [], "studio": "", "studio_japanese": ""}}, {"type": "Feature", "geometry": {"type": "Point", "coordinates": [135.3821641, 34.6497802]}, "properties": {"film_id": 189101, "film_title": "ガザの友人への手紙", "english_title": null, "year": null, "location_name": "イスラエル", "prefecture": null, "location_type": "represented", "info_source": "Represented_eiga_synopsis", "directors": ["アモス・ギタイ"], "genres": [], "studio": "", "studio_japanese": ""}}, {"type": "Feature", "geometry": {"type": "Point", "coordinates": [127.7669, 35.9078]}, "properties": {"film_id": 189103, "film_title": "草の葉", "english_title": "Grass", "year": 2018, "location_name": "韓国", "prefecture": null, "location_type": "represented", "info_source": "Represented_eiga_synopsis", "directors": ["ホン・サンス"], "genres": [], "studio": "", "studio_japanese": ""}}, {"type": "Feature", "geometry": {"type": "Point", "coordinates": [120.9605, 23.6978]}, "properties": {"film_id": 189104, "film_title": "台湾、独り言", "english_title": null, "year": null, "location_name": "台湾", "prefecture": null, "location_type": "represented", "info_source": "Represented_eiga_title", "directors": ["曽根剛", "リンデン・ジャング"], "genres": [], "studio": "", "studio_japanese": ""}}, {"type": "Feature", "geometry": {"type": "Point", "coordinates": [135.7149079, 34.3612858]}, "properties": {"film_id": 189107, "film_title": "ロスト・マネー　偽りの報酬", "english_title": "Widows", "year": 2018, "location_name": "シカゴ", "prefecture": null, "location_type": "represented", "info_source": "Represented_eiga_synopsis", "directors": ["スティーヴ・マックィーン"], "genres": ["Crime", "Drama"], "studio": "", "studio_japanese": ""}}, {"type": "Feature", "geometry": {"type": "Point", "coordinates": [127.7669, 35.9078]}, "properties": {"film_id": 189109, "film_title": "母のノート", "english_title": null, "year": null, "location_name": "韓国", "prefecture": null, "location_type": "represented", "info_source": "Represented_eiga_synopsis", "directors": ["キム・ソンホ"], "genres": [], "studio": "", "studio_japanese": ""}}, {"type": "Feature", "geometry": {"type": "Point", "coordinates": [125.305579, 24.813957]}, "properties": {"film_id": 189116, "film_title": "宮古島からのSOS", "english_title": null, "year": null, "location_name": "宮古島", "prefecture": null, "location_type": "represented", "info_source": "Represented_eiga_title", "directors": ["藤本幸久", "影山あさ子"], "genres": [], "studio": "", "studio_japanese": ""}}, {"type": "Feature", "geometry": {"type": "Point", "coordinates": [139.6917724609375, 35.6896286010742]}, "properties": {"film_id": 189118, "film_title": "マリア・スクウォドフスカ＝キュリー", "english_title": null, "year": 2016, "location_name": "東京", "prefecture": null, "location_type": "represented", "info_source": "Represented_eiga_synopsis", "directors": [], "genres": [], "studio": "", "studio_japanese": ""}}, {"type": "Feature", "geometry": {"type": "Point", "coordinates": [139.6917724609375, 35.6896286010742]}, "properties": {"film_id": 189119, "film_title": "クリスマスの夜に", "english_title": "Silent Night", "year": null, "location_name": "東京", "prefecture": null, "location_type": "represented", "info_source": "Represented_eiga_synopsis", "directors": [], "genres": [], "studio": "", "studio_japanese": ""}}, {"type": "Feature", "geometry": {"type": "Point", "coordinates": [139.6917724609375, 35.6896286010742]}, "properties": {"film_id": 189120, "film_title": "ピウスツキ・ブロニスワフ　流刑囚、民族学者、英雄", "english_title": null, "year": null, "location_name": "東京", "prefecture": null, "location_type": "represented", "info_source": "Represented_eiga_synopsis", "directors": [], "genres": [], "studio": "", "studio_japanese": ""}}, {"type": "Feature", "geometry": {"type": "Point", "coordinates": [139.6917724609375, 35.6896286010742]}, "properties": {"film_id": 189121, "film_title": "夜と昼", "english_title": "Nights and Days", "year": 1976, "location_name": "東京", "prefecture": null, "location_type": "represented", "info_source": "Represented_eiga_synopsis", "directors": [], "genres": ["Drama"], "studio": "", "studio_japanese": ""}}, {"type": "Feature", "geometry": {"type": "Point", "coordinates": [139.6917724609375, 35.6896286010742]}, "properties": {"film_id": 189122, "film_title": "ヴォウィン", "english_title": "Hatred", "year": null, "location_name": "東京", "prefecture": null, "location_type": "represented", "info_source": "Represented_eiga_synopsis", "directors": [], "genres": [], "studio": "", "studio_japanese": ""}}, {"type": "Feature", "geometry": {"type": "Point", "coordinates": [139.6917724609375, 35.6896286010742]}, "properties": {"film_id": 189123, "film_title": "ラブ・エクスプレス　ヴァレリアン・ボロフチクについて", "english_title": "Love Express. The Disappearance of Walerian Borowczyk", "year": null, "location_name": "東京", "prefecture": null, "location_type": "represented", "info_source": "Represented_eiga_synopsis", "directors": [], "genres": [], "studio": "", "studio_japanese": ""}}, {"type": "Feature", "geometry": {"type": "Point", "coordinates": [139.6917724609375, 35.6896286010742]}, "properties": {"film_id": 189124, "film_title": "ポコット　動物たちの復讐", "english_title": "Spoor", "year": null, "location_name": "東京", "prefecture": null, "location_type": "represented", "info_source": "Represented_eiga_synopsis", "directors": [], "genres": [], "studio": "", "studio_japanese": ""}}, {"type": "Feature", "geometry": {"type": "Point", "coordinates": [139.7086698, 35.6393717]}, "properties": {"film_id": 189124, "film_title": "ポコット　動物たちの復讐", "english_title": "Spoor", "year": null, "location_name": "ポーランド", "prefecture": null, "location_type": "represented", "info_source": "Represented_eiga_synopsis", "directors": [], "genres": [], "studio": "", "studio_japanese": ""}}, {"type": "Feature", "geometry": {"type": "Point", "coordinates": [135.7555968, 35.0212466]}, "properties": {"film_id": 189126, "film_title": "京都メロウ　金魚のこいびと", "english_title": null, "year": null, "location_name": "京都府", "prefecture": "京都府", "location_type": "represented", "info_source": "Represented_eiga_title", "directors": ["土山久美子"], "genres": [], "studio": "", "studio_japanese": ""}}, {"type": "Feature", "geometry": {"type": "Point", "coordinates": [130.3596867, 33.5818846]}, "properties": {"film_id": 189128, "film_title": "マッスル　踊る稲妻", "english_title": "I", "year": 2015, "location_name": "シャンカール", "prefecture": null, "location_type": "represented", "info_source": "Represented_eiga_synopsis", "directors": [], "genres": ["Action"], "studio": "", "studio_japanese": ""}}, {"type": "Feature", "geometry": {"type": "Point", "coordinates": [137.6496097, 34.7387885]}, "properties": {"film_id": 189130, "film_title": "48 years 沈黙の独裁者", "english_title": null, "year": null, "location_name": "静岡県浜松市", "prefecture": null, "location_type": "represented", "info_source": "Represented_eiga_synopsis", "directors": ["砂入博史"], "genres": [], "studio": "", "studio_japanese": ""}}, {"type": "Feature", "geometry": {"type": "Point", "coordinates": [140.0600624, 36.1079588]}, "properties": {"film_id": 189133, "film_title": "デンジャラス・トレジャー　狙われた秘宝", "english_title": "The Rendezvous", "year": null, "location_name": "中東", "prefecture": null, "location_type": "represented", "info_source": "Represented_eiga_synopsis", "directors": [], "genres": [], "studio": "", "studio_japanese": ""}}, {"type": "Feature", "geometry": {"type": "Point", "coordinates": [135.384749, 34.6495593]}, "properties": {"film_id": 189133, "film_title": "デンジャラス・トレジャー　狙われた秘宝", "english_title": "The Rendezvous", "year": null, "location_name": "ヨルダン", "prefecture": null, "location_type": "represented", "info_source": "Represented_eiga_synopsis", "directors": [], "genres": [], "studio": "", "studio_japanese": ""}}, {"type": "Feature", "geometry": {"type": "Point", "coordinates": [139.6917724609375, 35.6896286010742]}, "properties": {"film_id": 189143, "film_title": "父から息子へ　戦火の国より", "english_title": "Of Fathers and Sons", "year": null, "location_name": "東京", "prefecture": null, "location_type": "represented", "info_source": "Represented_eiga_synopsis", "directors": [], "genres": [], "studio": "", "studio_japanese": ""}}, {"type": "Feature", "geometry": {"type": "Point", "coordinates": [139.7040506, 35.6617773]}, "properties": {"film_id": 189143, "film_title": "父から息子へ　戦火の国より", "english_title": "Of Fathers and Sons", "year": null, "location_name": "渋谷", "prefecture": "【東京都】", "location_type": "represented", "info_source": "Represented_eiga_synopsis", "directors": [], "genres": [], "studio": "", "studio_japanese": ""}}, {"type": "Feature", "geometry": {"type": "Point", "coordinates": [139.6917724609375, 35.6896286010742]}, "properties": {"film_id": 189144, "film_title": "プチ・ブルの犬", "english_title": null, "year": null, "location_name": "東京", "prefecture": null, "location_type": "represented", "info_source": "Represented_eiga_synopsis", "directors": ["ユリアン・ラードルマイヤー"], "genres": [], "studio": "", "studio_japanese": ""}}, {"type": "Feature", "geometry": {"type": "Point", "coordinates": [139.7040506, 35.6617773]}, "properties": {"film_id": 189144, "film_title": "プチ・ブルの犬", "english_title": null, "year": null, "location_name": "渋谷", "prefecture": "【東京都】", "location_type": "represented", "info_source": "Represented_eiga_synopsis", "directors": ["ユリアン・ラードルマイヤー"], "genres": [], "studio": "", "studio_japanese": ""}}, {"type": "Feature", "geometry": {"type": "Point", "coordinates": [139.7421835, 35.6505828]}, "properties": {"film_id": 189144, "film_title": "プチ・ブルの犬", "english_title": null, "year": null, "location_name": "ｲﾀﾘｱ", "prefecture": null, "location_type": "represented", "info_source": "Represented_eiga_synopsis", "directors": ["ユリアン・ラードルマイヤー"], "genres": [], "studio": "", "studio_japanese": ""}}, {"type": "Feature", "geometry": {"type": "Point", "coordinates": [139.6917724609375, 35.6896286010742]}, "properties": {"film_id": 189145, "film_title": "明日吹く風", "english_title": "Whatever Happens Next", "year": null, "location_name": "東京", "prefecture": null, "location_type": "represented", "info_source": "Represented_eiga_synopsis", "directors": [], "genres": [], "studio": "", "studio_japanese": ""}}, {"type": "Feature", "geometry": {"type": "Point", "coordinates": [139.7040506, 35.6617773]}, "properties": {"film_id": 189145, "film_title": "明日吹く風", "english_title": "Whatever Happens Next", "year": null, "location_name": "渋谷", "prefecture": "【東京都】", "location_type": "represented", "info_source": "Represented_eiga_synopsis", "directors": [], "genres": [], "studio": "", "studio_japanese": ""}}, {"type": "Feature", "geometry": {"type": "Point", "coordinates": [139.7086698, 35.6393717]}, "properties": {"film_id": 189145, "film_title": "明日吹く風", "english_title": "Whatever Happens Next", "year": null, "location_name": "ポーランド", "prefecture": null, "location_type": "represented", "info_source": "Represented_eiga_synopsis", "directors": [], "genres": [], "studio": "", "studio_japanese": ""}}, {"type": "Feature", "geometry": {"type": "Point", "coordinates": [139.6917724609375, 35.6896286010742]}, "properties": {"film_id": 189146, "film_title": "ソーシャルメディアの“掃除屋”たち", "english_title": "The Cleaners", "year": null, "location_name": "東京", "prefecture": null, "location_type": "represented", "info_source": "Represented_eiga_synopsis", "directors": [], "genres": [], "studio": "", "studio_japanese": ""}}, {"type": "Feature", "geometry": {"type": "Point", "coordinates": [139.7040506, 35.6617773]}, "properties": {"film_id": 189146, "film_title": "ソーシャルメディアの“掃除屋”たち", "english_title": "The Cleaners", "year": null, "location_name": "渋谷", "prefecture": "【東京都】", "location_type": "represented", "info_source": "Represented_eiga_synopsis", "directors": [], "genres": [], "studio": "", "studio_japanese": ""}}, {"type": "Feature", "geometry": {"type": "Point", "coordinates": [135.5047867, 34.6628405]}, "properties": {"film_id": 189146, "film_title": "ソーシャルメディアの“掃除屋”たち", "english_title": "The Cleaners", "year": null, "location_name": "オランダ", "prefecture": null, "location_type": "represented", "info_source": "Represented_eiga_synopsis", "directors": [], "genres": [], "studio": "", "studio_japanese": ""}}, {"type": "Feature", "geometry": {"type": "Point", "coordinates": [139.7421835, 35.6505828]}, "properties": {"film_id": 189146, "film_title": "ソーシャルメディアの“掃除屋”たち", "english_title": "The Cleaners", "year": null, "location_name": "ｲﾀﾘｱ", "prefecture": null, "location_type": "represented", "info_source": "Represented_eiga_synopsis", "directors": [], "genres": [], "studio": "", "studio_japanese": ""}}, {"type": "Feature", "geometry": {"type": "Point", "coordinates": [136.9332248, 35.4017922]}, "properties": {"film_id": 189147, "film_title": "リトル・マーメイド　人魚姫と魔法の秘密", "english_title": "The Little Mermaid", "year": 2018, "location_name": "ミシシッピ", "prefecture": null, "location_type": "represented", "info_source": "Represented_eiga_synopsis", "directors": [], "genres": ["Fantasy", "Adventure", "Drama"], "studio": "", "studio_japanese": ""}}, {"type": "Feature", "geometry": {"type": "Point", "coordinates": [135.3821641, 34.6497802]}, "properties": {"film_id": 189153, "film_title": "囚われのサーカス", "english_title": "Adam Resurrected", "year": 2008, "location_name": "イスラエル", "prefecture": null, "location_type": "represented", "info_source": "Represented_eiga_synopsis", "directors": ["ポール・シュレイダー"], "genres": ["Drama", "War"], "studio": "", "studio_japanese": ""}}, {"type": "Feature", "geometry": {"type": "Point", "coordinates": [139.6462837, 35.4272033]}, "properties": {"film_id": 189159, "film_title": "シノニムズ", "english_title": "Synonyms", "year": 2018, "location_name": "横浜市", "prefecture": "神奈川県", "location_type": "represented", "info_source": "Represented_eiga_synopsis", "directors": ["ナダブ・ラピド"], "genres": [], "studio": "", "studio_japanese": ""}}, {"type": "Feature", "geometry": {"type": "Point", "coordinates": [135.3821641, 34.6497802]}, "properties": {"film_id": 189159, "film_title": "シノニムズ", "english_title": "Synonyms", "year": 2018, "location_name": "イスラエル", "prefecture": null, "location_type": "represented", "info_source": "Represented_eiga_synopsis", "directors": ["ナダブ・ラピド"], "genres": [], "studio": "", "studio_japanese": ""}}, {"type": "Feature", "geometry": {"type": "Point", "coordinates": [139.6917724609375, 35.6896286010742]}, "properties": {"film_id": 189164, "film_title": "失踪、発見", "english_title": "Lost, Found", "year": 2018, "location_name": "東京", "prefecture": null, "location_type": "represented", "info_source": "Represented_eiga_synopsis", "directors": ["ルー・ユエ"], "genres": [], "studio": "", "studio_japanese": ""}}, {"type": "Feature", "geometry": {"type": "Point", "coordinates": [135.5021651, 34.6937378]}, "properties": {"film_id": 189164, "film_title": "失踪、発見", "english_title": "Lost, Found", "year": 2018, "location_name": "大阪市", "prefecture": "大阪府", "location_type": "represented", "info_source": "Represented_eiga_synopsis", "directors": ["ルー・ユエ"], "genres": [], "studio": "", "studio_japanese": ""}}, {"type": "Feature", "geometry": {"type": "Point", "coordinates": [139.6917724609375, 35.6896286010742]}, "properties": {"film_id": 189165, "film_title": "駐在巡査　宝音（ボヤン）", "english_title": null, "year": 2018, "location_name": "東京", "prefecture": null, "location_type": "represented", "info_source": "Represented_eiga_synopsis", "directors": [], "genres": [], "studio": "", "studio_japanese": ""}}, {"type": "Feature", "geometry": {"type": "Point", "coordinates": [135.5021651, 34.6937378]}, "properties": {"film_id": 189165, "film_title": "駐在巡査　宝音（ボヤン）", "english_title": null, "year": 2018, "location_name": "大阪市", "prefecture": "大阪府", "location_type": "represented", "info_source": "Represented_eiga_synopsis", "directors": [], "genres": [], "studio": "", "studio_japanese": ""}}, {"type": "Feature", "geometry": {"type": "Point", "coordinates": [139.6917724609375, 35.6896286010742]}, "properties": {"film_id": 189166, "film_title": "アイランド　一出好戯", "english_title": null, "year": 2018, "location_name": "東京", "prefecture": null, "location_type": "represented", "info_source": "Represented_eiga_synopsis", "directors": ["ホアン・ボー"], "genres": [], "studio": "", "studio_japanese": ""}}, {"type": "Feature", "geometry": {"type": "Point", "coordinates": [135.5021651, 34.6937378]}, "properties": {"film_id": 189166, "film_title": "アイランド　一出好戯", "english_title": null, "year": 2018, "location_name": "大阪市", "prefecture": "大阪府", "location_type": "represented", "info_source": "Represented_eiga_synopsis", "directors": ["ホアン・ボー"], "genres": [], "studio": "", "studio_japanese": ""}}, {"type": "Feature", "geometry": {"type": "Point", "coordinates": [139.6917724609375, 35.6896286010742]}, "properties": {"film_id": 189169, "film_title": "選ばれざる路", "english_title": "The Road Not Taken", "year": null, "location_name": "東京", "prefecture": null, "location_type": "represented", "info_source": "Represented_eiga_synopsis", "directors": [], "genres": [], "studio": "", "studio_japanese": ""}}, {"type": "Feature", "geometry": {"type": "Point", "coordinates": [135.5021651, 34.6937378]}, "properties": {"film_id": 189169, "film_title": "選ばれざる路", "english_title": "The Road Not Taken", "year": null, "location_name": "大阪市", "prefecture": "大阪府", "location_type": "represented", "info_source": "Represented_eiga_synopsis", "directors": [], "genres": [], "studio": "", "studio_japanese": ""}}, {"type": "Feature", "geometry": {"type": "Point", "coordinates": [127.7669, 35.9078]}, "properties": {"film_id": 189170, "film_title": "麻薬王", "english_title": "The Drug King", "year": 2018, "location_name": "韓国", "prefecture": null, "location_type": "represented", "info_source": "Represented_eiga_synopsis", "directors": [], "genres": ["Drama"], "studio": "", "studio_japanese": ""}}, {"type": "Feature", "geometry": {"type": "Point", "coordinates": [139.8150066, 35.7633244]}, "properties": {"film_id": 189170, "film_title": "麻薬王", "english_title": "The Drug King", "year": 2018, "location_name": "釜山", "prefecture": null, "location_type": "represented", "info_source": "Represented_eiga_synopsis", "directors": [], "genres": ["Drama"], "studio": "", "studio_japanese": ""}}, {"type": "Feature", "geometry": {"type": "Point", "coordinates": [139.7303983, 35.6526269]}, "properties": {"film_id": 189171, "film_title": "ラスト・マン　地球最後の男", "english_title": "The Last Man", "year": 2018, "location_name": "アルゼンチン", "prefecture": null, "location_type": "represented", "info_source": "Represented_eiga_synopsis", "directors": [], "genres": ["Action", "Science Fiction"], "studio": "", "studio_japanese": ""}}, {"type": "Feature", "geometry": {"type": "Point", "coordinates": [127.6819039, 26.2161745]}, "properties": {"film_id": 189173, "film_title": "判事オリヴァー・ストレート　全米に裁かれた男", "english_title": "American Hangman", "year": null, "location_name": "全米", "prefecture": null, "location_type": "represented", "info_source": "Represented_eiga_title", "directors": [], "genres": [], "studio": "", "studio_japanese": ""}}, {"type": "Feature", "geometry": {"type": "Point", "coordinates": [139.7421835, 35.6505828]}, "properties": {"film_id": 189174, "film_title": "さすらいの人　オスカー・ワイルド", "english_title": "The Happy Prince", "year": 2018, "location_name": "ｲﾀﾘｱ", "prefecture": null, "location_type": "represented", "info_source": "Represented_eiga_synopsis", "directors": ["ルパート・エベレット"], "genres": ["Drama", "Biography"], "studio": "", "studio_japanese": ""}}, {"type": "Feature", "geometry": {"type": "Point", "coordinates": [139.6917724609375, 35.6896286010742]}, "properties": {"film_id": 189175, "film_title": "女性の名前", "english_title": "A Woman's Name", "year": 2018, "location_name": "東京", "prefecture": null, "location_type": "represented", "info_source": "Represented_eiga_synopsis", "directors": [], "genres": ["Drama"], "studio": "", "studio_japanese": ""}}, {"type": "Feature", "geometry": {"type": "Point", "coordinates": [139.7606676, 35.6732638]}, "properties": {"film_id": 189175, "film_title": "女性の名前", "english_title": "A Woman's Name", "year": 2018, "location_name": "有楽町", "prefecture": "【東京都】", "location_type": "represented", "info_source": "Represented_eiga_synopsis", "directors": [], "genres": ["Drama"], "studio": "", "studio_japanese": ""}}, {"type": "Feature", "geometry": {"type": "Point", "coordinates": [139.6917724609375, 35.6896286010742]}, "properties": {"film_id": 189176, "film_title": "私が神", "english_title": "Just Believe", "year": 2018, "location_name": "東京", "prefecture": null, "location_type": "represented", "info_source": "Represented_eiga_synopsis", "directors": [], "genres": ["Comedy"], "studio": "", "studio_japanese": ""}}, {"type": "Feature", "geometry": {"type": "Point", "coordinates": [139.7606676, 35.6732638]}, "properties": {"film_id": 189176, "film_title": "私が神", "english_title": "Just Believe", "year": 2018, "location_name": "有楽町", "prefecture": "【東京都】", "location_type": "represented", "info_source": "Represented_eiga_synopsis", "directors": [], "genres": ["Comedy"], "studio": "", "studio_japanese": ""}}, {"type": "Feature", "geometry": {"type": "Point", "coordinates": [139.6917724609375, 35.6896286010742]}, "properties": {"film_id": 189177, "film_title": "幸せな感じ", "english_title": "Euphoria", "year": 2018, "location_name": "東京", "prefecture": null, "location_type": "represented", "info_source": "Represented_eiga_synopsis", "directors": ["バレリア・ゴリノ"], "genres": [], "studio": "", "studio_japanese": ""}}, {"type": "Feature", "geometry": {"type": "Point", "coordinates": [139.7606676, 35.6732638]}, "properties": {"film_id": 189177, "film_title": "幸せな感じ", "english_title": "Euphoria", "year": 2018, "location_name": "有楽町", "prefecture": "【東京都】", "location_type": "represented", "info_source": "Represented_eiga_synopsis", "directors": ["バレリア・ゴリノ"], "genres": [], "studio": "", "studio_japanese": ""}}, {"type": "Feature", "geometry": {"type": "Point", "coordinates": [139.6917724609375, 35.6896286010742]}, "properties": {"film_id": 189178, "film_title": "ルチアの恩寵", "english_title": "Lucia's Grace", "year": 2018, "location_name": "東京", "prefecture": null, "location_type": "represented", "info_source": "Represented_eiga_synopsis", "directors": [], "genres": ["Drama", "Comedy"], "studio": "", "studio_japanese": ""}}, {"type": "Feature", "geometry": {"type": "Point", "coordinates": [139.7606676, 35.6732638]}, "properties": {"film_id": 189178, "film_title": "ルチアの恩寵", "english_title": "Lucia's Grace", "year": 2018, "location_name": "有楽町", "prefecture": "【東京都】", "location_type": "represented", "info_source": "Represented_eiga_synopsis", "directors": [], "genres": ["Drama", "Comedy"], "studio": "", "studio_japanese": ""}}, {"type": "Feature", "geometry": {"type": "Point", "coordinates": [139.6917724609375, 35.6896286010742]}, "properties": {"film_id": 189179, "film_title": "アルマジロの予言", "english_title": "The Prophecy of the Armadillo", "year": 2018, "location_name": "東京", "prefecture": null, "location_type": "represented", "info_source": "Represented_eiga_synopsis", "directors": [], "genres": ["Youth", "Drama"], "studio": "", "studio_japanese": ""}}, {"type": "Feature", "geometry": {"type": "Point", "coordinates": [139.7606676, 35.6732638]}, "properties": {"film_id": 189179, "film_title": "アルマジロの予言", "english_title": "The Prophecy of the Armadillo", "year": 2018, "location_name": "有楽町", "prefecture": "【東京都】", "location_type": "represented", "info_source": "Represented_eiga_synopsis", "directors": [], "genres": ["Youth", "Drama"], "studio": "", "studio_japanese": ""}}, {"type": "Feature", "geometry": {"type": "Point", "coordinates": [139.6917724609375, 35.6896286010742]}, "properties": {"film_id": 189180, "film_title": "ある日突然に", "english_title": "Un giorno all'improvviso", "year": 2018, "location_name": "東京", "prefecture": null, "location_type": "represented", "info_source": "Represented_eiga_synopsis", "directors": [], "genres": ["Drama"], "studio": "", "studio_japanese": ""}}, {"type": "Feature", "geometry": {"type": "Point", "coordinates": [139.7606676, 35.6732638]}, "properties": {"film_id": 189180, "film_title": "ある日突然に", "english_title": "Un giorno all'improvviso", "year": 2018, "location_name": "有楽町", "prefecture": "【東京都】", "location_type": "represented", "info_source": "Represented_eiga_synopsis", "directors": [], "genres": ["Drama"], "studio": "", "studio_japanese": ""}}, {"type": "Feature", "geometry": {"type": "Point", "coordinates": [139.6917724609375, 35.6896286010742]}, "properties": {"film_id": 189181, "film_title": "憶えてる？", "english_title": "Ricordi?", "year": 2018, "location_name": "東京", "prefecture": null, "location_type": "represented", "info_source": "Represented_eiga_synopsis", "directors": [], "genres": ["Romance"], "studio": "", "studio_japanese": ""}}, {"type": "Feature", "geometry": {"type": "Point", "coordinates": [139.7606676, 35.6732638]}, "properties": {"film_id": 189181, "film_title": "憶えてる？", "english_title": "Ricordi?", "year": 2018, "location_name": "有楽町", "prefecture": "【東京都】", "location_type": "represented", "info_source": "Represented_eiga_synopsis", "directors": [], "genres": ["Romance"], "studio": "", "studio_japanese": ""}}, {"type": "Feature", "geometry": {"type": "Point", "coordinates": [139.7421835, 35.6505828]}, "properties": {"film_id": 189181, "film_title": "憶えてる？", "english_title": "Ricordi?", "year": 2018, "location_name": "ｲﾀﾘｱ", "prefecture": null, "location_type": "represented", "info_source": "Represented_eiga_synopsis", "directors": [], "genres": ["Romance"], "studio": "", "studio_japanese": ""}}, {"type": "Feature", "geometry": {"type": "Point", "coordinates": [139.6917724609375, 35.6896286010742]}, "properties": {"film_id": 189182, "film_title": "月を買った男", "english_title": "The Man Who Bought the Moon", "year": 2018, "location_name": "東京", "prefecture": null, "location_type": "represented", "info_source": "Represented_eiga_synopsis", "directors": [], "genres": ["Comedy"], "studio": "", "studio_japanese": ""}}, {"type": "Feature", "geometry": {"type": "Point", "coordinates": [139.7606676, 35.6732638]}, "properties": {"film_id": 189182, "film_title": "月を買った男", "english_title": "The Man Who Bought the Moon", "year": 2018, "location_name": "有楽町", "prefecture": "【東京都】", "location_type": "represented", "info_source": "Represented_eiga_synopsis", "directors": [], "genres": ["Comedy"], "studio": "", "studio_japanese": ""}}, {"type": "Feature", "geometry": {"type": "Point", "coordinates": [139.7421835, 35.6505828]}, "properties": {"film_id": 189182, "film_title": "月を買った男", "english_title": "The Man Who Bought the Moon", "year": 2018, "location_name": "ｲﾀﾘｱ", "prefecture": null, "location_type": "represented", "info_source": "Represented_eiga_synopsis", "directors": [], "genres": ["Comedy"], "studio": "", "studio_japanese": ""}}, {"type": "Feature", "geometry": {"type": "Point", "coordinates": [139.7726279, 35.6650183]}, "properties": {"film_id": 189182, "film_title": "月を買った男", "english_title": "The Man Who Bought the Moon", "year": 2018, "location_name": "アルバニア", "prefecture": null, "location_type": "represented", "info_source": "Represented_eiga_synopsis", "directors": [], "genres": ["Comedy"], "studio": "", "studio_japanese": ""}}, {"type": "Feature", "geometry": {"type": "Point", "coordinates": [139.6917724609375, 35.6896286010742]}, "properties": {"film_id": 189183, "film_title": "彼女は笑う", "english_title": "Ride", "year": 2018, "location_name": "東京", "prefecture": null, "location_type": "represented", "info_source": "Represented_eiga_synopsis", "directors": ["バレリオ・マスタンドレア"], "genres": ["Drama"], "studio": "", "studio_japanese": ""}}, {"type": "Feature", "geometry": {"type": "Point", "coordinates": [139.7606676, 35.6732638]}, "properties": {"film_id": 189183, "film_title": "彼女は笑う", "english_title": "Ride", "year": 2018, "location_name": "有楽町", "prefecture": "【東京都】", "location_type": "represented", "info_source": "Represented_eiga_synopsis", "directors": ["バレリオ・マスタンドレア"], "genres": ["Drama"], "studio": "", "studio_japanese": ""}}, {"type": "Feature", "geometry": {"type": "Point", "coordinates": [135.7848716, 35.0620701]}, "properties": {"film_id": 189185, "film_title": "シベリアからの手紙", "english_title": "Letter from Siberia", "year": 1958, "location_name": "シベリア", "prefecture": null, "location_type": "represented", "info_source": "Represented_eiga_title", "directors": ["クリス・マルケル"], "genres": ["Documentary"], "studio": "", "studio_japanese": ""}}, {"type": "Feature", "geometry": {"type": "Point", "coordinates": [139.7382162, 35.7523146]}, "properties": {"film_id": 189188, "film_title": "アラジン　悪しき王子と二人の魔人", "english_title": "Aladdin 2", "year": 2018, "location_name": "王子", "prefecture": null, "location_type": "represented", "info_source": "Represented_eiga_title", "directors": [], "genres": ["Fantasy", "Comedy", "Action"], "studio": "", "studio_japanese": ""}}, {"type": "Feature", "geometry": {"type": "Point", "coordinates": [136.8450926, 34.3605431]}, "properties": {"film_id": 189189, "film_title": "嵐の中で", "english_title": "Mirage", "year": 2018, "location_name": "スペイン村", "prefecture": null, "location_type": "represented", "info_source": "Represented_eiga_synopsis", "directors": [], "genres": ["Drama", "Fantasy", "Science Fiction"], "studio": "", "studio_japanese": ""}}, {"type": "Feature", "geometry": {"type": "Point", "coordinates": [139.7286277, 35.6503408]}, "properties": {"film_id": 189190, "film_title": "ガーディアン・エンジェル　洗脳捜査X", "english_title": "Murderous Trance", "year": 2018, "location_name": "フィンランド", "prefecture": null, "location_type": "represented", "info_source": "Represented_eiga_synopsis", "directors": [], "genres": ["Suspense", "Crime", "Mystery"], "studio": "", "studio_japanese": ""}}, {"type": "Feature", "geometry": {"type": "Point", "coordinates": [135.7555968, 35.0212466]}, "properties": {"film_id": 189191, "film_title": "クイーン・オブ・アイルランド", "english_title": "The Queen of Ireland", "year": null, "location_name": "京都府", "prefecture": "京都府", "location_type": "represented", "info_source": "Represented_eiga_synopsis", "directors": [], "genres": [], "studio": "", "studio_japanese": ""}}, {"type": "Feature", "geometry": {"type": "Point", "coordinates": [132.7324364, 34.3947165]}, "properties": {"film_id": 189191, "film_title": "クイーン・オブ・アイルランド", "english_title": "The Queen of Ireland", "year": null, "location_name": "広島市", "prefecture": "広島県", "location_type": "represented", "info_source": "Represented_eiga_synopsis", "directors": [], "genres": [], "studio": "", "studio_japanese": ""}}, {"type": "Feature", "geometry": {"type": "Point", "coordinates": [135.7555968, 35.0212466]}, "properties": {"film_id": 189192, "film_title": "小さな同志", "english_title": "The Little Comrade", "year": null, "location_name": "京都府", "prefecture": "京都府", "location_type": "represented", "info_source": "Represented_eiga_synopsis", "directors": [], "genres": [], "studio": "", "studio_japanese": ""}}, {"type": "Feature", "geometry": {"type": "Point", "coordinates": [132.7324364, 34.3947165]}, "properties": {"film_id": 189192, "film_title": "小さな同志", "english_title": "The Little Comrade", "year": null, "location_name": "広島市", "prefecture": "広島県", "location_type": "represented", "info_source": "Represented_eiga_synopsis", "directors": [], "genres": [], "studio": "", "studio_japanese": ""}}, {"type": "Feature", "geometry": {"type": "Point", "coordinates": [135.7555968, 35.0212466]}, "properties": {"film_id": 189193, "film_title": "人生はトランペット", "english_title": "Life Is a Trumpet", "year": null, "location_name": "京都府", "prefecture": "京都府", "location_type": "represented", "info_source": "Represented_eiga_synopsis", "directors": [], "genres": [], "studio": "", "studio_japanese": ""}}, {"type": "Feature", "geometry": {"type": "Point", "coordinates": [132.7324364, 34.3947165]}, "properties": {"film_id": 189193, "film_title": "人生はトランペット", "english_title": "Life Is a Trumpet", "year": null, "location_name": "広島市", "prefecture": "広島県", "location_type": "represented", "info_source": "Represented_eiga_synopsis", "directors": [], "genres": [], "studio": "", "studio_japanese": ""}}, {"type": "Feature", "geometry": {"type": "Point", "coordinates": [135.3818433, 34.6499245]}, "properties": {"film_id": 189193, "film_title": "人生はトランペット", "english_title": "Life Is a Trumpet", "year": null, "location_name": "クロアチア", "prefecture": null, "location_type": "represented", "info_source": "Represented_eiga_synopsis", "directors": [], "genres": [], "studio": "", "studio_japanese": ""}}, {"type": "Feature", "geometry": {"type": "Point", "coordinates": [135.7555968, 35.0212466]}, "properties": {"film_id": 189194, "film_title": "さようならが言えなくて", "english_title": "Can't Say Goodbye", "year": null, "location_name": "京都府", "prefecture": "京都府", "location_type": "represented", "info_source": "Represented_eiga_synopsis", "directors": [], "genres": [], "studio": "", "studio_japanese": ""}}, {"type": "Feature", "geometry": {"type": "Point", "coordinates": [132.7324364, 34.3947165]}, "properties": {"film_id": 189194, "film_title": "さようならが言えなくて", "english_title": "Can't Say Goodbye", "year": null, "location_name": "広島市", "prefecture": "広島県", "location_type": "represented", "info_source": "Represented_eiga_synopsis", "directors": [], "genres": [], "studio": "", "studio_japanese": ""}}, {"type": "Feature", "geometry": {"type": "Point", "coordinates": [135.7555968, 35.0212466]}, "properties": {"film_id": 189195, "film_title": "イヴァン", "english_title": "Ivan", "year": null, "location_name": "京都府", "prefecture": "京都府", "location_type": "represented", "info_source": "Represented_eiga_synopsis", "directors": [], "genres": [], "studio": "", "studio_japanese": ""}}, {"type": "Feature", "geometry": {"type": "Point", "coordinates": [132.7324364, 34.3947165]}, "properties": {"film_id": 189195, "film_title": "イヴァン", "english_title": "Ivan", "year": null, "location_name": "広島市", "prefecture": "広島県", "location_type": "represented", "info_source": "Represented_eiga_synopsis", "directors": [], "genres": [], "studio": "", "studio_japanese": ""}}, {"type": "Feature", "geometry": {"type": "Point", "coordinates": [135.7555968, 35.0212466]}, "properties": {"film_id": 189196, "film_title": "ヤン・パラフ", "english_title": null, "year": null, "location_name": "京都府", "prefecture": "京都府", "location_type": "represented", "info_source": "Represented_eiga_synopsis", "directors": [], "genres": [], "studio": "", "studio_japanese": ""}}, {"type": "Feature", "geometry": {"type": "Point", "coordinates": [132.7324364, 34.3947165]}, "properties": {"film_id": 189196, "film_title": "ヤン・パラフ", "english_title": null, "year": null, "location_name": "広島市", "prefecture": "広島県", "location_type": "represented", "info_source": "Represented_eiga_synopsis", "directors": [], "genres": [], "studio": "", "studio_japanese": ""}}, {"type": "Feature", "geometry": {"type": "Point", "coordinates": [135.7555968, 35.0212466]}, "properties": {"film_id": 189197, "film_title": "無限のガーデン", "english_title": "The Infinite Garden", "year": null, "location_name": "京都府", "prefecture": "京都府", "location_type": "represented", "info_source": "Represented_eiga_synopsis", "directors": [], "genres": [], "studio": "", "studio_japanese": ""}}, {"type": "Feature", "geometry": {"type": "Point", "coordinates": [132.7324364, 34.3947165]}, "properties": {"film_id": 189197, "film_title": "無限のガーデン", "english_title": "The Infinite Garden", "year": null, "location_name": "広島市", "prefecture": "広島県", "location_type": "represented", "info_source": "Represented_eiga_synopsis", "directors": [], "genres": [], "studio": "", "studio_japanese": ""}}, {"type": "Feature", "geometry": {"type": "Point", "coordinates": [139.6904665, 35.6737004]}, "properties": {"film_id": 189197, "film_title": "無限のガーデン", "english_title": "The Infinite Garden", "year": null, "location_name": "ブルガリア", "prefecture": null, "location_type": "represented", "info_source": "Represented_eiga_synopsis", "directors": [], "genres": [], "studio": "", "studio_japanese": ""}}, {"type": "Feature", "geometry": {"type": "Point", "coordinates": [139.7421835, 35.6505828]}, "properties": {"film_id": 189197, "film_title": "無限のガーデン", "english_title": "The Infinite Garden", "year": null, "location_name": "ｲﾀﾘｱ", "prefecture": null, "location_type": "represented", "info_source": "Represented_eiga_synopsis", "directors": [], "genres": [], "studio": "", "studio_japanese": ""}}, {"type": "Feature", "geometry": {"type": "Point", "coordinates": [135.7555968, 35.0212466]}, "properties": {"film_id": 189198, "film_title": "撃たないで！", "english_title": null, "year": 2018, "location_name": "京都府", "prefecture": "京都府", "location_type": "represented", "info_source": "Represented_eiga_synopsis", "directors": [], "genres": [], "studio": "", "studio_japanese": ""}}, {"type": "Feature", "geometry": {"type": "Point", "coordinates": [132.7324364, 34.3947165]}, "properties": {"film_id": 189198, "film_title": "撃たないで！", "english_title": null, "year": 2018, "location_name": "広島市", "prefecture": "広島県", "location_type": "represented", "info_source": "Represented_eiga_synopsis", "directors": [], "genres": [], "studio": "", "studio_japanese": ""}}, {"type": "Feature", "geometry": {"type": "Point", "coordinates": [135.7555968, 35.0212466]}, "properties": {"film_id": 189199, "film_title": "ウォーターパーク", "english_title": null, "year": null, "location_name": "京都府", "prefecture": "京都府", "location_type": "represented", "info_source": "Represented_eiga_synopsis", "directors": ["アナ・モレイラ"], "genres": [], "studio": "", "studio_japanese": ""}}, {"type": "Feature", "geometry": {"type": "Point", "coordinates": [132.7324364, 34.3947165]}, "properties": {"film_id": 189199, "film_title": "ウォーターパーク", "english_title": null, "year": null, "location_name": "広島市", "prefecture": "広島県", "location_type": "represented", "info_source": "Represented_eiga_synopsis", "directors": ["アナ・モレイラ"], "genres": [], "studio": "", "studio_japanese": ""}}, {"type": "Feature", "geometry": {"type": "Point", "coordinates": [135.7555968, 35.0212466]}, "properties": {"film_id": 189200, "film_title": "恐怖の設置", "english_title": "A Instalação do Medo", "year": null, "location_name": "京都府", "prefecture": "京都府", "location_type": "represented", "info_source": "Represented_eiga_synopsis", "directors": [], "genres": [], "studio": "", "studio_japanese": ""}}, {"type": "Feature", "geometry": {"type": "Point", "coordinates": [132.7324364, 34.3947165]}, "properties": {"film_id": 189200, "film_title": "恐怖の設置", "english_title": "A Instalação do Medo", "year": null, "location_name": "広島市", "prefecture": "広島県", "location_type": "represented", "info_source": "Represented_eiga_synopsis", "directors": [], "genres": [], "studio": "", "studio_japanese": ""}}, {"type": "Feature", "geometry": {"type": "Point", "coordinates": [135.7555968, 35.0212466]}, "properties": {"film_id": 189201, "film_title": "いかにしてフェルナンド・ペソーアはポルトガルを救ったか", "english_title": "How Fernando Pessoa Saved Portugal", "year": null, "location_name": "京都府", "prefecture": "京都府", "location_type": "represented", "info_source": "Represented_eiga_synopsis", "directors": [], "genres": [], "studio": "", "studio_japanese": ""}}, {"type": "Feature", "geometry": {"type": "Point", "coordinates": [132.7324364, 34.3947165]}, "properties": {"film_id": 189201, "film_title": "いかにしてフェルナンド・ペソーアはポルトガルを救ったか", "english_title": "How Fernando Pessoa Saved Portugal", "year": null, "location_name": "広島市", "prefecture": "広島県", "location_type": "represented", "info_source": "Represented_eiga_synopsis", "directors": [], "genres": [], "studio": "", "studio_japanese": ""}}, {"type": "Feature", "geometry": {"type": "Point", "coordinates": [135.7555968, 35.0212466]}, "properties": {"film_id": 189202, "film_title": "古代の森", "english_title": "The Ancient Woods", "year": null, "location_name": "京都府", "prefecture": "京都府", "location_type": "represented", "info_source": "Represented_eiga_synopsis", "directors": [], "genres": [], "studio": "", "studio_japanese": ""}}, {"type": "Feature", "geometry": {"type": "Point", "coordinates": [132.7324364, 34.3947165]}, "properties": {"film_id": 189202, "film_title": "古代の森", "english_title": "The Ancient Woods", "year": null, "location_name": "広島市", "prefecture": "広島県", "location_type": "represented", "info_source": "Represented_eiga_synopsis", "directors": [], "genres": [], "studio": "", "studio_japanese": ""}}, {"type": "Feature", "geometry": {"type": "Point", "coordinates": [139.7297454, 35.6563058]}, "properties": {"film_id": 189202, "film_title": "古代の森", "english_title": "The Ancient Woods", "year": null, "location_name": "リトアニア", "prefecture": null, "location_type": "represented", "info_source": "Represented_eiga_synopsis", "directors": [], "genres": [], "studio": "", "studio_japanese": ""}}, {"type": "Feature", "geometry": {"type": "Point", "coordinates": [139.7116375, 35.6729201]}, "properties": {"film_id": 189202, "film_title": "古代の森", "english_title": "The Ancient Woods", "year": null, "location_name": "エストニア", "prefecture": null, "location_type": "represented", "info_source": "Represented_eiga_synopsis", "directors": [], "genres": [], "studio": "", "studio_japanese": ""}}, {"type": "Feature", "geometry": {"type": "Point", "coordinates": [139.7245065, 35.6579558]}, "properties": {"film_id": 189203, "film_title": "野生のルーマニア", "english_title": null, "year": null, "location_name": "ルーマニア", "prefecture": null, "location_type": "represented", "info_source": "Represented_eiga_title", "directors": [], "genres": [], "studio": "", "studio_japanese": ""}}, {"type": "Feature", "geometry": {"type": "Point", "coordinates": [135.7555968, 35.0212466]}, "properties": {"film_id": 189203, "film_title": "野生のルーマニア", "english_title": null, "year": null, "location_name": "京都府", "prefecture": "京都府", "location_type": "represented", "info_source": "Represented_eiga_synopsis", "directors": [], "genres": [], "studio": "", "studio_japanese": ""}}, {"type": "Feature", "geometry": {"type": "Point", "coordinates": [132.7324364, 34.3947165]}, "properties": {"film_id": 189203, "film_title": "野生のルーマニア", "english_title": null, "year": null, "location_name": "広島市", "prefecture": "広島県", "location_type": "represented", "info_source": "Represented_eiga_synopsis", "directors": [], "genres": [], "studio": "", "studio_japanese": ""}}, {"type": "Feature", "geometry": {"type": "Point", "coordinates": [135.7555968, 35.0212466]}, "properties": {"film_id": 189204, "film_title": "スーパージャンプ・リターンズ", "english_title": "Superchamp Returns", "year": null, "location_name": "京都府", "prefecture": "京都府", "location_type": "represented", "info_source": "Represented_eiga_synopsis", "directors": [], "genres": [], "studio": "", "studio_japanese": ""}}, {"type": "Feature", "geometry": {"type": "Point", "coordinates": [132.7324364, 34.3947165]}, "properties": {"film_id": 189204, "film_title": "スーパージャンプ・リターンズ", "english_title": "Superchamp Returns", "year": null, "location_name": "広島市", "prefecture": "広島県", "location_type": "represented", "info_source": "Represented_eiga_synopsis", "directors": [], "genres": [], "studio": "", "studio_japanese": ""}}, {"type": "Feature", "geometry": {"type": "Point", "coordinates": [139.7212021, 35.7174548]}, "properties": {"film_id": 189206, "film_title": "ベスト・オブ・エネミーズ　価値ある闘い", "english_title": null, "year": null, "location_name": "白人", "prefecture": null, "location_type": "represented", "info_source": "Represented_eiga_synopsis", "directors": [], "genres": [], "studio": "", "studio_japanese": ""}}, {"type": "Feature", "geometry": {"type": "Point", "coordinates": [131.1008966, 32.4821421]}, "properties": {"film_id": 136435, "film_title": "電気海月のインシデント", "english_title": "The Jellyfish Incident", "year": 2019, "location_name": "九州", "prefecture": null, "location_type": "represented", "info_source": "Represented_eiga_synopsis", "directors": ["萱野孝幸"], "genres": [], "studio": "", "studio_japanese": ""}}, {"type": "Feature", "geometry": {"type": "Point", "coordinates": [139.7245065, 35.6579558]}, "properties": {"film_id": 189209, "film_title": "ホイッスラーズ　誓いの口笛", "english_title": "The Whistlers", "year": 2019, "location_name": "ルーマニア", "prefecture": null, "location_type": "represented", "info_source": "Represented_eiga_synopsis", "directors": ["コルネリュ・ポルンボイュ"], "genres": ["Suspense", "Crime", "Mystery"], "studio": "", "studio_japanese": ""}}, {"type": "Feature", "geometry": {"type": "Point", "coordinates": [135.7555968, 35.0212466]}, "properties": {"film_id": 189212, "film_title": "ウェスタン", "english_title": "Western", "year": null, "location_name": "京都府", "prefecture": "京都府", "location_type": "represented", "info_source": "Represented_eiga_synopsis", "directors": [], "genres": [], "studio": "", "studio_japanese": ""}}, {"type": "Feature", "geometry": {"type": "Point", "coordinates": [132.7324364, 34.3947165]}, "properties": {"film_id": 189212, "film_title": "ウェスタン", "english_title": "Western", "year": null, "location_name": "広島市", "prefecture": "広島県", "location_type": "represented", "info_source": "Represented_eiga_synopsis", "directors": [], "genres": [], "studio": "", "studio_japanese": ""}}, {"type": "Feature", "geometry": {"type": "Point", "coordinates": [135.3818257, 34.6496955]}, "properties": {"film_id": 189217, "film_title": "バンデラス　ウクライナの英雄", "english_title": "Call Sign Banderas", "year": 2018, "location_name": "ウクライナ", "prefecture": null, "location_type": "represented", "info_source": "Represented_eiga_title", "directors": [], "genres": ["War", "Action"], "studio": "", "studio_japanese": ""}}, {"type": "Feature", "geometry": {"type": "Point", "coordinates": [131.3850841, 31.515177]}, "properties": {"film_id": 189220, "film_title": "怪談新耳袋Gメン　密林編", "english_title": "Tales of Terror: G Men Jungle Version", "year": 2019, "location_name": "孤島", "prefecture": null, "location_type": "represented", "info_source": "Represented_eiga_synopsis", "directors": ["木原浩勝"], "genres": ["Horror"], "studio": "", "studio_japanese": ""}}, {"type": "Feature", "geometry": {"type": "Point", "coordinates": [135.3823952, 34.6504584]}, "properties": {"film_id": 189221, "film_title": "サン・イズ・オールソー・ア・スター　引き寄せられる2人", "english_title": null, "year": 2019, "location_name": "ジャマイカ", "prefecture": null, "location_type": "represented", "info_source": "Represented_eiga_synopsis", "directors": [], "genres": ["Romance", "Youth"], "studio": "", "studio_japanese": ""}}, {"type": "Feature", "geometry": {"type": "Point", "coordinates": [127.6819039, 26.2161745]}, "properties": {"film_id": 189221, "film_title": "サン・イズ・オールソー・ア・スター　引き寄せられる2人", "english_title": null, "year": 2019, "location_name": "全米", "prefecture": null, "location_type": "represented", "info_source": "Represented_eiga_synopsis", "directors": [], "genres": ["Romance", "Youth"], "studio": "", "studio_japanese": ""}}, {"type": "Feature", "geometry": {"type": "Point", "coordinates": [135.7149079, 34.3612858]}, "properties": {"film_id": 189222, "film_title": "ディア・ファミリー　あなたを忘れない", "english_title": "What They Had", "year": null, "location_name": "シカゴ", "prefecture": null, "location_type": "represented", "info_source": "Represented_eiga_synopsis", "directors": [], "genres": [], "studio": "", "studio_japanese": ""}}, {"type": "Feature", "geometry": {"type": "Point", "coordinates": [139.7263216, 35.6478896]}, "properties": {"film_id": 189226, "film_title": "見えない太陽", "english_title": "Farewell to the Night", "year": 2019, "location_name": "フランス南部", "prefecture": null, "location_type": "represented", "info_source": "Represented_eiga_synopsis", "directors": ["アンドレ・テシネ"], "genres": ["Drama"], "studio": "", "studio_japanese": ""}}, {"type": "Feature", "geometry": {"type": "Point", "coordinates": [138.2529, 36.2048]}, "properties": {"film_id": 189227, "film_title": "メモリーズ・オブ・マイ・ボディ", "english_title": "Memories of My Body", "year": null, "location_name": "日本", "prefecture": null, "location_type": "represented", "info_source": "Represented_eiga_synopsis", "directors": ["ガリン・ヌグロホ"], "genres": [], "studio": "", "studio_japanese": ""}}, {"type": "Feature", "geometry": {"type": "Point", "coordinates": [140.352325, 38.2389384]}, "properties": {"film_id": 189230, "film_title": "一緒にいて", "english_title": "Be with Me", "year": null, "location_name": "アジア", "prefecture": null, "location_type": "represented", "info_source": "Represented_eiga_synopsis", "directors": ["エリック・クー"], "genres": [], "studio": "", "studio_japanese": ""}}, {"type": "Feature", "geometry": {"type": "Point", "coordinates": [139.6462837, 35.4272033]}, "properties": {"film_id": 189231, "film_title": "社会の片隅で", "english_title": "Invisibles", "year": 2018, "location_name": "横浜市", "prefecture": "神奈川県", "location_type": "represented", "info_source": "Represented_eiga_synopsis", "directors": [], "genres": [], "studio": "", "studio_japanese": ""}}, {"type": "Feature", "geometry": {"type": "Point", "coordinates": [139.6462837, 35.4272033]}, "properties": {"film_id": 189232, "film_title": "愛しのベイビー", "english_title": "Sweetheart", "year": 2019, "location_name": "横浜市", "prefecture": "神奈川県", "location_type": "represented", "info_source": "Represented_eiga_synopsis", "directors": ["リサ・アズエロス"], "genres": ["Comedy", "Drama"], "studio": "", "studio_japanese": ""}}, {"type": "Feature", "geometry": {"type": "Point", "coordinates": [139.6462837, 35.4272033]}, "properties": {"film_id": 189233, "film_title": "マイ・レボリューション", "english_title": "Whatever Happened to My Revolution", "year": 2018, "location_name": "横浜市", "prefecture": "神奈川県", "location_type": "represented", "info_source": "Represented_eiga_synopsis", "directors": ["ジュディス・デイビス"], "genres": [], "studio": "", "studio_japanese": ""}}, {"type": "Feature", "geometry": {"type": "Point", "coordinates": [139.6462837, 35.4272033]}, "properties": {"film_id": 189234, "film_title": "崖っぷちの女たち", "english_title": "Rebels", "year": null, "location_name": "横浜市", "prefecture": "神奈川県", "location_type": "represented", "info_source": "Represented_eiga_synopsis", "directors": [], "genres": [], "studio": "", "studio_japanese": ""}}, {"type": "Feature", "geometry": {"type": "Point", "coordinates": [139.6462837, 35.4272033]}, "properties": {"film_id": 136489, "film_title": "嵐", "english_title": "The Storm", "year": 1956, "location_name": "横浜市", "prefecture": "神奈川県", "location_type": "represented", "info_source": "Represented_eiga_synopsis", "directors": ["稲垣博司", "丸輝夫"], "genres": ["Drama"], "studio": "TOHO", "studio_japanese": "東宝"}}, {"type": "Feature", "geometry": {"type": "Point", "coordinates": [134.0599061, 34.3240493]}, "properties": {"film_id": 189236, "film_title": "オードリー・ヘプバーンのモンテカルロへ行こう", "english_title": "We Will All Go to Monte Carlo", "year": null, "location_name": "モンテカルロ", "prefecture": null, "location_type": "represented", "info_source": "Represented_eiga_title", "directors": ["ジャン・ボワイエ"], "genres": [], "studio": "", "studio_japanese": ""}}, {"type": "Feature", "geometry": {"type": "Point", "coordinates": [135.0554187, 34.7894699]}, "properties": {"film_id": 189242, "film_title": "台北発メトロシリーズ　淡水河の奇跡", "english_title": null, "year": null, "location_name": "淡水河", "prefecture": null, "location_type": "represented", "info_source": "Represented_eiga_title", "directors": [], "genres": [], "studio": "", "studio_japanese": ""}}, {"type": "Feature", "geometry": {"type": "Point", "coordinates": [135.5047867, 34.6628405]}, "properties": {"film_id": 189246, "film_title": "光に生きる　ロビー・ミューラー", "english_title": null, "year": null, "location_name": "オランダ", "prefecture": null, "location_type": "represented", "info_source": "Represented_eiga_synopsis", "directors": [], "genres": [], "studio": "", "studio_japanese": ""}}, {"type": "Feature", "geometry": {"type": "Point", "coordinates": [139.5405614, 35.7315488]}, "properties": {"film_id": 189246, "film_title": "光に生きる　ロビー・ミューラー", "english_title": null, "year": null, "location_name": "テキサス", "prefecture": null, "location_type": "represented", "info_source": "Represented_eiga_synopsis", "directors": [], "genres": [], "studio": "", "studio_japanese": ""}}, {"type": "Feature", "geometry": {"type": "Point", "coordinates": [139.7082236, 35.6624724]}, "properties": {"film_id": 189250, "film_title": "モーガン夫人の秘密", "english_title": "The Aftermath", "year": 2019, "location_name": "連合国", "prefecture": null, "location_type": "represented", "info_source": "Represented_eiga_synopsis", "directors": [], "genres": ["Drama", "Romance"], "studio": "", "studio_japanese": ""}}, {"type": "Feature", "geometry": {"type": "Point", "coordinates": [139.637017, 35.4227013]}, "properties": {"film_id": 189250, "film_title": "モーガン夫人の秘密", "english_title": "The Aftermath", "year": 2019, "location_name": "ハンブルク", "prefecture": null, "location_type": "represented", "info_source": "Represented_eiga_synopsis", "directors": [], "genres": ["Drama", "Romance"], "studio": "", "studio_japanese": ""}}, {"type": "Feature", "geometry": {"type": "Point", "coordinates": [135.3810206, 34.6488994]}, "properties": {"film_id": 189254, "film_title": "ボリショイ・バレエ in シネマ 「カルメン組曲／ペトルーシュア」", "english_title": null, "year": null, "location_name": "キューバ", "prefecture": null, "location_type": "represented", "info_source": "Represented_eiga_synopsis", "directors": [], "genres": [], "studio": "", "studio_japanese": ""}}, {"type": "Feature", "geometry": {"type": "Point", "coordinates": [139.739231, 35.6632793]}, "properties": {"film_id": 189255, "film_title": "完全な候補者", "english_title": "The Perfect Candidate", "year": 2019, "location_name": "サウジアラビア", "prefecture": null, "location_type": "represented", "info_source": "Represented_eiga_synopsis", "directors": [], "genres": ["Drama"], "studio": "", "studio_japanese": ""}}, {"type": "Feature", "geometry": {"type": "Point", "coordinates": [136.8450926, 34.3605431]}, "properties": {"film_id": 189259, "film_title": "堕落のススメ", "english_title": "Ana by Day", "year": 2018, "location_name": "スペイン村", "prefecture": null, "location_type": "represented", "info_source": "Represented_eiga_synopsis", "directors": [], "genres": ["Erotic", "Mystery"], "studio": "", "studio_japanese": ""}}, {"type": "Feature", "geometry": {"type": "Point", "coordinates": [139.6917724609375, 35.6896286010742]}, "properties": {"film_id": 189261, "film_title": "メタリカ＆サンフランシスコ交響楽団：S&M2", "english_title": "Metallica & San Francisco Symphony - S&M2", "year": null, "location_name": "東京", "prefecture": null, "location_type": "represented", "info_source": "Represented_eiga_synopsis", "directors": [], "genres": [], "studio": "", "studio_japanese": ""}}, {"type": "Feature", "geometry": {"type": "Point", "coordinates": [139.6917724609375, 35.6896286010742]}, "properties": {"film_id": 189264, "film_title": "サラ・ブライトマン　イン・コンサート HYMN 神に選ばれし麗しの歌声", "english_title": null, "year": null, "location_name": "東京", "prefecture": null, "location_type": "represented", "info_source": "Represented_eiga_synopsis", "directors": [], "genres": [], "studio": "", "studio_japanese": ""}}, {"type": "Feature", "geometry": {"type": "Point", "coordinates": [130.3932708, 33.5882703]}, "properties": {"film_id": 189266, "film_title": "列車街", "english_title": null, "year": null, "location_name": "スリランカ", "prefecture": null, "location_type": "represented", "info_source": "Represented_eiga_synopsis", "directors": [], "genres": [], "studio": "", "studio_japanese": ""}}, {"type": "Feature", "geometry": {"type": "Point", "coordinates": [139.6461433, 35.4280851]}, "properties": {"film_id": 189268, "film_title": "アイロ　北欧ラップランドの小さなトナカイ", "english_title": "A Reindeer's Journey", "year": null, "location_name": "北欧", "prefecture": null, "location_type": "represented", "info_source": "Represented_eiga_title", "directors": [], "genres": [], "studio": "", "studio_japanese": ""}}, {"type": "Feature", "geometry": {"type": "Point", "coordinates": [135.3812481, 34.6491675]}, "properties": {"film_id": 189269, "film_title": "ウエディング・ゲスト　招かれざる客", "english_title": "The Wedding Guest", "year": 2018, "location_name": "パキスタン", "prefecture": null, "location_type": "represented", "info_source": "Represented_eiga_synopsis", "directors": ["マイケル・ウィンターボトム"], "genres": ["Suspense", "Mystery", "Drama"], "studio": "", "studio_japanese": ""}}, {"type": "Feature", "geometry": {"type": "Point", "coordinates": [136.8450926, 34.3605431]}, "properties": {"film_id": 189270, "film_title": "列車旅行のすすめ", "english_title": "Advantages of Travelling by Train", "year": 2019, "location_name": "スペイン村", "prefecture": null, "location_type": "represented", "info_source": "Represented_eiga_synopsis", "directors": [], "genres": ["Suspense"], "studio": "", "studio_japanese": ""}}, {"type": "Feature", "geometry": {"type": "Point", "coordinates": [140.352325, 38.2389384]}, "properties": {"film_id": 189273, "film_title": "エウォル　風にのせて", "english_title": null, "year": null, "location_name": "アジア", "prefecture": null, "location_type": "represented", "info_source": "Represented_eiga_synopsis", "directors": [], "genres": [], "studio": "", "studio_japanese": ""}}, {"type": "Feature", "geometry": {"type": "Point", "coordinates": [127.7669, 35.9078]}, "properties": {"film_id": 189273, "film_title": "エウォル　風にのせて", "english_title": null, "year": null, "location_name": "韓国", "prefecture": null, "location_type": "represented", "info_source": "Represented_eiga_synopsis", "directors": [], "genres": [], "studio": "", "studio_japanese": ""}}, {"type": "Feature", "geometry": {"type": "Point", "coordinates": [140.352325, 38.2389384]}, "properties": {"film_id": 189274, "film_title": "ファストフード店の住人たち", "english_title": "I'm Livin' It", "year": 2019, "location_name": "アジア", "prefecture": null, "location_type": "represented", "info_source": "Represented_eiga_synopsis", "directors": [], "genres": ["Drama"], "studio": "", "studio_japanese": ""}}, {"type": "Feature", "geometry": {"type": "Point", "coordinates": [140.352325, 38.2389384]}, "properties": {"film_id": 189275, "film_title": "失われた殺人の記憶", "english_title": "Killed My Wife", "year": 2019, "location_name": "アジア", "prefecture": null, "location_type": "represented", "info_source": "Represented_eiga_synopsis", "directors": [], "genres": ["Suspense", "Action"], "studio": "", "studio_japanese": ""}}, {"type": "Feature", "geometry": {"type": "Point", "coordinates": [127.7669, 35.9078]}, "properties": {"film_id": 189275, "film_title": "失われた殺人の記憶", "english_title": "Killed My Wife", "year": 2019, "location_name": "韓国", "prefecture": null, "location_type": "represented", "info_source": "Represented_eiga_synopsis", "directors": [], "genres": ["Suspense", "Action"], "studio": "", "studio_japanese": ""}}, {"type": "Feature", "geometry": {"type": "Point", "coordinates": [140.352325, 38.2389384]}, "properties": {"film_id": 189277, "film_title": "50人の宣誓", "english_title": "The Oath", "year": null, "location_name": "アジア", "prefecture": null, "location_type": "represented", "info_source": "Represented_eiga_synopsis", "directors": ["モーセン・タナバンデ"], "genres": [], "studio": "", "studio_japanese": ""}}, {"type": "Feature", "geometry": {"type": "Point", "coordinates": [140.352325, 38.2389384]}, "properties": {"film_id": 189278, "film_title": "死神の来ない村", "english_title": "Old Men Never Die", "year": null, "location_name": "アジア", "prefecture": null, "location_type": "represented", "info_source": "Represented_eiga_synopsis", "directors": [], "genres": [], "studio": "", "studio_japanese": ""}}, {"type": "Feature", "geometry": {"type": "Point", "coordinates": [140.352325, 38.2389384]}, "properties": {"film_id": 189279, "film_title": "ある妊婦の秘密の日記", "english_title": "The Secret Diary of a Mom to Be", "year": null, "location_name": "アジア", "prefecture": null, "location_type": "represented", "info_source": "Represented_eiga_synopsis", "directors": [], "genres": [], "studio": "", "studio_japanese": ""}}, {"type": "Feature", "geometry": {"type": "Point", "coordinates": [140.352325, 38.2389384]}, "properties": {"film_id": 189280, "film_title": "夏の夜の騎士", "english_title": "Summer Knight", "year": null, "location_name": "アジア", "prefecture": null, "location_type": "represented", "info_source": "Represented_eiga_synopsis", "directors": [], "genres": [], "studio": "", "studio_japanese": ""}}, {"type": "Feature", "geometry": {"type": "Point", "coordinates": [135.7729345, 35.021253]}, "properties": {"film_id": 189281, "film_title": "存在するもの", "english_title": "The Entity", "year": null, "location_name": "東南アジア", "prefecture": null, "location_type": "represented", "info_source": "Represented_eiga_synopsis", "directors": ["エリック・マッティ"], "genres": [], "studio": "", "studio_japanese": ""}}, {"type": "Feature", "geometry": {"type": "Point", "coordinates": [135.7729345, 35.021253]}, "properties": {"film_id": 189282, "film_title": "停止", "english_title": "The Halt", "year": null, "location_name": "東南アジア", "prefecture": null, "location_type": "represented", "info_source": "Represented_eiga_synopsis", "directors": [], "genres": [], "studio": "", "studio_japanese": ""}}, {"type": "Feature", "geometry": {"type": "Point", "coordinates": [139.6858213, 35.672831]}, "properties": {"film_id": 189283, "film_title": "死を忘れた男", "english_title": "The Immortal", "year": null, "location_name": "ベトナム", "prefecture": null, "location_type": "represented", "info_source": "Represented_eiga_synopsis", "directors": [], "genres": [], "studio": "", "studio_japanese": ""}}, {"type": "Feature", "geometry": {"type": "Point", "coordinates": [135.7729345, 35.021253]}, "properties": {"film_id": 189283, "film_title": "死を忘れた男", "english_title": "The Immortal", "year": null, "location_name": "東南アジア", "prefecture": null, "location_type": "represented", "info_source": "Represented_eiga_synopsis", "directors": [], "genres": [], "studio": "", "studio_japanese": ""}}, {"type": "Feature", "geometry": {"type": "Point", "coordinates": [135.3811621, 34.6487479]}, "properties": {"film_id": 189284, "film_title": "永遠の散歩", "english_title": "The Long Walk", "year": null, "location_name": "ラオス", "prefecture": null, "location_type": "represented", "info_source": "Represented_eiga_synopsis", "directors": [], "genres": [], "studio": "", "studio_japanese": ""}}, {"type": "Feature", "geometry": {"type": "Point", "coordinates": [135.7729345, 35.021253]}, "properties": {"film_id": 189284, "film_title": "永遠の散歩", "english_title": "The Long Walk", "year": null, "location_name": "東南アジア", "prefecture": null, "location_type": "represented", "info_source": "Represented_eiga_synopsis", "directors": [], "genres": [], "studio": "", "studio_japanese": ""}}, {"type": "Feature", "geometry": {"type": "Point", "coordinates": [135.7729345, 35.021253]}, "properties": {"film_id": 189285, "film_title": "リリア・カンタペイ、神出鬼没", "english_title": "Six Degrees of Separation from Lilia Cuntapay", "year": null, "location_name": "東南アジア", "prefecture": null, "location_type": "represented", "info_source": "Represented_eiga_synopsis", "directors": [], "genres": [], "studio": "", "studio_japanese": ""}}, {"type": "Feature", "geometry": {"type": "Point", "coordinates": [141.346923828125, 43.0640106201172]}, "properties": {"film_id": 189286, "film_title": "それぞれの記憶", "english_title": "UnTrue", "year": null, "location_name": "北海道", "prefecture": null, "location_type": "represented", "info_source": "Represented_eiga_synopsis", "directors": [], "genres": [], "studio": "", "studio_japanese": ""}}, {"type": "Feature", "geometry": {"type": "Point", "coordinates": [135.7729345, 35.021253]}, "properties": {"film_id": 189286, "film_title": "それぞれの記憶", "english_title": "UnTrue", "year": null, "location_name": "東南アジア", "prefecture": null, "location_type": "represented", "info_source": "Represented_eiga_synopsis", "directors": [], "genres": [], "studio": "", "studio_japanese": ""}}, {"type": "Feature", "geometry": {"type": "Point", "coordinates": [139.6917724609375, 35.6896286010742]}, "properties": {"film_id": 189287, "film_title": "ファイアー・ウィル・カム", "english_title": "Fire Will Come", "year": 2019, "location_name": "東京", "prefecture": null, "location_type": "represented", "info_source": "Represented_eiga_synopsis", "directors": [], "genres": [], "studio": "", "studio_japanese": ""}}, {"type": "Feature", "geometry": {"type": "Point", "coordinates": [139.68408203125, 35.8924598693848]}, "properties": {"film_id": 189287, "film_title": "ファイアー・ウィル・カム", "english_title": "Fire Will Come", "year": 2019, "location_name": "新宿", "prefecture": null, "location_type": "represented", "info_source": "Represented_eiga_synopsis", "directors": [], "genres": [], "studio": "", "studio_japanese": ""}}, {"type": "Feature", "geometry": {"type": "Point", "coordinates": [139.6917724609375, 35.6896286010742]}, "properties": {"film_id": 189288, "film_title": "戦争のさなかで", "english_title": "While at War", "year": 2019, "location_name": "東京", "prefecture": null, "location_type": "represented", "info_source": "Represented_eiga_synopsis", "directors": [], "genres": ["Drama"], "studio": "", "studio_japanese": ""}}, {"type": "Feature", "geometry": {"type": "Point", "coordinates": [139.68408203125, 35.8924598693848]}, "properties": {"film_id": 189288, "film_title": "戦争のさなかで", "english_title": "While at War", "year": 2019, "location_name": "新宿", "prefecture": null, "location_type": "represented", "info_source": "Represented_eiga_synopsis", "directors": [], "genres": ["Drama"], "studio": "", "studio_japanese": ""}}, {"type": "Feature", "geometry": {"type": "Point", "coordinates": [120.9605, 23.6978]}, "properties": {"film_id": 189290, "film_title": "ひとつの太陽", "english_title": null, "year": 2019, "location_name": "台湾", "prefecture": null, "location_type": "represented", "info_source": "Represented_eiga_synopsis", "directors": [], "genres": ["Drama"], "studio": "", "studio_japanese": ""}}, {"type": "Feature", "geometry": {"type": "Point", "coordinates": [136.8450926, 34.3605431]}, "properties": {"film_id": 189294, "film_title": "8月のエバ", "english_title": "The August Virgin", "year": 2019, "location_name": "スペイン村", "prefecture": null, "location_type": "represented", "info_source": "Represented_eiga_synopsis", "directors": [], "genres": [], "studio": "", "studio_japanese": ""}}, {"type": "Feature", "geometry": {"type": "Point", "coordinates": [135.7359351, 35.0009704]}, "properties": {"film_id": 189294, "film_title": "8月のエバ", "english_title": "The August Virgin", "year": 2019, "location_name": "マドリード市", "prefecture": null, "location_type": "represented", "info_source": "Represented_eiga_synopsis", "directors": [], "genres": [], "studio": "", "studio_japanese": ""}}, {"type": "Feature", "geometry": {"type": "Point", "coordinates": [139.6917724609375, 35.6896286010742]},