[{"type": "Feature", "geometry": {"type": "Point", "coordinates": [139.6917724609375, 35.6896286010742]}, "properties": {"film_id": 189593, "film_title": "バッド・ブラック", "english_title": null, "year": 2016, "location_name": "東京", "prefecture": null, "location_type": "represented", "info_source": "Represented_eiga_synopsis", "directors": [], "genres": ["Action", "Comedy"], "studio": "", "studio_japanese": ""}}, {"type": "Feature", "geometry": {"type": "Point", "coordinates": [135.5021651, 34.6937378]}, "properties": {"film_id": 189593, "film_title": "バッド・ブラック", "english_title": null, "year": 2016, "location_name": "大阪市", "prefecture": "大阪府", "location_type": "represented", "info_source": "Represented_eiga_synopsis", "directors": [], "genres": ["Action", "Comedy"], "studio": "", "studio_japanese": ""}}, {"type": "Feature", "geometry": {"type": "Point", "coordinates": [139.7140607, 35.652425]}, "properties": {"film_id": 189598, "film_title": "ペルーの叫び 36年ぶりW杯出場の表と裏", "english_title": null, "year": null, "location_name": "ペルー", "prefecture": null, "location_type": "represented", "info_source": "Represented_eiga_title", "directors": [], "genres": [], "studio": "", "studio_japanese": ""}}, {"type": "Feature", "geometry": {"type": "Point", "coordinates": [140.040953, 35.64497]}, "properties": {"film_id": 189606, "film_title": "フレンチ・イグジット　さよならは言わずに", "english_title": null, "year": null, "location_name": "マンハッタン", "prefecture": null, "location_type": "represented", "info_source": "Represented_eiga_synopsis", "directors": [], "genres": [], "studio": "", "studio_japanese": ""}}, {"type": "Feature", "geometry": {"type": "Point", "coordinates": [139.7421835, 35.6505828]}, "properties": {"film_id": 189609, "film_title": "アメリカ・ラティーナ", "english_title": "America Latina", "year": 2021, "location_name": "ｲﾀﾘｱ", "prefecture": null, "location_type": "represented", "info_source": "Represented_eiga_synopsis", "directors": [], "genres": ["Drama", "Suspense"], "studio": "", "studio_japanese": ""}}, {"type": "Feature", "geometry": {"type": "Point", "coordinates": [139.6917724609375, 35.6896286010742]}, "properties": {"film_id": 189609, "film_title": "アメリカ・ラティーナ", "english_title": "America Latina", "year": 2021, "location_name": "東京", "prefecture": null, "location_type": "represented", "info_source": "Represented_eiga_synopsis", "directors": [], "genres": ["Drama", "Suspense"], "studio": "", "studio_japanese": ""}}, {"type": "Feature", "geometry": {"type": "Point", "coordinates": [135.5021651, 34.6937378]}, "properties": {"film_id": 189609, "film_title": "アメリカ・ラティーナ", "english_title": "America Latina", "year": 2021, "location_name": "大阪市", "prefecture": "大阪府", "location_type": "represented", "info_source": "Represented_eiga_synopsis", "directors": [], "genres": ["Drama", "Suspense"], "studio": "", "studio_japanese": ""}}, {"type": "Feature", "geometry": {"type": "Point", "coordinates": [139.7421835, 35.6505828]}, "properties": {"film_id": 189610, "film_title": "洞窟", "english_title": "The Hole", "year": 2021, "location_name": "ｲﾀﾘｱ", "prefecture": null, "location_type": "represented", "info_source": "Represented_eiga_synopsis", "directors": [], "genres": [], "studio": "", "studio_japanese": ""}}, {"type": "Feature", "geometry": {"type": "Point", "coordinates": [140.0525176, 40.1832552]}, "properties": {"film_id": 189616, "film_title": "さよなら、私のロンリー", "english_title": "Kajillionaire", "year": 2020, "location_name": "アクロス", "prefecture": null, "location_type": "represented", "info_source": "Represented_eiga_synopsis", "directors": [], "genres": ["Comedy", "Crime", "Drama"], "studio": "", "studio_japanese": ""}}, {"type": "Feature", "geometry": {"type": "Point", "coordinates": [135.3852371, 34.6501518]}, "properties": {"film_id": 189623, "film_title": "ヴェラは海の夢を見る", "english_title": "Vera Dreams of the Sea", "year": 2021, "location_name": "コソボ", "prefecture": null, "location_type": "represented", "info_source": "Represented_eiga_synopsis", "directors": [], "genres": [], "studio": "", "studio_japanese": ""}}, {"type": "Feature", "geometry": {"type": "Point", "coordinates": [140.352325, 38.2389384]}, "properties": {"film_id": 189624, "film_title": "ASU：日の出", "english_title": "Asu", "year": null, "location_name": "アジア", "prefecture": null, "location_type": "represented", "info_source": "Represented_eiga_synopsis", "directors": ["サンジーワ・プシュパクマーラ"], "genres": [], "studio": "", "studio_japanese": ""}}, {"type": "Feature", "geometry": {"type": "Point", "coordinates": [140.352325, 38.2389384]}, "properties": {"film_id": 189625, "film_title": "もろい絆", "english_title": "The Brittle Thread", "year": null, "location_name": "アジア", "prefecture": null, "location_type": "represented", "info_source": "Represented_eiga_synopsis", "directors": [], "genres": [], "studio": "", "studio_japanese": ""}}, {"type": "Feature", "geometry": {"type": "Point", "coordinates": [140.352325, 38.2389384]}, "properties": {"film_id": 189627, "film_title": "異郷の来客", "english_title": "The Coffin Painter", "year": null, "location_name": "アジア", "prefecture": null, "location_type": "represented", "info_source": "Represented_eiga_synopsis", "directors": [], "genres": [], "studio": "", "studio_japanese": ""}}, {"type": "Feature", "geometry": {"type": "Point", "coordinates": [140.352325, 38.2389384]}, "properties": {"film_id": 189628, "film_title": "最後の渡り鳥たち", "english_title": "The Last Birds of Passage", "year": null, "location_name": "アジア", "prefecture": null, "location_type": "represented", "info_source": "Represented_eiga_synopsis", "directors": [], "genres": [], "studio": "", "studio_japanese": ""}}, {"type": "Feature", "geometry": {"type": "Point", "coordinates": [140.352325, 38.2389384]}, "properties": {"film_id": 189629, "film_title": "ザクロが遠吠えする頃", "english_title": "When Pomegranates Howl", "year": null, "location_name": "アジア", "prefecture": null, "location_type": "represented", "info_source": "Represented_eiga_synopsis", "directors": [], "genres": [], "studio": "", "studio_japanese": ""}}, {"type": "Feature", "geometry": {"type": "Point", "coordinates": [139.7418437, 35.6578408]}, "properties": {"film_id": 189629, "film_title": "ザクロが遠吠えする頃", "english_title": "When Pomegranates Howl", "year": null, "location_name": "アフガニスタン", "prefecture": null, "location_type": "represented", "info_source": "Represented_eiga_synopsis", "directors": [], "genres": [], "studio": "", "studio_japanese": ""}}, {"type": "Feature", "geometry": {"type": "Point", "coordinates": [135.5047867, 34.6628405]}, "properties": {"film_id": 189629, "film_title": "ザクロが遠吠えする頃", "english_title": "When Pomegranates Howl", "year": null, "location_name": "オランダ", "prefecture": null, "location_type": "represented", "info_source": "Represented_eiga_synopsis", "directors": [], "genres": [], "studio": "", "studio_japanese": ""}}, {"type": "Feature", "geometry": {"type": "Point", "coordinates": [136.5995926, 35.0060688]}, "properties": {"film_id": 189630, "film_title": "世界、北半球", "english_title": "World, Northern Hemisphere", "year": null, "location_name": "北半球", "prefecture": null, "location_type": "represented", "info_source": "Represented_eiga_title", "directors": [], "genres": [], "studio": "", "studio_japanese": ""}}, {"type": "Feature", "geometry": {"type": "Point", "coordinates": [140.352325, 38.2389384]}, "properties": {"film_id": 189630, "film_title": "世界、北半球", "english_title": "World, Northern Hemisphere", "year": null, "location_name": "アジア", "prefecture": null, "location_type": "represented", "info_source": "Represented_eiga_synopsis", "directors": [], "genres": [], "studio": "", "studio_japanese": ""}}, {"type": "Feature", "geometry": {"type": "Point", "coordinates": [135.3821641, 34.6497802]}, "properties": {"film_id": 115569, "film_title": "朝が来ますように", "english_title": "Let It Be Morning", "year": 2021, "location_name": "イスラエル", "prefecture": null, "location_type": "represented", "info_source": "Represented_eiga_synopsis", "directors": ["エラン・コリリン", "エラン・コリリン"], "genres": [], "studio": "", "studio_japanese": ""}}, {"type": "Feature", "geometry": {"type": "Point", "coordinates": [139.7040506, 35.6617773]}, "properties": {"film_id": 189637, "film_title": "渋谷行進曲", "english_title": null, "year": null, "location_name": "渋谷", "prefecture": "【東京都】", "location_type": "represented", "info_source": "Represented_eiga_title", "directors": ["秋山純"], "genres": [], "studio": "", "studio_japanese": ""}}, {"type": "Feature", "geometry": {"type": "Point", "coordinates": [139.6917724609375, 35.6896286010742]}, "properties": {"film_id": 189641, "film_title": "ある夜警の視点から", "english_title": null, "year": null, "location_name": "東京", "prefecture": null, "location_type": "represented", "info_source": "Represented_eiga_synopsis", "directors": ["クシシュトフ・キエシロフスキー"], "genres": [], "studio": "", "studio_japanese": ""}}, {"type": "Feature", "geometry": {"type": "Point", "coordinates": [139.6917724609375, 35.6896286010742]}, "properties": {"film_id": 189642, "film_title": "異なる年齢の7人の女性", "english_title": null, "year": null, "location_name": "東京", "prefecture": null, "location_type": "represented", "info_source": "Represented_eiga_synopsis", "directors": ["クシシュトフ・キエシロフスキー"], "genres": [], "studio": "", "studio_japanese": ""}}, {"type": "Feature", "geometry": {"type": "Point", "coordinates": [139.6917724609375, 35.6896286010742]}, "properties": {"film_id": 189643, "film_title": "トーキング・ヘッズ", "english_title": "Talking Head", "year": null, "location_name": "東京", "prefecture": null, "location_type": "represented", "info_source": "Represented_eiga_synopsis", "directors": ["クシシュトフ・キエシロフスキー"], "genres": [], "studio": "", "studio_japanese": ""}}, {"type": "Feature", "geometry": {"type": "Point", "coordinates": [139.6917724609375, 35.6896286010742]}, "properties": {"film_id": 189644, "film_title": "トーキング・ヘッズ2021", "english_title": null, "year": null, "location_name": "東京", "prefecture": null, "location_type": "represented", "info_source": "Represented_eiga_synopsis", "directors": [], "genres": [], "studio": "", "studio_japanese": ""}}, {"type": "Feature", "geometry": {"type": "Point", "coordinates": [139.6917724609375, 35.6896286010742]}, "properties": {"film_id": 189645, "film_title": "アンジェイ・ワイダ　 私のインスピレーション", "english_title": null, "year": null, "location_name": "東京", "prefecture": null, "location_type": "represented", "info_source": "Represented_eiga_synopsis", "directors": ["アンジェイ・ワイダ"], "genres": [], "studio": "", "studio_japanese": ""}}, {"type": "Feature", "geometry": {"type": "Point", "coordinates": [135.7520355, 35.0073045]}, "properties": {"film_id": 189649, "film_title": "ブラストビート　ボゴタ発、宇宙へ", "english_title": null, "year": null, "location_name": "ボゴタ", "prefecture": null, "location_type": "represented", "info_source": "Represented_eiga_title", "directors": [], "genres": [], "studio": "", "studio_japanese": ""}}, {"type": "Feature", "geometry": {"type": "Point", "coordinates": [139.6917724609375, 35.6896286010742]}, "properties": {"film_id": 189650, "film_title": "初雪", "english_title": "First Snowfall", "year": null, "location_name": "東京", "prefecture": null, "location_type": "represented", "info_source": "Represented_eiga_synopsis", "directors": [], "genres": [], "studio": "", "studio_japanese": ""}}, {"type": "Feature", "geometry": {"type": "Point", "coordinates": [139.6917724609375, 35.6896286010742]}, "properties": {"film_id": 189654, "film_title": "明日のたりないふたり　特別版", "english_title": null, "year": null, "location_name": "東京", "prefecture": null, "location_type": "represented", "info_source": "Represented_eiga_synopsis", "directors": [], "genres": [], "studio": "", "studio_japanese": ""}}, {"type": "Feature", "geometry": {"type": "Point", "coordinates": [139.6670891, 35.6615587]}, "properties": {"film_id": 189654, "film_title": "明日のたりないふたり　特別版", "english_title": null, "year": null, "location_name": "下北沢", "prefecture": "【東京都】", "location_type": "represented", "info_source": "Represented_eiga_synopsis", "directors": [], "genres": [], "studio": "", "studio_japanese": ""}}, {"type": "Feature", "geometry": {"type": "Point", "coordinates": [127.7669, 35.9078]}, "properties": {"film_id": 189658, "film_title": "モラルセンス　君はご主人様", "english_title": null, "year": null, "location_name": "韓国", "prefecture": null, "location_type": "represented", "info_source": "Represented_eiga_synopsis", "directors": [], "genres": [], "studio": "", "studio_japanese": ""}}, {"type": "Feature", "geometry": {"type": "Point", "coordinates": [135.7149079, 34.3612858]}, "properties": {"film_id": 189659, "film_title": "愛すべき夫妻の秘密", "english_title": "Being the Ricardos", "year": 2021, "location_name": "シカゴ", "prefecture": null, "location_type": "represented", "info_source": "Represented_eiga_synopsis", "directors": [], "genres": ["Drama", "Biography"], "studio": "", "studio_japanese": ""}}, {"type": "Feature", "geometry": {"type": "Point", "coordinates": [127.7669, 35.9078]}, "properties": {"film_id": 189663, "film_title": "ディーバ　殺意の水底", "english_title": null, "year": 2020, "location_name": "韓国", "prefecture": null, "location_type": "represented", "info_source": "Represented_eiga_synopsis", "directors": [], "genres": ["Suspense"], "studio": "", "studio_japanese": ""}}, {"type": "Feature", "geometry": {"type": "Point", "coordinates": [130.5571949, 31.596793]}, "properties": {"film_id": 189664, "film_title": "僕とケアニンと島のおばあちゃんたちと。", "english_title": null, "year": 2021, "location_name": "鹿児島市", "prefecture": "鹿児島県", "location_type": "represented", "info_source": "Represented_eiga_synopsis", "directors": [], "genres": ["Documentary"], "studio": "", "studio_japanese": ""}}, {"type": "Feature", "geometry": {"type": "Point", "coordinates": [129.8660819, 29.850104]}, "properties": {"film_id": 189664, "film_title": "僕とケアニンと島のおばあちゃんたちと。", "english_title": null, "year": 2021, "location_name": "トカラ列島", "prefecture": null, "location_type": "represented", "info_source": "Represented_eiga_synopsis", "directors": [], "genres": ["Documentary"], "studio": "", "studio_japanese": ""}}, {"type": "Feature", "geometry": {"type": "Point", "coordinates": [139.6917724609375, 35.6896286010742]}, "properties": {"film_id": 189664, "film_title": "僕とケアニンと島のおばあちゃんたちと。", "english_title": null, "year": 2021, "location_name": "東京", "prefecture": null, "location_type": "represented", "info_source": "Represented_eiga_synopsis", "directors": [], "genres": ["Documentary"], "studio": "", "studio_japanese": ""}}, {"type": "Feature", "geometry": {"type": "Point", "coordinates": [127.7669, 35.9078]}, "properties": {"film_id": 189666, "film_title": "JAZZY MISFITS 梨泰院ダイヤモンド", "english_title": "JAZZY MISFITS 梨泰院ダイヤモンド", "year": null, "location_name": "韓国", "prefecture": null, "location_type": "represented", "info_source": "Represented_eiga_synopsis", "directors": [], "genres": [], "studio": "", "studio_japanese": ""}}, {"type": "Feature", "geometry": {"type": "Point", "coordinates": [140.9064772, 38.2597999]}, "properties": {"film_id": 189666, "film_title": "JAZZY MISFITS 梨泰院ダイヤモンド", "english_title": "JAZZY MISFITS 梨泰院ダイヤモンド", "year": null, "location_name": "梨泰院", "prefecture": null, "location_type": "represented", "info_source": "Represented_eiga_synopsis", "directors": [], "genres": [], "studio": "", "studio_japanese": ""}}, {"type": "Feature", "geometry": {"type": "Point", "coordinates": [139.06072998046875, 36.3908805847168]}, "properties": {"film_id": 189671, "film_title": "おかめきけ　群馬発！上毛かるた奮闘記", "english_title": null, "year": null, "location_name": "群馬県", "prefecture": null, "location_type": "represented", "info_source": "Represented_eiga_title", "directors": ["藤橋誠"], "genres": [], "studio": "", "studio_japanese": ""}}, {"type": "Feature", "geometry": {"type": "Point", "coordinates": [132.3688167, 35.0899263]}, "properties": {"film_id": 189671, "film_title": "おかめきけ　群馬発！上毛かるた奮闘記", "english_title": null, "year": null, "location_name": "上毛", "prefecture": null, "location_type": "represented", "info_source": "Represented_eiga_title", "directors": ["藤橋誠"], "genres": [], "studio": "", "studio_japanese": ""}}, {"type": "Feature", "geometry": {"type": "Point", "coordinates": [134.020489, 33.8553661]}, "properties": {"film_id": 189672, "film_title": "かかし村　広島呪いの都市伝説", "english_title": null, "year": null, "location_name": "かかし村", "prefecture": null, "location_type": "represented", "info_source": "Represented_eiga_title", "directors": [], "genres": [], "studio": "", "studio_japanese": ""}}, {"type": "Feature", "geometry": {"type": "Point", "coordinates": [143.8332806, 43.7973755]}, "properties": {"film_id": 189680, "film_title": "ノーマン・ザ・スノーマン　北の国のオーロラ", "english_title": "Norman the Snowman: The Northern Lights", "year": null, "location_name": "オーロラ", "prefecture": null, "location_type": "represented", "info_source": "Represented_eiga_title", "directors": [], "genres": [], "studio": "", "studio_japanese": ""}}, {"type": "Feature", "geometry": {"type": "Point", "coordinates": [135.527444, 34.81102]}, "properties": {"film_id": 189684, "film_title": "フロム・イーブル　バチカンを震撼させた悪魔の神父", "english_title": null, "year": null, "location_name": "バチカン", "prefecture": null, "location_type": "represented", "info_source": "Represented_eiga_title", "directors": [], "genres": [], "studio": "", "studio_japanese": ""}}, {"type": "Feature", "geometry": {"type": "Point", "coordinates": [139.7040506, 35.6617773]}, "properties": {"film_id": 189688, "film_title": "だから私は前を向く　萌々花20歳", "english_title": null, "year": null, "location_name": "渋谷", "prefecture": "【東京都】", "location_type": "represented", "info_source": "Represented_eiga_synopsis", "directors": [], "genres": [], "studio": "", "studio_japanese": ""}}, {"type": "Feature", "geometry": {"type": "Point", "coordinates": [139.7040506, 35.6617773]}, "properties": {"film_id": 189689, "film_title": "石破茂・嫌われた正論 10人の証言", "english_title": null, "year": null, "location_name": "渋谷", "prefecture": "【東京都】", "location_type": "represented", "info_source": "Represented_eiga_synopsis", "directors": [], "genres": [], "studio": "", "studio_japanese": ""}}, {"type": "Feature", "geometry": {"type": "Point", "coordinates": [139.7040506, 35.6617773]}, "properties": {"film_id": 189690, "film_title": "完黙　中村喜四郎　逮捕と選挙", "english_title": null, "year": null, "location_name": "渋谷", "prefecture": "【東京都】", "location_type": "represented", "info_source": "Represented_eiga_synopsis", "directors": [], "genres": [], "studio": "", "studio_japanese": ""}}, {"type": "Feature", "geometry": {"type": "Point", "coordinates": [139.7040506, 35.6617773]}, "properties": {"film_id": 189691, "film_title": "池袋母子死亡事故　「約束」から3年", "english_title": null, "year": 2022, "location_name": "渋谷", "prefecture": "【東京都】", "location_type": "represented", "info_source": "Represented_eiga_synopsis", "directors": [], "genres": ["Documentary"], "studio": "", "studio_japanese": ""}}, {"type": "Feature", "geometry": {"type": "Point", "coordinates": [139.7040506, 35.6617773]}, "properties": {"film_id": 189692, "film_title": "ライブで歓声が聞こえる日　コロナ禍に抗う音楽業界", "english_title": null, "year": null, "location_name": "渋谷", "prefecture": "【東京都】", "location_type": "represented", "info_source": "Represented_eiga_synopsis", "directors": [], "genres": [], "studio": "", "studio_japanese": ""}}, {"type": "Feature", "geometry": {"type": "Point", "coordinates": [139.7040506, 35.6617773]}, "properties": {"film_id": 189693, "film_title": "さっちゃん最後のメッセージ　地下鉄サリン被害者家族の25年", "english_title": null, "year": null, "location_name": "渋谷", "prefecture": "【東京都】", "location_type": "represented", "info_source": "Represented_eiga_synopsis", "directors": [], "genres": [], "studio": "", "studio_japanese": ""}}, {"type": "Feature", "geometry": {"type": "Point", "coordinates": [139.7655163, 35.6980047]}, "properties": {"film_id": 189694, "film_title": "荘園の貴族たち", "english_title": null, "year": null, "location_name": "ニコライ", "prefecture": null, "location_type": "represented", "info_source": "Represented_eiga_synopsis", "directors": [], "genres": [], "studio": "", "studio_japanese": ""}}, {"type": "Feature", "geometry": {"type": "Point", "coordinates": [127.7669, 35.9078]}, "properties": {"film_id": 189695, "film_title": "パイレーツ　失われた王家の秘宝", "english_title": "The Pirates: The Last Royal Treasure", "year": null, "location_name": "韓国", "prefecture": null, "location_type": "represented", "info_source": "Represented_eiga_synopsis", "directors": ["キム・ジョンフン"], "genres": [], "studio": "", "studio_japanese": ""}}, {"type": "Feature", "geometry": {"type": "Point", "coordinates": [135.4859372, 34.5859825]}, "properties": {"film_id": 189697, "film_title": "ウィジャ・シャーク　霊界サメ大戦", "english_title": null, "year": null, "location_name": "霊界", "prefecture": null, "location_type": "represented", "info_source": "Represented_eiga_title", "directors": [], "genres": [], "studio": "", "studio_japanese": ""}}, {"type": "Feature", "geometry": {"type": "Point", "coordinates": [139.7421835, 35.6505828]}, "properties": {"film_id": 189699, "film_title": "マルクスは待ってくれる", "english_title": null, "year": 2021, "location_name": "ｲﾀﾘｱ", "prefecture": null, "location_type": "represented", "info_source": "Represented_eiga_synopsis", "directors": ["マルコ・ベロッキオ"], "genres": ["Documentary"], "studio": "", "studio_japanese": ""}}, {"type": "Feature", "geometry": {"type": "Point", "coordinates": [139.6917724609375, 35.6896286010742]}, "properties": {"film_id": 189699, "film_title": "マルクスは待ってくれる", "english_title": null, "year": 2021, "location_name": "東京", "prefecture": null, "location_type": "represented", "info_source": "Represented_eiga_synopsis", "directors": ["マルコ・ベロッキオ"], "genres": ["Documentary"], "studio": "", "studio_japanese": ""}}, {"type": "Feature", "geometry": {"type": "Point", "coordinates": [135.5021651, 34.6937378]}, "properties": {"film_id": 189699, "film_title": "マルクスは待ってくれる", "english_title": null, "year": 2021, "location_name": "大阪市", "prefecture": "大阪府", "location_type": "represented", "info_source": "Represented_eiga_synopsis", "directors": ["マルコ・ベロッキオ"], "genres": ["Documentary"], "studio": "", "studio_japanese": ""}}, {"type": "Feature", "geometry": {"type": "Point", "coordinates": [139.7421835, 35.6505828]}, "properties": {"film_id": 189700, "film_title": "キアラへ", "english_title": "A Chiara", "year": 2021, "location_name": "ｲﾀﾘｱ", "prefecture": null, "location_type": "represented", "info_source": "Represented_eiga_synopsis", "directors": [], "genres": ["Drama"], "studio": "", "studio_japanese": ""}}, {"type": "Feature", "geometry": {"type": "Point", "coordinates": [139.6917724609375, 35.6896286010742]}, "properties": {"film_id": 189700, "film_title": "キアラへ", "english_title": "A Chiara", "year": 2021, "location_name": "東京", "prefecture": null, "location_type": "represented", "info_source": "Represented_eiga_synopsis", "directors": [], "genres": ["Drama"], "studio": "", "studio_japanese": ""}}, {"type": "Feature", "geometry": {"type": "Point", "coordinates": [135.5021651, 34.6937378]}, "properties": {"film_id": 189700, "film_title": "キアラへ", "english_title": "A Chiara", "year": 2021, "location_name": "大阪市", "prefecture": "大阪府", "location_type": "represented", "info_source": "Represented_eiga_synopsis", "directors": [], "genres": ["Drama"], "studio": "", "studio_japanese": ""}}, {"type": "Feature", "geometry": {"type": "Point", "coordinates": [139.7421835, 35.6505828]}, "properties": {"film_id": 189701, "film_title": "小さなからだ", "english_title": "Small Body", "year": 2021, "location_name": "ｲﾀﾘｱ", "prefecture": null, "location_type": "represented", "info_source": "Represented_eiga_synopsis", "directors": [], "genres": ["Drama"], "studio": "", "studio_japanese": ""}}, {"type": "Feature", "geometry": {"type": "Point", "coordinates": [139.6917724609375, 35.6896286010742]}, "properties": {"film_id": 189701, "film_title": "小さなからだ", "english_title": "Small Body", "year": 2021, "location_name": "東京", "prefecture": null, "location_type": "represented", "info_source": "Represented_eiga_synopsis", "directors": [], "genres": ["Drama"], "studio": "", "studio_japanese": ""}}, {"type": "Feature", "geometry": {"type": "Point", "coordinates": [135.5021651, 34.6937378]}, "properties": {"film_id": 189701, "film_title": "小さなからだ", "english_title": "Small Body", "year": 2021, "location_name": "大阪市", "prefecture": "大阪府", "location_type": "represented", "info_source": "Represented_eiga_synopsis", "directors": [], "genres": ["Drama"], "studio": "", "studio_japanese": ""}}, {"type": "Feature", "geometry": {"type": "Point", "coordinates": [139.7421835, 35.6505828]}, "properties": {"film_id": 189702, "film_title": "笑いの王", "english_title": "The King of Laughter", "year": 2021, "location_name": "ｲﾀﾘｱ", "prefecture": null, "location_type": "represented", "info_source": "Represented_eiga_synopsis", "directors": [], "genres": ["Drama", "Biography"], "studio": "", "studio_japanese": ""}}, {"type": "Feature", "geometry": {"type": "Point", "coordinates": [139.6917724609375, 35.6896286010742]}, "properties": {"film_id": 189702, "film_title": "笑いの王", "english_title": "The King of Laughter", "year": 2021, "location_name": "東京", "prefecture": null, "location_type": "represented", "info_source": "Represented_eiga_synopsis", "directors": [], "genres": ["Drama", "Biography"], "studio": "", "studio_japanese": ""}}, {"type": "Feature", "geometry": {"type": "Point", "coordinates": [135.5021651, 34.6937378]}, "properties": {"film_id": 189702, "film_title": "笑いの王", "english_title": "The King of Laughter", "year": 2021, "location_name": "大阪市", "prefecture": "大阪府", "location_type": "represented", "info_source": "Represented_eiga_synopsis", "directors": [], "genres": ["Drama", "Biography"], "studio": "", "studio_japanese": ""}}, {"type": "Feature", "geometry": {"type": "Point", "coordinates": [139.7421835, 35.6505828]}, "properties": {"film_id": 189703, "film_title": "内なる檻", "english_title": null, "year": 2021, "location_name": "ｲﾀﾘｱ", "prefecture": null, "location_type": "represented", "info_source": "Represented_eiga_synopsis", "directors": [], "genres": ["Drama"], "studio": "", "studio_japanese": ""}}, {"type": "Feature", "geometry": {"type": "Point", "coordinates": [139.6917724609375, 35.6896286010742]}, "properties": {"film_id": 189703, "film_title": "内なる檻", "english_title": null, "year": 2021, "location_name": "東京", "prefecture": null, "location_type": "represented", "info_source": "Represented_eiga_synopsis", "directors": [], "genres": ["Drama"], "studio": "", "studio_japanese": ""}}, {"type": "Feature", "geometry": {"type": "Point", "coordinates": [135.5021651, 34.6937378]}, "properties": {"film_id": 189703, "film_title": "内なる檻", "english_title": null, "year": 2021, "location_name": "大阪市", "prefecture": "大阪府", "location_type": "represented", "info_source": "Represented_eiga_synopsis", "directors": [], "genres": ["Drama"], "studio": "", "studio_japanese": ""}}, {"type": "Feature", "geometry": {"type": "Point", "coordinates": [139.7421835, 35.6505828]}, "properties": {"film_id": 189704, "film_title": "そして私たちは愚か者のように見過ごしてきた", "english_title": null, "year": 2021, "location_name": "ｲﾀﾘｱ", "prefecture": null, "location_type": "represented", "info_source": "Represented_eiga_synopsis", "directors": [], "genres": ["Comedy", "Drama"], "studio": "", "studio_japanese": ""}}, {"type": "Feature", "geometry": {"type": "Point", "coordinates": [139.6917724609375, 35.6896286010742]}, "properties": {"film_id": 189704, "film_title": "そして私たちは愚か者のように見過ごしてきた", "english_title": null, "year": 2021, "location_name": "東京", "prefecture": null, "location_type": "represented", "info_source": "Represented_eiga_synopsis", "directors": [], "genres": ["Comedy", "Drama"], "studio": "", "studio_japanese": ""}}, {"type": "Feature", "geometry": {"type": "Point", "coordinates": [135.5021651, 34.6937378]}, "properties": {"film_id": 189704, "film_title": "そして私たちは愚か者のように見過ごしてきた", "english_title": null, "year": 2021, "location_name": "大阪市", "prefecture": "大阪府", "location_type": "represented", "info_source": "Represented_eiga_synopsis", "directors": [], "genres": ["Comedy", "Drama"], "studio": "", "studio_japanese": ""}}, {"type": "Feature", "geometry": {"type": "Point", "coordinates": [139.7421835, 35.6505828]}, "properties": {"film_id": 189705, "film_title": "ある日、ローマの別れ", "english_title": null, "year": 2021, "location_name": "ｲﾀﾘｱ", "prefecture": null, "location_type": "represented", "info_source": "Represented_eiga_synopsis", "directors": ["エドアルド・レオ"], "genres": ["Romance", "Comedy"], "studio": "", "studio_japanese": ""}}, {"type": "Feature", "geometry": {"type": "Point", "coordinates": [139.6917724609375, 35.6896286010742]}, "properties": {"film_id": 189705, "film_title": "ある日、ローマの別れ", "english_title": null, "year": 2021, "location_name": "東京", "prefecture": null, "location_type": "represented", "info_source": "Represented_eiga_synopsis", "directors": ["エドアルド・レオ"], "genres": ["Romance", "Comedy"], "studio": "", "studio_japanese": ""}}, {"type": "Feature", "geometry": {"type": "Point", "coordinates": [135.5021651, 34.6937378]}, "properties": {"film_id": 189705, "film_title": "ある日、ローマの別れ", "english_title": null, "year": 2021, "location_name": "大阪市", "prefecture": "大阪府", "location_type": "represented", "info_source": "Represented_eiga_synopsis", "directors": ["エドアルド・レオ"], "genres": ["Romance", "Comedy"], "studio": "", "studio_japanese": ""}}, {"type": "Feature", "geometry": {"type": "Point", "coordinates": [139.7421835, 35.6505828]}, "properties": {"film_id": 189706, "film_title": "ディアボリック", "english_title": "Diabolik", "year": 2021, "location_name": "ｲﾀﾘｱ", "prefecture": null, "location_type": "represented", "info_source": "Represented_eiga_synopsis", "directors": ["アントニオ・マネッティ", "マルコ・マネッティ"], "genres": ["Action", "Suspense", "Crime"], "studio": "", "studio_japanese": ""}}, {"type": "Feature", "geometry": {"type": "Point", "coordinates": [139.6917724609375, 35.6896286010742]}, "properties": {"film_id": 189706, "film_title": "ディアボリック", "english_title": "Diabolik", "year": 2021, "location_name": "東京", "prefecture": null, "location_type": "represented", "info_source": "Represented_eiga_synopsis", "directors": ["アントニオ・マネッティ", "マルコ・マネッティ"], "genres": ["Action", "Suspense", "Crime"], "studio": "", "studio_japanese": ""}}, {"type": "Feature", "geometry": {"type": "Point", "coordinates": [135.5021651, 34.6937378]}, "properties": {"film_id": 189706, "film_title": "ディアボリック", "english_title": "Diabolik", "year": 2021, "location_name": "大阪市", "prefecture": "大阪府", "location_type": "represented", "info_source": "Represented_eiga_synopsis", "directors": ["アントニオ・マネッティ", "マルコ・マネッティ"], "genres": ["Action", "Suspense", "Crime"], "studio": "", "studio_japanese": ""}}, {"type": "Feature", "geometry": {"type": "Point", "coordinates": [139.7421835, 35.6505828]}, "properties": {"film_id": 189707, "film_title": "スーパーヒーローズ", "english_title": null, "year": 2021, "location_name": "ｲﾀﾘｱ", "prefecture": null, "location_type": "represented", "info_source": "Represented_eiga_synopsis", "directors": ["パオロ・ジェノヴェーゼ"], "genres": ["Comedy", "Romance", "Drama"], "studio": "", "studio_japanese": ""}}, {"type": "Feature", "geometry": {"type": "Point", "coordinates": [139.6917724609375, 35.6896286010742]}, "properties": {"film_id": 189707, "film_title": "スーパーヒーローズ", "english_title": null, "year": 2021, "location_name": "東京", "prefecture": null, "location_type": "represented", "info_source": "Represented_eiga_synopsis", "directors": ["パオロ・ジェノヴェーゼ"], "genres": ["Comedy", "Romance", "Drama"], "studio": "", "studio_japanese": ""}}, {"type": "Feature", "geometry": {"type": "Point", "coordinates": [135.5021651, 34.6937378]}, "properties": {"film_id": 189707, "film_title": "スーパーヒーローズ", "english_title": null, "year": 2021, "location_name": "大阪市", "prefecture": "大阪府", "location_type": "represented", "info_source": "Represented_eiga_synopsis", "directors": ["パオロ・ジェノヴェーゼ"], "genres": ["Comedy", "Romance", "Drama"], "studio": "", "studio_japanese": ""}}, {"type": "Feature", "geometry": {"type": "Point", "coordinates": [127.8160772, 26.3396119]}, "properties": {"film_id": 189709, "film_title": "あの夜、コザにいた。", "english_title": null, "year": null, "location_name": "コザ", "prefecture": null, "location_type": "represented", "info_source": "Represented_eiga_title", "directors": ["丹野雅仁"], "genres": [], "studio": "", "studio_japanese": ""}}, {"type": "Feature", "geometry": {"type": "Point", "coordinates": [139.7228298, 35.6305755]}, "properties": {"film_id": 189710, "film_title": "ベラルーシ再訪2017", "english_title": null, "year": null, "location_name": "ベラルーシ", "prefecture": null, "location_type": "represented", "info_source": "Represented_eiga_title", "directors": ["本橋成一"], "genres": [], "studio": "", "studio_japanese": ""}}, {"type": "Feature", "geometry": {"type": "Point", "coordinates": [135.7555968, 35.0212466]}, "properties": {"film_id": 189711, "film_title": "京都、早春", "english_title": null, "year": null, "location_name": "京都府", "prefecture": "京都府", "location_type": "represented", "info_source": "Represented_eiga_title", "directors": [], "genres": [], "studio": "", "studio_japanese": ""}}, {"type": "Feature", "geometry": {"type": "Point", "coordinates": [137.3243828, 35.6426205]}, "properties": {"film_id": 189712, "film_title": "槌の子物語　東白川村の目撃談", "english_title": null, "year": null, "location_name": "東白川村", "prefecture": null, "location_type": "represented", "info_source": "Represented_eiga_title", "directors": ["今井友樹"], "genres": [], "studio": "", "studio_japanese": ""}}, {"type": "Feature", "geometry": {"type": "Point", "coordinates": [139.7421835, 35.6505828]}, "properties": {"film_id": 189714, "film_title": "ノスタルジア", "english_title": "Nostalghia", "year": null, "location_name": "ｲﾀﾘｱ", "prefecture": null, "location_type": "represented", "info_source": "Represented_eiga_synopsis", "directors": [], "genres": [], "studio": "", "studio_japanese": ""}}, {"type": "Feature", "geometry": {"type": "Point", "coordinates": [139.6917724609375, 35.6896286010742]}, "properties": {"film_id": 189714, "film_title": "ノスタルジア", "english_title": "Nostalghia", "year": null, "location_name": "東京", "prefecture": null, "location_type": "represented", "info_source": "Represented_eiga_synopsis", "directors": [], "genres": [], "studio": "", "studio_japanese": ""}}, {"type": "Feature", "geometry": {"type": "Point", "coordinates": [139.7606676, 35.6732638]}, "properties": {"film_id": 189714, "film_title": "ノスタルジア", "english_title": "Nostalghia", "year": null, "location_name": "有楽町", "prefecture": "【東京都】", "location_type": "represented", "info_source": "Represented_eiga_synopsis", "directors": [], "genres": [], "studio": "", "studio_japanese": ""}}, {"type": "Feature", "geometry": {"type": "Point", "coordinates": [127.7669, 35.9078]}, "properties": {"film_id": 189716, "film_title": "サイバー地獄：n番部屋　ネット犯罪を暴く", "english_title": "Cyber Hell: Exposing an Internet Horror", "year": 2022, "location_name": "韓国", "prefecture": null, "location_type": "represented", "info_source": "Represented_eiga_synopsis", "directors": [], "genres": ["Documentary", "Crime"], "studio": "", "studio_japanese": ""}}, {"type": "Feature", "geometry": {"type": "Point", "coordinates": [135.5105087, 34.6796431]}, "properties": {"film_id": 189717, "film_title": "マドラス　我らが街", "english_title": null, "year": 2014, "location_name": "マドラス", "prefecture": null, "location_type": "represented", "info_source": "Represented_eiga_title", "directors": [], "genres": ["Drama", "Youth"], "studio": "", "studio_japanese": ""}}, {"type": "Feature", "geometry": {"type": "Point", "coordinates": [135.7555968, 35.0212466]}, "properties": {"film_id": 189722, "film_title": "O2作戦", "english_title": null, "year": 2020, "location_name": "京都府", "prefecture": "京都府", "location_type": "represented", "info_source": "Represented_eiga_synopsis", "directors": [], "genres": ["Suspense"], "studio": "", "studio_japanese": ""}}, {"type": "Feature", "geometry": {"type": "Point", "coordinates": [139.7116375, 35.6729201]}, "properties": {"film_id": 189722, "film_title": "O2作戦", "english_title": null, "year": 2020, "location_name": "エストニア", "prefecture": null, "location_type": "represented", "info_source": "Represented_eiga_synopsis", "directors": [], "genres": ["Suspense"], "studio": "", "studio_japanese": ""}}, {"type": "Feature", "geometry": {"type": "Point", "coordinates": [139.7297454, 35.6563058]}, "properties": {"film_id": 189722, "film_title": "O2作戦", "english_title": null, "year": 2020, "location_name": "リトアニア", "prefecture": null, "location_type": "represented", "info_source": "Represented_eiga_synopsis", "directors": [], "genres": ["Suspense"], "studio": "", "studio_japanese": ""}}, {"type": "Feature", "geometry": {"type": "Point", "coordinates": [135.7555968, 35.0212466]}, "properties": {"film_id": 189723, "film_title": "ホーホヴァルト村のマリオ", "english_title": "Why Not You", "year": 2020, "location_name": "京都府", "prefecture": "京都府", "location_type": "represented", "info_source": "Represented_eiga_synopsis", "directors": [], "genres": [], "studio": "", "studio_japanese": ""}}, {"type": "Feature", "geometry": {"type": "Point", "coordinates": [135.7555968, 35.0212466]}, "properties": {"film_id": 189724, "film_title": "ピサの約束", "english_title": "Promise of Pisa", "year": 2019, "location_name": "京都府", "prefecture": "京都府", "location_type": "represented", "info_source": "Represented_eiga_synopsis", "directors": [], "genres": ["Drama"], "studio": "", "studio_japanese": ""}}, {"type": "Feature", "geometry": {"type": "Point", "coordinates": [135.7555968, 35.0212466]}, "properties": {"film_id": 189725, "film_title": "老人", "english_title": "The Old Man Movie", "year": 2020, "location_name": "京都府", "prefecture": "京都府", "location_type": "represented", "info_source": "Represented_eiga_synopsis", "directors": [], "genres": ["Drama"], "studio": "", "studio_japanese": ""}}, {"type": "Feature", "geometry": {"type": "Point", "coordinates": [135.7555968, 35.0212466]}, "properties": {"film_id": 189726, "film_title": "彼女の仕事", "english_title": null, "year": 2018, "location_name": "京都府", "prefecture": "京都府", "location_type": "represented", "info_source": "Represented_eiga_synopsis", "directors": [], "genres": ["Drama"], "studio": "", "studio_japanese": ""}}, {"type": "Feature", "geometry": {"type": "Point", "coordinates": [135.7555968, 35.0212466]}, "properties": {"film_id": 189727, "film_title": "アレクシ", "english_title": "Aleksi", "year": 2018, "location_name": "京都府", "prefecture": "京都府", "location_type": "represented", "info_source": "Represented_eiga_synopsis", "directors": [], "genres": ["Drama"], "studio": "", "studio_japanese": ""}}, {"type": "Feature", "geometry": {"type": "Point", "coordinates": [135.3818433, 34.6499245]}, "properties": {"film_id": 189727, "film_title": "アレクシ", "english_title": "Aleksi", "year": 2018, "location_name": "クロアチア", "prefecture": null, "location_type": "represented", "info_source": "Represented_eiga_synopsis", "directors": [], "genres": ["Drama"], "studio": "", "studio_japanese": ""}}, {"type": "Feature", "geometry": {"type": "Point", "coordinates": [135.7555968, 35.0212466]}, "properties": {"film_id": 189728, "film_title": "走れ、ウイェ！走れ！", "english_title": null, "year": 2020, "location_name": "京都府", "prefecture": "京都府", "location_type": "represented", "info_source": "Represented_eiga_synopsis", "directors": [], "genres": ["Comedy", "Drama"], "studio": "", "studio_japanese": ""}}, {"type": "Feature", "geometry": {"type": "Point", "coordinates": [135.7555968, 35.0212466]}, "properties": {"film_id": 189729, "film_title": "サンクチュアリ", "english_title": "Sanctuary", "year": null, "location_name": "京都府", "prefecture": "京都府", "location_type": "represented", "info_source": "Represented_eiga_synopsis", "directors": [], "genres": [], "studio": "", "studio_japanese": ""}}, {"type": "Feature", "geometry": {"type": "Point", "coordinates": [135.7555968, 35.0212466]}, "properties": {"film_id": 189730, "film_title": "神に仕える者たち", "english_title": "Servants", "year": 2020, "location_name": "京都府", "prefecture": "京都府", "location_type": "represented", "info_source": "Represented_eiga_synopsis", "directors": [], "genres": ["Drama"], "studio": "", "studio_japanese": ""}}, {"type": "Feature", "geometry": {"type": "Point", "coordinates": [135.7555968, 35.0212466]}, "properties": {"film_id": 189731, "film_title": "サンレモ", "english_title": "Sanremo", "year": 2020, "location_name": "京都府", "prefecture": "京都府", "location_type": "represented", "info_source": "Represented_eiga_synopsis", "directors": [], "genres": ["Drama"], "studio": "", "studio_japanese": ""}}, {"type": "Feature", "geometry": {"type": "Point", "coordinates": [135.382267, 34.649844]}, "properties": {"film_id": 189731, "film_title": "サンレモ", "english_title": "Sanremo", "year": 2020, "location_name": "スロベニア", "prefecture": null, "location_type": "represented", "info_source": "Represented_eiga_synopsis", "directors": [], "genres": ["Drama"], "studio": "", "studio_japanese": ""}}, {"type": "Feature", "geometry": {"type": "Point", "coordinates": [139.7421835, 35.6505828]}, "properties": {"film_id": 189731, "film_title": "サンレモ", "english_title": "Sanremo", "year": 2020, "location_name": "ｲﾀﾘｱ", "prefecture": null, "location_type": "represented", "info_source": "Represented_eiga_synopsis", "directors": [], "genres": ["Drama"], "studio": "", "studio_japanese": ""}}, {"type": "Feature", "geometry": {"type": "Point", "coordinates": [135.7555968, 35.0212466]}, "properties": {"film_id": 189732, "film_title": "オーナーズ", "english_title": null, "year": 2019, "location_name": "京都府", "prefecture": "京都府", "location_type": "represented", "info_source": "Represented_eiga_synopsis", "directors": [], "genres": ["Comedy", "Drama"], "studio": "", "studio_japanese": ""}}, {"type": "Feature", "geometry": {"type": "Point", "coordinates": [135.7555968, 35.0212466]}, "properties": {"film_id": 189733, "film_title": "プスタ（大平原）に生きる馬たち", "english_title": "Wild Horses: A Tale from the Puszta", "year": 2021, "location_name": "京都府", "prefecture": "京都府", "location_type": "represented", "info_source": "Represented_eiga_synopsis", "directors": [], "genres": ["Documentary"], "studio": "", "studio_japanese": ""}}, {"type": "Feature", "geometry": {"type": "Point", "coordinates": [135.7555968, 35.0212466]}, "properties": {"film_id": 189734, "film_title": "ユキとの写真", "english_title": "A Picture with Yuki", "year": 2019, "location_name": "京都府", "prefecture": "京都府", "location_type": "represented", "info_source": "Represented_eiga_synopsis", "directors": [], "genres": ["Drama"], "studio": "", "studio_japanese": ""}}, {"type": "Feature", "geometry": {"type": "Point", "coordinates": [139.6904665, 35.6737004]}, "properties": {"film_id": 189734, "film_title": "ユキとの写真", "english_title": "A Picture with Yuki", "year": 2019, "location_name": "ブルガリア", "prefecture": null, "location_type": "represented", "info_source": "Represented_eiga_synopsis", "directors": [], "genres": ["Drama"], "studio": "", "studio_japanese": ""}}, {"type": "Feature", "geometry": {"type": "Point", "coordinates": [135.7555968, 35.0212466]}, "properties": {"film_id": 189735, "film_title": "イカした人生", "english_title": "Madly in Life", "year": 2020, "location_name": "京都府", "prefecture": "京都府", "location_type": "represented", "info_source": "Represented_eiga_synopsis", "directors": [], "genres": ["Comedy"], "studio": "", "studio_japanese": ""}}, {"type": "Feature", "geometry": {"type": "Point", "coordinates": [135.7555968, 35.0212466]}, "properties": {"film_id": 189736, "film_title": "リカルド・レイスの死の年", "english_title": "The Year of the Death of Ricardo Reis", "year": 2020, "location_name": "京都府", "prefecture": "京都府", "location_type": "represented", "info_source": "Represented_eiga_synopsis", "directors": [], "genres": ["Drama"], "studio": "", "studio_japanese": ""}}, {"type": "Feature", "geometry": {"type": "Point", "coordinates": [135.7555968, 35.0212466]}, "properties": {"film_id": 189737, "film_title": "落とし穴", "english_title": "Pitfall", "year": null, "location_name": "京都府", "prefecture": "京都府", "location_type": "represented", "info_source": "Represented_eiga_synopsis", "directors": [], "genres": [], "studio": "", "studio_japanese": ""}}, {"type": "Feature", "geometry": {"type": "Point", "coordinates": [135.7555968, 35.0212466]}, "properties": {"film_id": 189738, "film_title": "ジャンプ", "english_title": "Jump", "year": 2004, "location_name": "京都府", "prefecture": "京都府", "location_type": "represented", "info_source": "Represented_eiga_synopsis", "directors": [], "genres": ["Mystery"], "studio": "", "studio_japanese": ""}}, {"type": "Feature", "geometry": {"type": "Point", "coordinates": [139.7297454, 35.6563058]}, "properties": {"film_id": 189738, "film_title": "ジャンプ", "english_title": "Jump", "year": 2004, "location_name": "リトアニア", "prefecture": null, "location_type": "represented", "info_source": "Represented_eiga_synopsis", "directors": [], "genres": ["Mystery"], "studio": "", "studio_japanese": ""}}, {"type": "Feature", "geometry": {"type": "Point", "coordinates": [135.7555968, 35.0212466]}, "properties": {"film_id": 189739, "film_title": "アントニオとレオ", "english_title": "Io sto bene", "year": 2020, "location_name": "京都府", "prefecture": "京都府", "location_type": "represented", "info_source": "Represented_eiga_synopsis", "directors": [], "genres": ["Drama"], "studio": "", "studio_japanese": ""}}, {"type": "Feature", "geometry": {"type": "Point", "coordinates": [139.7369606, 35.689655]}, "properties": {"film_id": 189739, "film_title": "アントニオとレオ", "english_title": "Io sto bene", "year": 2020, "location_name": "ルクセンブルク", "prefecture": null, "location_type": "represented", "info_source": "Represented_eiga_synopsis", "directors": [], "genres": ["Drama"], "studio": "", "studio_japanese": ""}}, {"type": "Feature", "geometry": {"type": "Point", "coordinates": [135.7555968, 35.0212466]}, "properties": {"film_id": 189740, "film_title": "近くの他人", "english_title": null, "year": null, "location_name": "京都府", "prefecture": "京都府", "location_type": "represented", "info_source": "Represented_eiga_synopsis", "directors": [], "genres": [], "studio": "", "studio_japanese": ""}}, {"type": "Feature", "geometry": {"type": "Point", "coordinates": [139.7297454, 35.6563058]}, "properties": {"film_id": 189749, "film_title": "サンガイレ、17才の夏。", "english_title": null, "year": null, "location_name": "リトアニア", "prefecture": null, "location_type": "represented", "info_source": "Represented_eiga_synopsis", "directors": [], "genres": [], "studio": "", "studio_japanese": ""}}, {"type": "Feature", "geometry": {"type": "Point", "coordinates": [139.7421835, 35.6505828]}, "properties": {"film_id": 189750, "film_title": "無限の広がり", "english_title": null, "year": 2022, "location_name": "ｲﾀﾘｱ", "prefecture": null, "location_type": "represented", "info_source": "Represented_eiga_synopsis", "directors": [], "genres": ["Drama"], "studio": "", "studio_japanese": ""}}, {"type": "Feature", "geometry": {"type": "Point", "coordinates": [139.6917724609375, 35.6896286010742]}, "properties": {"film_id": 189750, "film_title": "無限の広がり", "english_title": null, "year": 2022, "location_name": "東京", "prefecture": null, "location_type": "represented", "info_source": "Represented_eiga_synopsis", "directors": [], "genres": ["Drama"], "studio": "", "studio_japanese": ""}}, {"type": "Feature", "geometry": {"type": "Point", "coordinates": [139.7606676, 35.6732638]}, "properties": {"film_id": 189750, "film_title": "無限の広がり", "english_title": null, "year": 2022, "location_name": "有楽町", "prefecture": "【東京都】", "location_type": "represented", "info_source": "Represented_eiga_synopsis", "directors": [], "genres": ["Drama"], "studio": "", "studio_japanese": ""}}, {"type": "Feature", "geometry": {"type": "Point", "coordinates": [139.7421835, 35.6505828]}, "properties": {"film_id": 189751, "film_title": "キアラ", "english_title": null, "year": 2022, "location_name": "ｲﾀﾘｱ", "prefecture": null, "location_type": "represented", "info_source": "Represented_eiga_synopsis", "directors": [], "genres": ["Drama"], "studio": "", "studio_japanese": ""}}, {"type": "Feature", "geometry": {"type": "Point", "coordinates": [139.6917724609375, 35.6896286010742]}, "properties": {"film_id": 189751, "film_title": "キアラ", "english_title": null, "year": 2022, "location_name": "東京", "prefecture": null, "location_type": "represented", "info_source": "Represented_eiga_synopsis", "directors": [], "genres": ["Drama"], "studio": "", "studio_japanese": ""}}, {"type": "Feature", "geometry": {"type": "Point", "coordinates": [139.7606676, 35.6732638]}, "properties": {"film_id": 189751, "film_title": "キアラ", "english_title": null, "year": 2022, "location_name": "有楽町", "prefecture": "【東京都】", "location_type": "represented", "info_source": "Represented_eiga_synopsis", "directors": [], "genres": ["Drama"], "studio": "", "studio_japanese": ""}}, {"type": "Feature", "geometry": {"type": "Point", "coordinates": [139.4022345, 35.6531781]}, "properties": {"film_id": 189756, "film_title": "OSS 117 アフリカより愛をこめて", "english_title": "OSS 117: From Africa with Love", "year": 2021, "location_name": "アフリカ", "prefecture": null, "location_type": "represented", "info_source": "Represented_eiga_title", "directors": ["ニコラ・ブドス"], "genres": ["Action", "Comedy"], "studio": "", "studio_japanese": ""}}, {"type": "Feature", "geometry": {"type": "Point", "coordinates": [139.4022345, 35.6531781]}, "properties": {"film_id": 189763, "film_title": "アフリカのオレステイアのための覚書", "english_title": null, "year": null, "location_name": "アフリカ", "prefecture": null, "location_type": "represented", "info_source": "Represented_eiga_title", "directors": ["ピエル・パオロ・パゾリーニ"], "genres": [], "studio": "", "studio_japanese": ""}}, {"type": "Feature", "geometry": {"type": "Point", "coordinates": [136.90658569335938, 35.1808280944824]}, "properties": {"film_id": 189766, "film_title": "あのまちの夫婦", "english_title": null, "year": null, "location_name": "愛知県", "prefecture": null, "location_type": "represented", "info_source": "Represented_eiga_synopsis", "directors": ["津田寛治"], "genres": [], "studio": "", "studio_japanese": ""}}, {"type": "Feature", "geometry": {"type": "Point", "coordinates": [135.7506859, 35.0336911]}, "properties": {"film_id": 189766, "film_title": "あのまちの夫婦", "english_title": null, "year": null, "location_name": "知多半島", "prefecture": null, "location_type": "represented", "info_source": "Represented_eiga_synopsis", "directors": ["津田寛治"], "genres": [], "studio": "", "studio_japanese": ""}}, {"type": "Feature", "geometry": {"type": "Point", "coordinates": [131.6124267578125, 33.2382316589355]}, "properties": {"film_id": 189767, "film_title": "惡党と物書き", "english_title": null, "year": null, "location_name": "大分県", "prefecture": null, "location_type": "represented", "info_source": "Represented_eiga_synopsis", "directors": ["土屋哲彦"], "genres": [], "studio": "", "studio_japanese": ""}}, {"type": "Feature", "geometry": {"type": "Point", "coordinates": [131.4913063, 33.2845752]}, "properties": {"film_id": 189767, "film_title": "惡党と物書き", "english_title": null, "year": null, "location_name": "別府市", "prefecture": null, "location_type": "represented", "info_source": "Represented_eiga_synopsis", "directors": ["土屋哲彦"], "genres": [], "studio": "", "studio_japanese": ""}}, {"type": "Feature", "geometry": {"type": "Point", "coordinates": [131.5001342, 33.2796779]}, "properties": {"film_id": 189767, "film_title": "惡党と物書き", "english_title": null, "year": null, "location_name": "別府", "prefecture": null, "location_type": "represented", "info_source": "Represented_eiga_synopsis", "directors": ["土屋哲彦"], "genres": [], "studio": "", "studio_japanese": ""}}, {"type": "Feature", "geometry": {"type": "Point", "coordinates": [135.5021651, 34.6937378]}, "properties": {"film_id": 189767, "film_title": "惡党と物書き", "english_title": null, "year": null, "location_name": "大阪市", "prefecture": "大阪府", "location_type": "represented", "info_source": "Represented_eiga_synopsis", "directors": ["土屋哲彦"], "genres": [], "studio": "", "studio_japanese": ""}}, {"type": "Feature", "geometry": {"type": "Point", "coordinates": [139.4022345, 35.6531781]}, "properties": {"film_id": 189770, "film_title": "ウーマン・キング　無敵の女戦士たち", "english_title": "The Woman King", "year": 2022, "location_name": "アフリカ", "prefecture": null, "location_type": "represented", "info_source": "Represented_eiga_synopsis", "directors": [], "genres": ["Action", "Adventure", "Drama"], "studio": "", "studio_japanese": ""}}, {"type": "Feature", "geometry": {"type": "Point", "coordinates": [140.352325, 38.2389384]}, "properties": {"film_id": 189776, "film_title": "蝶の命は一日限り", "english_title": "Butterflies Live Only One Day", "year": null, "location_name": "アジア", "prefecture": null, "location_type": "represented", "info_source": "Represented_eiga_synopsis", "directors": [], "genres": [], "studio": "", "studio_japanese": ""}}, {"type": "Feature", "geometry": {"type": "Point", "coordinates": [140.352325, 38.2389384]}, "properties": {"film_id": 189778, "film_title": "私たちの場所", "english_title": "A Place of Our Own", "year": null, "location_name": "アジア", "prefecture": null, "location_type": "represented", "info_source": "Represented_eiga_synopsis", "directors": [], "genres": [], "studio": "", "studio_japanese": ""}}, {"type": "Feature", "geometry": {"type": "Point", "coordinates": [140.352325, 38.2389384]}, "properties": {"film_id": 189779, "film_title": "突然に", "english_title": "Suddenly", "year": null, "location_name": "アジア", "prefecture": null, "location_type": "represented", "info_source": "Represented_eiga_synopsis", "directors": [], "genres": [], "studio": "", "studio_japanese": ""}}, {"type": "Feature", "geometry": {"type": "Point", "coordinates": [139.7455898, 35.6483815]}, "properties": {"film_id": 189788, "film_title": "地中海熱", "english_title": "Mediterranean Fever", "year": 2022, "location_name": "地中海", "prefecture": null, "location_type": "represented", "info_source": "Represented_eiga_title", "directors": [], "genres": ["Drama"], "studio": "", "studio_japanese": ""}}, {"type": "Feature", "geometry": {"type": "Point", "coordinates": [139.6917724609375, 35.6896286010742]}, "properties": {"film_id": 189788, "film_title": "地中海熱", "english_title": "Mediterranean Fever", "year": 2022, "location_name": "東京", "prefecture": null, "location_type": "represented", "info_source": "Represented_eiga_synopsis", "directors": [], "genres": ["Drama"], "studio": "", "studio_japanese": ""}}, {"type": "Feature", "geometry": {"type": "Point", "coordinates": [135.3814041, 34.6491709]}, "properties": {"film_id": 189788, "film_title": "地中海熱", "english_title": "Mediterranean Fever", "year": 2022, "location_name": "パレスチナ", "prefecture": null, "location_type": "represented", "info_source": "Represented_eiga_synopsis", "directors": [], "genres": ["Drama"], "studio": "", "studio_japanese": ""}}, {"type": "Feature", "geometry": {"type": "Point", "coordinates": [139.6917724609375, 35.6896286010742]}, "properties": {"film_id": 189789, "film_title": "ダム", "english_title": "The Dam", "year": 2022, "location_name": "東京", "prefecture": null, "location_type": "represented", "info_source": "Represented_eiga_synopsis", "directors": [], "genres": [], "studio": "", "studio_japanese": ""}}, {"type": "Feature", "geometry": {"type": "Point", "coordinates": [139.6917724609375, 35.6896286010742]}, "properties": {"film_id": 189790, "film_title": "アーノルドは模範生", "english_title": "Arnold Is a Model Student", "year": 2022, "location_name": "東京", "prefecture": null, "location_type": "represented", "info_source": "Represented_eiga_synopsis", "directors": ["シュラー・ヘンズリー"], "genres": ["Drama"], "studio": "", "studio_japanese": ""}}, {"type": "Feature", "geometry": {"type": "Point", "coordinates": [135.7555968, 35.0212466]}, "properties": {"film_id": 189792, "film_title": "ブラインドマン", "english_title": null, "year": 2021, "location_name": "京都府", "prefecture": "京都府", "location_type": "represented", "info_source": "Represented_eiga_synopsis", "directors": [], "genres": ["Drama"], "studio": "", "studio_japanese": ""}}, {"type": "Feature", "geometry": {"type": "Point", "coordinates": [132.7324364, 34.3947165]}, "properties": {"film_id": 189792, "film_title": "ブラインドマン", "english_title": null, "year": 2021, "location_name": "広島市", "prefecture": "広島県", "location_type": "represented", "info_source": "Represented_eiga_synopsis", "directors": [], "genres": ["Drama"], "studio": "", "studio_japanese": ""}}, {"type": "Feature", "geometry": {"type": "Point", "coordinates": [139.6917724609375, 35.6896286010742]}, "properties": {"film_id": 189793, "film_title": "ウッドカッター・ストーリー", "english_title": null, "year": null, "location_name": "東京", "prefecture": null, "location_type": "represented", "info_source": "Represented_eiga_synopsis", "directors": ["ウィル・ケンプ"], "genres": [], "studio": "", "studio_japanese": ""}}, {"type": "Feature", "geometry": {"type": "Point", "coordinates": [139.7040506, 35.6617773]}, "properties": {"film_id": 189793, "film_title": "ウッドカッター・ストーリー", "english_title": null, "year": null, "location_name": "渋谷", "prefecture": "【東京都】", "location_type": "represented", "info_source": "Represented_eiga_synopsis", "directors": ["ウィル・ケンプ"], "genres": [], "studio": "", "studio_japanese": ""}}, {"type": "Feature", "geometry": {"type": "Point", "coordinates": [139.7286277, 35.6503408]}, "properties": {"film_id": 189793, "film_title": "ウッドカッター・ストーリー", "english_title": null, "year": null, "location_name": "フィンランド", "prefecture": null, "location_type": "represented", "info_source": "Represented_eiga_synopsis", "directors": ["ウィル・ケンプ"], "genres": [], "studio": "", "studio_japanese": ""}}, {"type": "Feature", "geometry": {"type": "Point", "coordinates": [135.5047867, 34.6628405]}, "properties": {"film_id": 189793, "film_title": "ウッドカッター・ストーリー", "english_title": null, "year": null, "location_name": "オランダ", "prefecture": null, "location_type": "represented", "info_source": "Represented_eiga_synopsis", "directors": ["ウィル・ケンプ"], "genres": [], "studio": "", "studio_japanese": ""}}, {"type": "Feature", "geometry": {"type": "Point", "coordinates": [139.6917724609375, 35.6896286010742]}, "properties": {"film_id": 189794, "film_title": "カラオケパラダイス", "english_title": null, "year": null, "location_name": "東京", "prefecture": null, "location_type": "represented", "info_source": "Represented_eiga_synopsis", "directors": [], "genres": [], "studio": "", "studio_japanese": ""}}, {"type": "Feature", "geometry": {"type": "Point", "coordinates": [139.7040506, 35.6617773]}, "properties": {"film_id": 189794, "film_title": "カラオケパラダイス", "english_title": null, "year": null, "location_name": "渋谷", "prefecture": "【東京都】", "location_type": "represented", "info_source": "Represented_eiga_synopsis", "directors": [], "genres": [], "studio": "", "studio_japanese": ""}}, {"type": "Feature", "geometry": {"type": "Point", "coordinates": [139.6917724609375, 35.6896286010742]}, "properties": {"film_id": 189795, "film_title": "シーヒャ　反抗的な妖精", "english_title": null, "year": null, "location_name": "東京", "prefecture": null, "location_type": "represented", "info_source": "Represented_eiga_synopsis", "directors": [], "genres": [], "studio": "", "studio_japanese": ""}}, {"type": "Feature", "geometry": {"type": "Point", "coordinates": [139.7040506, 35.6617773]}, "properties": {"film_id": 189795, "film_title": "シーヒャ　反抗的な妖精", "english_title": null, "year": null, "location_name": "渋谷", "prefecture": "【東京都】", "location_type": "represented", "info_source": "Represented_eiga_synopsis", "directors": [], "genres": [], "studio": "", "studio_japanese": ""}}, {"type": "Feature", "geometry": {"type": "Point", "coordinates": [139.6917724609375, 35.6896286010742]}, "properties": {"film_id": 189796, "film_title": "パンと塩", "english_title": "Bread and Salt", "year": 2022, "location_name": "東京", "prefecture": null, "location_type": "represented", "info_source": "Represented_eiga_synopsis", "directors": [], "genres": [], "studio": "", "studio_japanese": ""}}, {"type": "Feature", "geometry": {"type": "Point", "coordinates": [139.6917724609375, 35.6896286010742]}, "properties": {"film_id": 189797, "film_title": "愛についての歌", "english_title": "Songs About Love", "year": 2021, "location_name": "東京", "prefecture": null, "location_type": "represented", "info_source": "Represented_eiga_synopsis", "directors": [], "genres": [], "studio": "", "studio_japanese": ""}}, {"type": "Feature", "geometry": {"type": "Point", "coordinates": [139.6917724609375, 35.6896286010742]}, "properties": {"film_id": 189798, "film_title": "ショパン　暗闇に囚われることなく", "english_title": null, "year": 2021, "location_name": "東京", "prefecture": null, "location_type": "represented", "info_source": "Represented_eiga_synopsis", "directors": [], "genres": ["Documentary"], "studio": "", "studio_japanese": ""}}, {"type": "Feature", "geometry": {"type": "Point", "coordinates": [139.6917724609375, 35.6896286010742]}, "properties": {"film_id": 189799, "film_title": "ポルミッション　パスポートの秘密", "english_title": null, "year": null, "location_name": "東京", "prefecture": null, "location_type": "represented", "info_source": "Represented_eiga_synopsis", "directors": [], "genres": [], "studio": "", "studio_japanese": ""}}, {"type": "Feature", "geometry": {"type": "Point", "coordinates": [139.739231, 35.6632793]}, "properties": {"film_id": 189800, "film_title": "ジャマル・カショギ殺害事件　真犯人は逮捕されない", "english_title": null, "year": 2020, "location_name": "サウジアラビア", "prefecture": null, "location_type": "represented", "info_source": "Represented_eiga_synopsis", "directors": [], "genres": ["Documentary"], "studio": "", "studio_japanese": ""}}, {"type": "Feature", "geometry": {"type": "Point", "coordinates": [139.6462837, 35.4272033]}, "properties": {"film_id": 189802, "film_title": "フルタイム", "english_title": null, "year": 2021, "location_name": "横浜市", "prefecture": "神奈川県", "location_type": "represented", "info_source": "Represented_eiga_synopsis", "directors": [], "genres": ["Drama"], "studio": "", "studio_japanese": ""}}, {"type": "Feature", "geometry": {"type": "Point", "coordinates": [139.6462837, 35.4272033]}, "properties": {"film_id": 189803, "film_title": "イヌとイタリア人、お断り！", "english_title": "No Dogs or Italians Allowed", "year": null, "location_name": "横浜市", "prefecture": "神奈川県", "location_type": "represented", "info_source": "Represented_eiga_synopsis", "directors": [], "genres": [], "studio": "", "studio_japanese": ""}}, {"type": "Feature", "geometry": {"type": "Point", "coordinates": [139.7421835, 35.6505828]}, "properties": {"film_id": 189803, "film_title": "イヌとイタリア人、お断り！", "english_title": "No Dogs or Italians Allowed", "year": null, "location_name": "ｲﾀﾘｱ", "prefecture": null, "location_type": "represented", "info_source": "Represented_eiga_synopsis", "directors": [], "genres": [], "studio": "", "studio_japanese": ""}}, {"type": "Feature", "geometry": {"type": "Point", "coordinates": [139.7040506, 35.6617773]}, "properties": {"film_id": 189804, "film_title": "ロス・タラントス　バルセロナ物語", "english_title": null, "year": null, "location_name": "渋谷", "prefecture": "【東京都】", "location_type": "represented", "info_source": "Represented_eiga_synopsis", "directors": [], "genres": [], "studio": "", "studio_japanese": ""}}, {"type": "Feature", "geometry": {"type": "Point", "coordinates": [139.7040506, 35.6617773]}, "properties": {"film_id": 189805, "film_title": "フラメンコの魔性と神秘", "english_title": "Flamenco", "year": 1952, "location_name": "渋谷", "prefecture": "【東京都】", "location_type": "represented", "info_source": "Represented_eiga_synopsis", "directors": [], "genres": ["Documentary"], "studio": "", "studio_japanese": ""}}, {"type": "Feature", "geometry": {"type": "Point", "coordinates": [139.7040506, 35.6617773]}, "properties": {"film_id": 189806, "film_title": "ファルキート in テアトロ・レアル", "english_title": null, "year": 2021, "location_name": "渋谷", "prefecture": "【東京都】", "location_type": "represented", "info_source": "Represented_eiga_synopsis", "directors": [], "genres": [], "studio": "", "studio_japanese": ""}}, {"type": "Feature", "geometry": {"type": "Point", "coordinates": [132.4760032, 34.3973871]}, "properties": {"film_id": 189807, "film_title": "福山市長に1日密着してみた", "english_title": "One Day of Mayor Fukuyama", "year": 2022, "location_name": "広島", "prefecture": "広島県", "location_type": "represented", "info_source": "Represented_eiga_synopsis", "directors": ["中元雄"], "genres": ["Comedy", "Thriller"], "studio": "", "studio_japanese": ""}}, {"type": "Feature", "geometry": {"type": "Point", "coordinates": [133.3623097, 34.4857039]}, "properties": {"film_id": 189807, "film_title": "福山市長に1日密着してみた", "english_title": "One Day of Mayor Fukuyama", "year": 2022, "location_name": "福山市", "prefecture": "広島県", "location_type": "represented", "info_source": "Represented_eiga_synopsis", "directors": ["中元雄"], "genres": ["Comedy", "Thriller"], "studio": "", "studio_japanese": ""}}, {"type": "Feature", "geometry": {"type": "Point", "coordinates": [139.6917724609375, 35.6896286010742]}, "properties": {"film_id": 189807, "film_title": "福山市長に1日密着してみた", "english_title": "One Day of Mayor Fukuyama", "year": 2022, "location_name": "東京", "prefecture": null, "location_type": "represented", "info_source": "Represented_eiga_synopsis", "directors": ["中元雄"], "genres": ["Comedy", "Thriller"], "studio": "", "studio_japanese": ""}}, {"type": "Feature", "geometry": {"type": "Point", "coordinates": [133.2636747, 34.6017198]}, "properties": {"film_id": 189807, "film_title": "福山市長に1日密着してみた", "english_title": "One Day of Mayor Fukuyama", "year": 2022, "location_name": "広島県福山市", "prefecture": null, "location_type": "represented", "info_source": "Represented_eiga_synopsis", "directors": ["中元雄"], "genres": ["Comedy", "Thriller"], "studio": "", "studio_japanese": ""}}, {"type": "Feature", "geometry": {"type": "Point", "coordinates": [127.7669, 35.9078]}, "properties": {"film_id": 189808, "film_title": "スンブ　二人の棋士", "english_title": "The Match", "year": null, "location_name": "韓国", "prefecture": null, "location_type": "represented", "info_source": "Represented_eiga_synopsis", "directors": ["キム・ヒョンジュ"], "genres": [], "studio": "", "studio_japanese": ""}}, {"type": "Feature", "geometry": {"type": "Point", "coordinates": [137.9662272, 36.2335536]}, "properties": {"film_id": 189816, "film_title": "氷を売る親子", "english_title": null, "year": null, "location_name": "ポルトガル", "prefecture": null, "location_type": "represented", "info_source": "Represented_eiga_synopsis", "directors": [], "genres": [], "studio": "", "studio_japanese": ""}}, {"type": "Feature", "geometry": {"type": "Point", "coordinates": [139.7706343, 35.7016385]}, "properties": {"film_id": 189818, "film_title": "ダリエン・ルート　“死のジャングル”に向かう子どもたち", "english_title": null, "year": null, "location_name": "ジャングル", "prefecture": null, "location_type": "represented", "info_source": "Represented_eiga_title", "directors": [], "genres": [], "studio": "", "studio_japanese": ""}}, {"type": "Feature", "geometry": {"type": "Point", "coordinates": [139.6917724609375, 35.6896286010742]}, "properties": {"film_id": 189823, "film_title": "フェモクラシー　不屈の女たち", "english_title": null, "year": 2021, "location_name": "東京", "prefecture": null, "location_type": "represented", "info_source": "Represented_eiga_synopsis", "directors": [], "genres": ["Documentary"], "studio": "", "studio_japanese": ""}}, {"type": "Feature", "geometry": {"type": "Point", "coordinates": [139.6917724609375, 35.6896286010742]}, "properties": {"film_id": 189824, "film_title": "私はニコ", "english_title": null, "year": null, "location_name": "東京", "prefecture": null, "location_type": "represented", "info_source": "Represented_eiga_synopsis", "directors": [], "genres": [], "studio": "", "studio_japanese": ""}}, {"type": "Feature", "geometry": {"type": "Point", "coordinates": [139.6917724609375, 35.6896286010742]}, "properties": {"film_id": 189825, "film_title": "ディア・トーマス　東西ドイツの狭間で", "english_title": null, "year": null, "location_name": "東京", "prefecture": null, "location_type": "represented", "info_source": "Represented_eiga_synopsis", "directors": [], "genres": [], "studio": "", "studio_japanese": ""}}, {"type": "Feature", "geometry": {"type": "Point", "coordinates": [139.6917724609375, 35.6896286010742]}, "properties": {"film_id": 189826, "film_title": "あしたの空模様", "english_title": null, "year": null, "location_name": "東京", "prefecture": null, "location_type": "represented", "info_source": "Represented_eiga_synopsis", "directors": [], "genres": [], "studio": "", "studio_japanese": ""}}, {"type": "Feature", "geometry": {"type": "Point", "coordinates": [139.6917724609375, 35.6896286010742]}, "properties": {"film_id": 189827, "film_title": "焦燥の夏", "english_title": null, "year": null, "location_name": "東京", "prefecture": null, "location_type": "represented", "info_source": "Represented_eiga_synopsis", "directors": [], "genres": [], "studio": "", "studio_japanese": ""}}, {"type": "Feature", "geometry": {"type": "Point", "coordinates": [130.9958948, 30.591848]}, "properties": {"film_id": 189829, "film_title": "Surf Around 駿河太郎が巡る、種子島", "english_title": null, "year": null, "location_name": "種子島", "prefecture": null, "location_type": "represented", "info_source": "Represented_eiga_title", "directors": [], "genres": [], "studio": "", "studio_japanese": ""}}, {"type": "Feature", "geometry": {"type": "Point", "coordinates": [139.7421835, 35.6505828]}, "properties": {"film_id": 189830, "film_title": "スイングライド", "english_title": "Swing Ride", "year": 2022, "location_name": "ｲﾀﾘｱ", "prefecture": null, "location_type": "represented", "info_source": "Represented_eiga_synopsis", "directors": [], "genres": ["Drama"], "studio": "", "studio_japanese": ""}}, {"type": "Feature", "geometry": {"type": "Point", "coordinates": [139.6917724609375, 35.6896286010742]}, "properties": {"film_id": 189830, "film_title": "スイングライド", "english_title": "Swing Ride", "year": 2022, "location_name": "東京", "prefecture": null, "location_type": "represented", "info_source": "Represented_eiga_synopsis", "directors": [], "genres": ["Drama"], "studio": "", "studio_japanese": ""}}, {"type": "Feature", "geometry": {"type": "Point", "coordinates": [139.7606676, 35.6732638]}, "properties": {"film_id": 189830, "film_title": "スイングライド", "english_title": "Swing Ride", "year": 2022, "location_name": "有楽町", "prefecture": "【東京都】", "location_type": "represented", "info_source": "Represented_eiga_synopsis", "directors": [], "genres": ["Drama"], "studio": "", "studio_japanese": ""}}, {"type": "Feature", "geometry": {"type": "Point", "coordinates": [139.7421835, 35.6505828]}, "properties": {"film_id": 189831, "film_title": "警官ジジのアドベンチャー", "english_title": null, "year": 2022, "location_name": "ｲﾀﾘｱ", "prefecture": null, "location_type": "represented", "info_source": "Represented_eiga_synopsis", "directors": [], "genres": [], "studio": "", "studio_japanese": ""}}, {"type": "Feature", "geometry": {"type": "Point", "coordinates": [139.6917724609375, 35.6896286010742]}, "properties": {"film_id": 189831, "film_title": "警官ジジのアドベンチャー", "english_title": null, "year": 2022, "location_name": "東京", "prefecture": null, "location_type": "represented", "info_source": "Represented_eiga_synopsis", "directors": [], "genres": [], "studio": "", "studio_japanese": ""}}, {"type": "Feature", "geometry": {"type": "Point", "coordinates": [139.7606676, 35.6732638]}, "properties": {"film_id": 189831, "film_title": "警官ジジのアドベンチャー", "english_title": null, "year": 2022, "location_name": "有楽町", "prefecture": "【東京都】", "location_type": "represented", "info_source": "Represented_eiga_synopsis", "directors": [], "genres": [], "studio": "", "studio_japanese": ""}}, {"type": "Feature", "geometry": {"type": "Point", "coordinates": [139.7421835, 35.6505828]}, "properties": {"film_id": 189832, "film_title": "デルタ", "english_title": null, "year": 2022, "location_name": "ｲﾀﾘｱ", "prefecture": null, "location_type": "represented", "info_source": "Represented_eiga_synopsis", "directors": [], "genres": ["Drama"], "studio": "", "studio_japanese": ""}}, {"type": "Feature", "geometry": {"type": "Point", "coordinates": [139.6917724609375, 35.6896286010742]}, "properties": {"film_id": 189832, "film_title": "デルタ", "english_title": null, "year": 2022, "location_name": "東京", "prefecture": null, "location_type": "represented", "info_source": "Represented_eiga_synopsis", "directors": [], "genres": ["Drama"], "studio": "", "studio_japanese": ""}}, {"type": "Feature", "geometry": {"type": "Point", "coordinates": [139.7606676, 35.6732638]}, "properties": {"film_id": 189832, "film_title": "デルタ", "english_title": null, "year": 2022, "location_name": "有楽町", "prefecture": "【東京都】", "location_type": "represented", "info_source": "Represented_eiga_synopsis", "directors": [], "genres": ["Drama"], "studio": "", "studio_japanese": ""}}, {"type": "Feature", "geometry": {"type": "Point", "coordinates": [139.7421835, 35.6505828]}, "properties": {"film_id": 189833, "film_title": "乾いたローマ", "english_title": null, "year": 2022, "location_name": "ｲﾀﾘｱ", "prefecture": null, "location_type": "represented", "info_source": "Represented_eiga_synopsis", "directors": ["パオロ・ヴィルズィ"], "genres": ["Drama", "Science Fiction"], "studio": "", "studio_japanese": ""}}, {"type": "Feature", "geometry": {"type": "Point", "coordinates": [139.6917724609375, 35.6896286010742]}, "properties": {"film_id": 189833, "film_title": "乾いたローマ", "english_title": null, "year": 2022, "location_name": "東京", "prefecture": null, "location_type": "represented", "info_source": "Represented_eiga_synopsis", "directors": ["パオロ・ヴィルズィ"], "genres": ["Drama", "Science Fiction"], "studio": "", "studio_japanese": ""}}, {"type": "Feature", "geometry": {"type": "Point", "coordinates": [139.7606676, 35.6732638]}, "properties": {"film_id": 189833, "film_title": "乾いたローマ", "english_title": null, "year": 2022, "location_name": "有楽町", "prefecture": "【東京都】", "location_type": "represented", "info_source": "Represented_eiga_synopsis", "directors": ["パオロ・ヴィルズィ"], "genres": ["Drama", "Science Fiction"], "studio": "", "studio_japanese": ""}}, {"type": "Feature", "geometry": {"type": "Point", "coordinates": [139.7421835, 35.6505828]}, "properties": {"film_id": 189834, "film_title": "奇妙なこと", "english_title": null, "year": 2022, "location_name": "ｲﾀﾘｱ", "prefecture": null, "location_type": "represented", "info_source": "Represented_eiga_synopsis", "directors": [], "genres": ["Comedy"], "studio": "", "studio_japanese": ""}}, {"type": "Feature", "geometry": {"type": "Point", "coordinates": [139.6917724609375, 35.6896286010742]}, "properties": {"film_id": 189834, "film_title": "奇妙なこと", "english_title": null, "year": 2022, "location_name": "東京", "prefecture": null, "location_type": "represented", "info_source": "Represented_eiga_synopsis", "directors": [], "genres": ["Comedy"], "studio": "", "studio_japanese": ""}}, {"type": "Feature", "geometry": {"type": "Point", "coordinates": [139.7606676, 35.6732638]}, "properties": {"film_id": 189834, "film_title": "奇妙なこと", "english_title": null, "year": 2022, "location_name": "有楽町", "prefecture": "【東京都】", "location_type": "represented", "info_source": "Represented_eiga_synopsis", "directors": [], "genres": ["Comedy"], "studio": "", "studio_japanese": ""}}, {"type": "Feature", "geometry": {"type": "Point", "coordinates": [139.7421835, 35.6505828]}, "properties": {"film_id": 189835, "film_title": "はちどり", "english_title": "House of Hummingbird", "year": null, "location_name": "ｲﾀﾘｱ", "prefecture": null, "location_type": "represented", "info_source": "Represented_eiga_synopsis", "directors": [], "genres": [], "studio": "", "studio_japanese": ""}}, {"type": "Feature", "geometry": {"type": "Point", "coordinates": [139.6917724609375, 35.6896286010742]}, "properties": {"film_id": 189835, "film_title": "はちどり", "english_title": "House of Hummingbird", "year": null, "location_name": "東京", "prefecture": null, "location_type": "represented", "info_source": "Represented_eiga_synopsis", "directors": [], "genres": [], "studio": "", "studio_japanese": ""}}, {"type": "Feature", "geometry": {"type": "Point", "coordinates": [139.7606676, 35.6732638]}, "properties": {"film_id": 189835, "film_title": "はちどり", "english_title": "House of Hummingbird", "year": null, "location_name": "有楽町", "prefecture": "【東京都】", "location_type": "represented", "info_source": "Represented_eiga_synopsis", "directors": [], "genres": [], "studio": "", "studio_japanese": ""}}, {"type": "Feature", "geometry": {"type": "Point", "coordinates": [139.6917724609375, 35.6896286010742]}, "properties": {"film_id": 189839, "film_title": "バネルとアダマ", "english_title": null, "year": 2023, "location_name": "東京", "prefecture": null, "location_type": "represented", "info_source": "Represented_eiga_synopsis", "directors": [], "genres": ["Drama"], "studio": "", "studio_japanese": ""}}, {"type": "Feature", "geometry": {"type": "Point", "coordinates": [139.7421835, 35.6505828]}, "properties": {"film_id": 189842, "film_title": "恋のからまわり　イタリアの誘惑", "english_title": null, "year": null, "location_name": "ｲﾀﾘｱ", "prefecture": null, "location_type": "represented", "info_source": "Represented_eiga_title", "directors": [], "genres": [], "studio": "", "studio_japanese": ""}}, {"type": "Feature", "geometry": {"type": "Point", "coordinates": [139.7040506, 35.6617773]}, "properties": {"film_id": 138489, "film_title": "I SCREAM FEVER", "english_title": "I SCREAM FEVER", "year": 2023, "location_name": "渋谷", "prefecture": "【東京都】", "location_type": "represented", "info_source": "Represented_eiga_synopsis", "directors": ["千原徹也"], "genres": ["Drama"], "studio": "", "studio_japanese": ""}}, {"type": "Feature", "geometry": {"type": "Point", "coordinates": [139.6917724609375, 35.6896286010742]}, "properties": {"film_id": 189845, "film_title": "アイリッシュ・グッドバイ", "english_title": null, "year": 2022, "location_name": "東京", "prefecture": null, "location_type": "represented", "info_source": "Represented_eiga_synopsis", "directors": [], "genres": ["Comedy"], "studio": "", "studio_japanese": ""}}, {"type": "Feature", "geometry": {"type": "Point", "coordinates": [139.7369606, 35.689655]}, "properties": {"film_id": 189846, "film_title": "ルクセンブルク、ルクセンブルク", "english_title": null, "year": 2022, "location_name": "ルクセンブルク", "prefecture": null, "location_type": "represented", "info_source": "Represented_eiga_title", "directors": [], "genres": [], "studio": "", "studio_japanese": ""}}, {"type": "Feature", "geometry": {"type": "Point", "coordinates": [135.7555968, 35.0212466]}, "properties": {"film_id": 189846, "film_title": "ルクセンブルク、ルクセンブルク", "english_title": null, "year": 2022, "location_name": "京都府", "prefecture": "京都府", "location_type": "represented", "info_source": "Represented_eiga_synopsis", "directors": [], "genres": [], "studio": "", "studio_japanese": ""}}, {"type": "Feature", "geometry": {"type": "Point", "coordinates": [132.7324364, 34.3947165]}, "properties": {"film_id": 189846, "film_title": "ルクセンブルク、ルクセンブルク", "english_title": null, "year": 2022, "location_name": "広島市", "prefecture": "広島県", "location_type": "represented", "info_source": "Represented_eiga_synopsis", "directors": [], "genres": [], "studio": "", "studio_japanese": ""}}, {"type": "Feature", "geometry": {"type": "Point", "coordinates": [135.7555968, 35.0212466]}, "properties": {"film_id": 189847, "film_title": "グラット", "english_title": null, "year": 2021, "location_name": "京都府", "prefecture": "京都府", "location_type": "represented", "info_source": "Represented_eiga_synopsis", "directors": [], "genres": [], "studio": "", "studio_japanese": ""}}, {"type": "Feature", "geometry": {"type": "Point", "coordinates": [132.7324364, 34.3947165]}, "properties": {"film_id": 189847, "film_title": "グラット", "english_title": null, "year": 2021, "location_name": "広島市", "prefecture": "広島県", "location_type": "represented", "info_source": "Represented_eiga_synopsis", "directors": [], "genres": [], "studio": "", "studio_japanese": ""}}, {"type": "Feature", "geometry": {"type": "Point", "coordinates": [135.7555968, 35.0212466]}, "properties": {"film_id": 189848, "film_title": "アイスマイヤー曹長の選択", "english_title": "Eismayer", "year": 2022, "location_name": "京都府", "prefecture": "京都府", "location_type": "represented", "info_source": "Represented_eiga_synopsis", "directors": [], "genres": ["Drama"], "studio": "", "studio_japanese": ""}}, {"type": "Feature", "geometry": {"type": "Point", "coordinates": [132.7324364, 34.3947165]}, "properties": {"film_id": 189848, "film_title": "アイスマイヤー曹長の選択", "english_title": "Eismayer", "year": 2022, "location_name": "広島市", "prefecture": "広島県", "location_type": "represented", "info_source": "Represented_eiga_synopsis", "directors": [], "genres": ["Drama"], "studio": "", "studio_japanese": ""}}, {"type": "Feature", "geometry": {"type": "Point", "coordinates": [135.7555968, 35.0212466]}, "properties": {"film_id": 189849, "film_title": "答えをもつ男", "english_title": null, "year": 2021, "location_name": "京都府", "prefecture": "京都府", "location_type": "represented", "info_source": "Represented_eiga_synopsis", "directors": [], "genres": [], "studio": "", "studio_japanese": ""}}, {"type": "Feature", "geometry": {"type": "Point", "coordinates": [132.7324364, 34.3947165]}, "properties": {"film_id": 189849, "film_title": "答えをもつ男", "english_title": null, "year": 2021, "location_name": "広島市", "prefecture": "広島県", "location_type": "represented", "info_source": "Represented_eiga_synopsis", "directors": [], "genres": [], "studio": "", "studio_japanese": ""}}, {"type": "Feature", "geometry": {"type": "Point", "coordinates": [135.7555968, 35.0212466]}, "properties": {"film_id": 189850, "film_title": "ムーン、66の問い", "english_title": "Moon, 66 Questions", "year": 2021, "location_name": "京都府", "prefecture": "京都府", "location_type": "represented", "info_source": "Represented_eiga_synopsis", "directors": [], "genres": ["Drama"], "studio": "", "studio_japanese": ""}}, {"type": "Feature", "geometry": {"type": "Point", "coordinates": [132.7324364, 34.3947165]}, "properties": {"film_id": 189850, "film_title": "ムーン、66の問い", "english_title": "Moon, 66 Questions", "year": 2021, "location_name": "広島市", "prefecture": "広島県", "location_type": "represented", "info_source": "Represented_eiga_synopsis", "directors": [], "genres": ["Drama"], "studio": "", "studio_japanese": ""}}, {"type": "Feature", "geometry": {"type": "Point", "coordinates": [135.7555968, 35.0212466]}, "properties": {"film_id": 189851, "film_title": "ひとつの青い花", "english_title": null, "year": 2021, "location_name": "京都府", "prefecture": "京都府", "location_type": "represented", "info_source": "Represented_eiga_synopsis", "directors": [], "genres": ["Drama"], "studio": "", "studio_japanese": ""}}, {"type": "Feature", "geometry": {"type": "Point", "coordinates": [132.7324364, 34.3947165]}, "properties": {"film_id": 189851, "film_title": "ひとつの青い花", "english_title": null, "year": 2021, "location_name": "広島市", "prefecture": "広島県", "location_type": "represented", "info_source": "Represented_eiga_synopsis", "directors": [], "genres": ["Drama"], "studio": "", "studio_japanese": ""}}, {"type": "Feature", "geometry": {"type": "Point", "coordinates": [135.3818433, 34.6499245]}, "properties": {"film_id": 189851, "film_title": "ひとつの青い花", "english_title": null, "year": 2021, "location_name": "クロアチア", "prefecture": null, "location_type": "represented", "info_source": "Represented_eiga_synopsis", "directors": [], "genres": ["Drama"], "studio": "", "studio_japanese": ""}}, {"type": "Feature", "geometry": {"type": "Point", "coordinates": [135.7555968, 35.0212466]}, "properties": {"film_id": 189852, "film_title": "模範社員", "english_title": null, "year": 2021, "location_name": "京都府", "prefecture": "京都府", "location_type": "represented", "info_source": "Represented_eiga_synopsis", "directors": [], "genres": ["Comedy", "Crime"], "studio": "", "studio_japanese": ""}}, {"type": "Feature", "geometry": {"type": "Point", "coordinates": [132.7324364, 34.3947165]}, "properties": {"film_id": 189852, "film_title": "模範社員", "english_title": null, "year": 2021, "location_name": "広島市", "prefecture": "広島県", "location_type": "represented", "info_source": "Represented_eiga_synopsis", "directors": [], "genres": ["Comedy", "Crime"], "studio": "", "studio_japanese": ""}}, {"type": "Feature", "geometry": {"type": "Point", "coordinates": [135.7555968, 35.0212466]}, "properties": {"film_id": 189853, "film_title": "ネズミは天国がお似合い", "english_title": null, "year": null, "location_name": "京都府", "prefecture": "京都府", "location_type": "represented", "info_source": "Represented_eiga_synopsis", "directors": [], "genres": [], "studio": "", "studio_japanese": ""}}, {"type": "Feature", "geometry": {"type": "Point", "coordinates": [132.7324364, 34.3947165]}, "properties": {"film_id": 189853, "film_title": "ネズミは天国がお似合い", "english_title": null, "year": null, "location_name": "広島市", "prefecture": "広島県", "location_type": "represented", "info_source": "Represented_eiga_synopsis", "directors": [], "genres": [], "studio": "", "studio_japanese": ""}}, {"type": "Feature", "geometry": {"type": "Point", "coordinates": [139.7086698, 35.6393717]}, "properties": {"film_id": 189853, "film_title": "ネズミは天国がお似合い", "english_title": null, "year": null, "location_name": "ポーランド", "prefecture": null, "location_type": "represented", "info_source": "Represented_eiga_synopsis", "directors": [], "genres": [], "studio": "", "studio_japanese": ""}}, {"type": "Feature", "geometry": {"type": "Point", "coordinates": [135.7555968, 35.0212466]}, "properties": {"film_id": 189854, "film_title": "一人はみんなのために", "english_title": null, "year": 2021, "location_name": "京都府", "prefecture": "京都府", "location_type": "represented", "info_source": "Represented_eiga_synopsis", "directors": [], "genres": ["Documentary"], "studio": "", "studio_japanese": ""}}, {"type": "Feature", "geometry": {"type": "Point", "coordinates": [132.7324364, 34.3947165]}, "properties": {"film_id": 189854, "film_title": "一人はみんなのために", "english_title": null, "year": 2021, "location_name": "広島市", "prefecture": "広島県", "location_type": "represented", "info_source": "Represented_eiga_synopsis", "directors": [], "genres": ["Documentary"], "studio": "", "studio_japanese": ""}}, {"type": "Feature", "geometry": {"type": "Point", "coordinates": [135.7555968, 35.0212466]}, "properties": {"film_id": 189855, "film_title": "オレグ", "english_title": "Oleg", "year": 2019, "location_name": "京都府", "prefecture": "京都府", "location_type": "represented", "info_source": "Represented_eiga_synopsis", "directors": [], "genres": ["Drama"], "studio": "", "studio_japanese": ""}}, {"type": "Feature", "geometry": {"type": "Point", "coordinates": [132.7324364, 34.3947165]}, "properties": {"film_id": 189855, "film_title": "オレグ", "english_title": "Oleg", "year": 2019, "location_name": "広島市", "prefecture": "広島県", "location_type": "represented", "info_source": "Represented_eiga_synopsis", "directors": [], "genres": ["Drama"], "studio": "", "studio_japanese": ""}}, {"type": "Feature", "geometry": {"type": "Point", "coordinates": [135.7555968, 35.0212466]}, "properties": {"film_id": 189856, "film_title": "埋葬", "english_title": "INURN", "year": 2022, "location_name": "京都府", "prefecture": "京都府", "location_type": "represented", "info_source": "Represented_eiga_synopsis", "directors": [], "genres": ["Documentary"], "studio": "", "studio_japanese": ""}}, {"type": "Feature", "geometry": {"type": "Point", "coordinates": [132.7324364, 34.3947165]}, "properties": {"film_id": 189856, "film_title": "埋葬", "english_title": "INURN", "year": 2022, "location_name": "広島市", "prefecture": "広島県", "location_type": "represented", "info_source": "Represented_eiga_synopsis", "directors": [], "genres": ["Documentary"], "studio": "", "studio_japanese": ""}}, {"type": "Feature", "geometry": {"type": "Point", "coordinates": [139.7297454, 35.6563058]}, "properties": {"film_id": 189856, "film_title": "埋葬", "english_title": "INURN", "year": 2022, "location_name": "リトアニア", "prefecture": null, "location_type": "represented", "info_source": "Represented_eiga_synopsis", "directors": [], "genres": ["Documentary"], "studio": "", "studio_japanese": ""}}, {"type": "Feature", "geometry": {"type": "Point", "coordinates": [135.7555968, 35.0212466]}, "properties": {"film_id": 189857, "film_title": "DJスカアラブ", "english_title": null, "year": 2019, "location_name": "京都府", "prefecture": "京都府", "location_type": "represented", "info_source": "Represented_eiga_synopsis", "directors": [], "genres": ["Drama"], "studio": "", "studio_japanese": ""}}, {"type": "Feature", "geometry": {"type": "Point", "coordinates": [132.7324364, 34.3947165]}, "properties": {"film_id": 189857, "film_title": "DJスカアラブ", "english_title": null, "year": 2019, "location_name": "広島市", "prefecture": "広島県", "location_type": "represented", "info_source": "Represented_eiga_synopsis", "directors": [], "genres": ["Drama"], "studio": "", "studio_japanese": ""}}, {"type": "Feature", "geometry": {"type": "Point", "coordinates": [135.7555968, 35.0212466]}, "properties": {"film_id": 189858, "film_title": "カルメン", "english_title": "Carmen", "year": null, "location_name": "京都府", "prefecture": "京都府", "location_type": "represented", "info_source": "Represented_eiga_synopsis", "directors": [], "genres": [], "studio": "", "studio_japanese": ""}}, {"type": "Feature", "geometry": {"type": "Point", "coordinates": [132.7324364, 34.3947165]}, "properties": {"film_id": 189858, "film_title": "カルメン", "english_title": "Carmen", "year": null, "location_name": "広島市", "prefecture": "広島県", "location_type": "represented", "info_source": "Represented_eiga_synopsis", "directors": [], "genres": [], "studio": "", "studio_japanese": ""}}, {"type": "Feature", "geometry": {"type": "Point", "coordinates": [135.7555968, 35.0212466]}, "properties": {"film_id": 189859, "film_title": "マッチ棒くずし", "english_title": null, "year": 2021, "location_name": "京都府", "prefecture": "京都府", "location_type": "represented", "info_source": "Represented_eiga_synopsis", "directors": ["エマニュエル・パーブュ"], "genres": ["Drama"], "studio": "", "studio_japanese": ""}}, {"type": "Feature", "geometry": {"type": "Point", "coordinates": [132.7324364, 34.3947165]}, "properties": {"film_id": 189859, "film_title": "マッチ棒くずし", "english_title": null, "year": 2021, "location_name": "広島市", "prefecture": "広島県", "location_type": "represented", "info_source": "Represented_eiga_synopsis", "directors": ["エマニュエル・パーブュ"], "genres": ["Drama"], "studio": "", "studio_japanese": ""}}, {"type": "Feature", "geometry": {"type": "Point", "coordinates": [135.7555968, 35.0212466]}, "properties": {"film_id": 189860, "film_title": "TERRA", "english_title": "TERRA", "year": 2018, "location_name": "京都府", "prefecture": "京都府", "location_type": "represented", "info_source": "Represented_eiga_synopsis", "directors": [], "genres": ["Documentary"], "studio": "", "studio_japanese": ""}}, {"type": "Feature", "geometry": {"type": "Point", "coordinates": [132.7324364, 34.3947165]}, "properties": {"film_id": 189860, "film_title": "TERRA", "english_title": "TERRA", "year": 2018, "location_name": "広島市", "prefecture": "広島県", "location_type": "represented", "info_source": "Represented_eiga_synopsis", "directors": [], "genres": ["Documentary"], "studio": "", "studio_japanese": ""}}, {"type": "Feature", "geometry": {"type": "Point", "coordinates": [135.7555968, 35.0212466]}, "properties": {"film_id": 189861, "film_title": "Let There be Light 光あれ", "english_title": "Let There be Light 光あれ", "year": null, "location_name": "京都府", "prefecture": "京都府", "location_type": "represented", "info_source": "Represented_eiga_synopsis", "directors": [], "genres": [], "studio": "", "studio_japanese": ""}}, {"type": "Feature", "geometry": {"type": "Point", "coordinates": [132.7324364, 34.3947165]}, "properties": {"film_id": 189861, "film_title": "Let There be Light 光あれ", "english_title": "Let There be Light 光あれ", "year": null, "location_name": "広島市", "prefecture": "広島県", "location_type": "represented", "info_source": "Represented_eiga_synopsis", "directors": [], "genres": [], "studio": "", "studio_japanese": ""}}, {"type": "Feature", "geometry": {"type": "Point", "coordinates": [135.7555968, 35.0212466]}, "properties": {"film_id": 189862, "film_title": "ライダーズ", "english_title": "Riders", "year": 2022, "location_name": "京都府", "prefecture": "京都府", "location_type": "represented", "info_source": "Represented_eiga_synopsis", "directors": [], "genres": ["Drama"], "studio": "", "studio_japanese": ""}}, {"type": "Feature", "geometry": {"type": "Point", "coordinates": [132.7324364, 34.3947165]}, "properties": {"film_id": 189862, "film_title": "ライダーズ", "english_title": "Riders", "year": 2022, "location_name": "広島市", "prefecture": "広島県", "location_type": "represented", "info_source": "Represented_eiga_synopsis", "directors": [], "genres": ["Drama"], "studio": "", "studio_japanese": ""}}, {"type": "Feature", "geometry": {"type": "Point", "coordinates": [135.7555968, 35.0212466]}, "properties": {"film_id": 189863, "film_title": "とにかく見にきてほしい", "english_title": null, "year": 2022, "location_name": "京都府", "prefecture": "京都府", "location_type": "represented", "info_source": "Represented_eiga_synopsis", "directors": [], "genres": ["Drama"], "studio": "", "studio_japanese": ""}}, {"type": "Feature", "geometry": {"type": "Point", "coordinates": [132.7324364, 34.3947165]}, "properties": {"film_id": 189863, "film_title": "とにかく見にきてほしい", "english_title": null, "year": 2022, "location_name": "広島市", "prefecture": "広島県", "location_type": "represented", "info_source": "Represented_eiga_synopsis", "directors": [], "genres": ["Drama"], "studio": "", "studio_japanese": ""}}, {"type": "Feature", "geometry": {"type": "Point", "coordinates": [135.7555968, 35.0212466]}, "properties": {"film_id": 189864, "film_title": "タイガーズ 　サンシーロの陰で", "english_title": null, "year": null, "location_name": "京都府", "prefecture": "京都府", "location_type": "represented", "info_source": "Represented_eiga_synopsis", "directors": [], "genres": [], "studio": "", "studio_japanese": ""}}, {"type": "Feature", "geometry": {"type": "Point", "coordinates": [132.7324364, 34.3947165]}, "properties": {"film_id": 189864, "film_title": "タイガーズ 　サンシーロの陰で", "english_title": null, "year": null, "location_name": "広島市", "prefecture": "広島県", "location_type": "represented", "info_source": "Represented_eiga_synopsis", "directors": [], "genres": [], "studio": "", "studio_japanese": ""}}, {"type": "Feature", "geometry": {"type": "Point", "coordinates": [139.7421835, 35.6505828]}, "properties": {"film_id": 189864, "film_title": "タイガーズ 　サンシーロの陰で", "english_title": null, "year": null, "location_name": "ｲﾀﾘｱ", "prefecture": null, "location_type": "represented", "info_source": "Represented_eiga_synopsis", "directors": [], "genres": [], "studio": "", "studio_japanese": ""}}, {"type": "Feature", "geometry": {"type": "Point", "coordinates": [135.7555968, 35.0212466]}, "properties": {"film_id": 189865, "film_title": "ヴァディムの旅", "english_title": null, "year": 2019, "location_name": "京都府", "prefecture": "京都府", "location_type": "represented", "info_source": "Represented_eiga_synopsis", "directors": [], "genres": ["Drama"], "studio": "", "studio_japanese": ""}}, {"type": "Feature", "geometry": {"type": "Point", "coordinates": [132.7324364, 34.3947165]}, "properties": {"film_id": 189865, "film_title": "ヴァディムの旅", "english_title": null, "year": 2019, "location_name": "広島市", "prefecture": "広島県", "location_type": "represented", "info_source": "Represented_eiga_synopsis", "directors": [], "genres": ["Drama"], "studio": "", "studio_japanese": ""}}, {"type": "Feature", "geometry": {"type": "Point", "coordinates": [135.3818257, 34.6496955]}, "properties": {"film_id": 189865, "film_title": "ヴァディムの旅", "english_title": null, "year": 2019, "location_name": "ウクライナ", "prefecture": null, "location_type": "represented", "info_source": "Represented_eiga_synopsis", "directors": [], "genres": ["Drama"], "studio": "", "studio_japanese": ""}}, {"type": "Feature", "geometry": {"type": "Point", "coordinates": [137.9751115, 35.8733468]}, "properties": {"film_id": 189869, "film_title": "キョンシー　南箕輪村の反魂符", "english_title": "Kyōnshī ~Minamiminowa-mura no Hangonfu~", "year": null, "location_name": "南箕輪村", "prefecture": null, "location_type": "represented", "info_source": "Represented_eiga_title", "directors": ["夏目大一朗"], "genres": [], "studio": "", "studio_japanese": ""}}, {"type": "Feature", "geometry": {"type": "Point", "coordinates": [139.6917724609375, 35.6896286010742]}, "properties": {"film_id": 189875, "film_title": "レタブロ", "english_title": null, "year": null, "location_name": "東京", "prefecture": null, "location_type": "represented", "info_source": "Represented_eiga_synopsis", "directors": [], "genres": [], "studio": "", "studio_japanese": ""}}, {"type": "Feature", "geometry": {"type": "Point", "coordinates": [139.6917724609375, 35.6896286010742]}, "properties": {"film_id": 189876, "film_title": "旅するエリスバン", "english_title": null, "year": 2020, "location_name": "東京", "prefecture": null, "location_type": "represented", "info_source": "Represented_eiga_synopsis", "directors": [], "genres": ["Drama"], "studio": "", "studio_japanese": ""}}, {"type": "Feature", "geometry": {"type": "Point", "coordinates": [139.6917724609375, 35.6896286010742]}, "properties": {"film_id": 189877, "film_title": "La pasion de Javier（原題）", "english_title": "La pasion de Javier", "year": null, "location_name": "東京", "prefecture": null, "location_type": "represented", "info_source": "Represented_eiga_synopsis", "directors": [], "genres": [], "studio": "", "studio_japanese": ""}}, {"type": "Feature", "geometry": {"type": "Point", "coordinates": [139.6917724609375, 35.6896286010742]}, "properties": {"film_id": 189878, "film_title": "ファルファン　路地裏からの栄光", "english_title": null, "year": null, "location_name": "東京", "prefecture": null, "location_type": "represented", "info_source": "Represented_eiga_synopsis", "directors": [], "genres": [], "studio": "", "studio_japanese": ""}}, {"type": "Feature", "geometry": {"type": "Point", "coordinates": [139.6917724609375, 35.6896286010742]}, "properties": {"film_id": 189879, "film_title": "アルパカと生きる喜び", "english_title": null, "year": 2021, "location_name": "東京", "prefecture": null, "location_type": "represented", "info_source": "Represented_eiga_synopsis", "directors": [], "genres": ["Documentary"], "studio": "", "studio_japanese": ""}}, {"type": "Feature", "geometry": {"type": "Point", "coordinates": [139.6917724609375, 35.6896286010742]}, "properties": {"film_id": 189880, "film_title": "クイーンに沸いた夜", "english_title": null, "year": 2020, "location_name": "東京", "prefecture": null, "location_type": "represented", "info_source": "Represented_eiga_synopsis", "directors": [], "genres": ["Documentary"], "studio": "", "studio_japanese": ""}}, {"type": "Feature", "geometry": {"type": "Point", "coordinates": [139.8552578, 35.7453429]}, "properties": {"film_id": 189881, "film_title": "小江戸　祭り星", "english_title": null, "year": null, "location_name": "小江戸", "prefecture": null, "location_type": "represented", "info_source": "Represented_eiga_title", "directors": [], "genres": [], "studio": "", "studio_japanese": ""}}, {"type": "Feature", "geometry": {"type": "Point", "coordinates": [139.7421835, 35.6505828]}, "properties": {"film_id": 189883, "film_title": "ルボ", "english_title": "Lubo", "year": 2023, "location_name": "ｲﾀﾘｱ", "prefecture": null, "location_type": "represented", "info_source": "Represented_eiga_synopsis", "directors": [], "genres": ["Drama"], "studio": "", "studio_japanese": ""}}, {"type": "Feature", "geometry": {"type": "Point", "coordinates": [139.6917724609375, 35.6896286010742]},