{"generated": "2025-12-19T10:08:42.472480", "directors": {"ozu": {"films": 142, "locations": [{"FilmID": 5464, "Japanese_Title": "一人息子", "English_Title": "Hitori musuko (1936)", "Year": 1936.0, "location": "旧西塩田小学校", "Prefecture": "京都府", "lat": 34.940732, "lon": 135.772106, "loc_type": "filming"}, {"FilmID": 3840, "Japanese_Title": "引越し夫婦", "English_Title": "Couple on the Move", "Year": 1928.0, "location": "Filmed at Shochiku-Kamata Studios, Tokyo, Japan (Now the Nissay Aromasquare Buiding in Kamata, Tokyo)", "Prefecture": "東京都", "lat": 35.689488, "lon": 139.691706, "loc_type": "filming"}, {"FilmID": 3866, "Japanese_Title": "突貫小僧", "English_Title": "A Straightforward Boy", "Year": 1929.0, "location": "黒澤工場敷地内", "Prefecture": "東京都", "lat": 35.689488, "lon": 139.691706, "loc_type": "filming"}, {"FilmID": 3883, "Japanese_Title": "東京の英雄", "English_Title": "A Hero of Tokyo", "Year": 1935.0, "location": "Tokyo", "Prefecture": "東京都", "lat": 35.689488, "lon": 139.691706, "loc_type": "filming"}, {"FilmID": 3901, "Japanese_Title": "美人と哀愁", "English_Title": "Beauty's Sorrows (aka The Sorrow of the Beautiful Woman)", "Year": 1931.0, "location": "Filmed at Shochiku-Kamata Studios, Tokyo, Japan (Now the Nissay Aromasquare Buiding in Kamata, Tokyo)", "Prefecture": "東京都", "lat": 35.689488, "lon": 139.691706, "loc_type": "filming"}, {"FilmID": 3915, "Japanese_Title": "肉体美", "English_Title": "Nikutaibi (1928)", "Year": 1928.0, "location": "Filmed at Shochiku-Kamata Studios, Tokyo, Japan (Now the Nissay Aromasquare Buiding in Kamata, Tokyo)", "Prefecture": "東京都", "lat": 35.689488, "lon": 139.691706, "loc_type": "filming"}, {"FilmID": 3920, "Japanese_Title": "戸田家の兄妹", "English_Title": "The Brothers and Sisters of the Toda Family", "Year": 1941.0, "location": "Chiyoda- ward and Shonan area 千代田区を舞台とした映画作品湘南を舞台とした映画作品", "Prefecture": "東京都", "lat": 35.689488, "lon": 139.691706, "loc_type": "filming"}, {"FilmID": 3920, "Japanese_Title": "戸田家の兄妹", "English_Title": "The Brothers and Sisters of the Toda Family", "Year": 1941.0, "location": "Shochiku-Ofuna Studio, Ofuna, Kanagawa, Japan 大船撮影所,", "Prefecture": "神奈川県", "lat": 35.353349214388295, "lon": 139.53818850898153, "loc_type": "filming"}, {"FilmID": 3946, "Japanese_Title": "大学よいとこ", "English_Title": "Daigaku yoitoko (1936)", "Year": 1936.0, "location": "Shochiku-Kamata Studios, Japan", "Prefecture": "東京都", "lat": 35.689488, "lon": 139.691706, "loc_type": "filming"}, {"FilmID": 3975, "Japanese_Title": "非常線の女", "English_Title": "Dragnet Girl", "Year": 1933.0, "location": "Shochiku-Kamata Studios, Tokyo, Japan", "Prefecture": "東京都", "lat": 35.689488, "lon": 139.691706, "loc_type": "filming"}, {"FilmID": 3976, "Japanese_Title": "若人の夢", "English_Title": "Dreams of Youth", "Year": 1928.0, "location": "Filmed at Shochiku-Kamata Studios, Tokyo, Japan (Now the Nissay Aromasquare Buiding in Kamata, Tokyo)", "Prefecture": "東京都", "lat": 35.689488, "lon": 139.691706, "loc_type": "filming"}, {"FilmID": 4068, "Japanese_Title": "落第はしたけれど", "English_Title": "Rakudai wa shitakeredo (1930)", "Year": 1930.0, "location": "Tokyo,Japan", "Prefecture": "東京都", "lat": 35.689488, "lon": 139.691706, "loc_type": "filming"}, {"FilmID": 4071, "Japanese_Title": "大人の見る繪本 生れてはみたけれど", "English_Title": "Otona no miru ehon - Umarete wa mita keredo (1932)", "Year": 1932.0, "location": "JR操車場西の原っぱ Somewhere west to JR switchyard", "Prefecture": "東京都", "lat": 35.689488, "lon": 139.691706, "loc_type": "filming"}, {"FilmID": 4071, "Japanese_Title": "大人の見る繪本 生れてはみたけれど", "English_Title": "Otona no miru ehon - Umarete wa mita keredo (1932)", "Year": 1932.0, "location": "「A道」in the website", "Prefecture": "東京都", "lat": 35.689488, "lon": 139.691706, "loc_type": "filming"}, {"FilmID": 4071, "Japanese_Title": "大人の見る繪本 生れてはみたけれど", "English_Title": "Otona no miru ehon - Umarete wa mita keredo (1932)", "Year": 1932.0, "location": "「線路沿いの道」in the website", "Prefecture": "東京都", "lat": 35.689488, "lon": 139.691706, "loc_type": "filming"}, {"FilmID": 4071, "Japanese_Title": "大人の見る繪本 生れてはみたけれど", "English_Title": "Otona no miru ehon - Umarete wa mita keredo (1932)", "Year": 1932.0, "location": "踏切 a railroad crossing", "Prefecture": "東京都", "lat": 35.689488, "lon": 139.691706, "loc_type": "filming"}, {"FilmID": 4071, "Japanese_Title": "大人の見る繪本 生れてはみたけれど", "English_Title": "Otona no miru ehon - Umarete wa mita keredo (1932)", "Year": 1932.0, "location": "通学路：御薗神社前 in front of Misono shrine", "Prefecture": "東京都", "lat": 35.689488, "lon": 139.691706, "loc_type": "filming"}, {"FilmID": 4071, "Japanese_Title": "大人の見る繪本 生れてはみたけれど", "English_Title": "Otona no miru ehon - Umarete wa mita keredo (1932)", "Year": 1932.0, "location": "矢口尋常小学校", "Prefecture": "東京都", "lat": 35.689488, "lon": 139.691706, "loc_type": "filming"}, {"FilmID": 4071, "Japanese_Title": "大人の見る繪本 生れてはみたけれど", "English_Title": "Otona no miru ehon - Umarete wa mita keredo (1932)", "Year": 1932.0, "location": "踏切", "Prefecture": "東京都", "lat": 37.1258828, "lon": 140.4028449, "loc_type": "filming"}, {"FilmID": 4071, "Japanese_Title": "大人の見る繪本 生れてはみたけれど", "English_Title": "Otona no miru ehon - Umarete wa mita keredo (1932)", "Year": 1932.0, "location": "屋台の菓子屋の場面", "Prefecture": "東京都", "lat": 35.689488, "lon": 139.691706, "loc_type": "filming"}, {"FilmID": 4071, "Japanese_Title": "大人の見る繪本 生れてはみたけれど", "English_Title": "Otona no miru ehon - Umarete wa mita keredo (1932)", "Year": 1932.0, "location": "交番前でのやり取りの空き地", "Prefecture": "東京都", "lat": 35.689488, "lon": 139.691706, "loc_type": "filming"}, {"FilmID": 4071, "Japanese_Title": "大人の見る繪本 生れてはみたけれど", "English_Title": "Otona no miru ehon - Umarete wa mita keredo (1932)", "Year": 1932.0, "location": "駐在所 police box", "Prefecture": "東京都", "lat": 35.689488, "lon": 139.691706, "loc_type": "filming"}, {"FilmID": 4071, "Japanese_Title": "大人の見る繪本 生れてはみたけれど", "English_Title": "Otona no miru ehon - Umarete wa mita keredo (1932)", "Year": 1932.0, "location": "上野西郷隆盛像 Takamori Saigo statue at Ueno", "Prefecture": "東京都", "lat": 35.689488, "lon": 139.691706, "loc_type": "filming"}, {"FilmID": 4071, "Japanese_Title": "大人の見る繪本 生れてはみたけれど", "English_Title": "Otona no miru ehon - Umarete wa mita keredo (1932)", "Year": 1932.0, "location": "上野動物園正門 Ueno Zoo main gate", "Prefecture": "東京都", "lat": 35.689488, "lon": 139.691706, "loc_type": "filming"}, {"FilmID": 4071, "Japanese_Title": "大人の見る繪本 生れてはみたけれど", "English_Title": "Otona no miru ehon - Umarete wa mita keredo (1932)", "Year": 1932.0, "location": "Kamata, Tokyo", "Prefecture": "東京都", "lat": 35.689488, "lon": 139.691706, "loc_type": "filming"}, {"FilmID": 5464, "Japanese_Title": "一人息子", "English_Title": "Hitori musuko (1936)", "Year": 1936.0, "location": "Tokyo City Garbage Incineration Dump 東京市塵芥焼却場", "Prefecture": "東京都", "lat": 34.9856, "lon": 135.7609, "loc_type": "filming"}, {"FilmID": 5464, "Japanese_Title": "一人息子", "English_Title": "Hitori musuko (1936)", "Year": 1936.0, "location": "上野駅Ueno Station", "Prefecture": "東京都", "lat": 34.6626, "lon": 135.5001, "loc_type": "filming"}, {"FilmID": 5464, "Japanese_Title": "一人息子", "English_Title": "Hitori musuko (1936)", "Year": 1936.0, "location": "Eitai Bridge, Tokyo 永代橋", "Prefecture": "東京都", "lat": 34.6873, "lon": 135.5259, "loc_type": "filming"}, {"FilmID": 4231, "Japanese_Title": "出来ごころ", "English_Title": "Dekigokoro (1933)", "Year": 1933.0, "location": "Furuishiba (古石場), Tokyo", "Prefecture": "東京都", "lat": 35.689488, "lon": 139.691706, "loc_type": "filming"}, {"FilmID": 4333, "Japanese_Title": "学生ロマンス 若き日", "English_Title": "Student Romance: Days of Youth", "Year": 1929.0, "location": "Filmed at Shochiku-Kamata Studios, Tokyo, Japan (Now the Nissay Aromasquare Buiding in Kamata, Tokyo)", "Prefecture": "東京都", "lat": 35.689488, "lon": 139.691706, "loc_type": "filming"}, {"FilmID": 4353, "Japanese_Title": "その夜の妻", "English_Title": "Sono yo no tsuma (1930)", "Year": 1930.0, "location": "Probably 三井本館 Mitsuihonkan", "Prefecture": "東京都", "lat": 35.689488, "lon": 139.691706, "loc_type": "filming"}, {"FilmID": 4353, "Japanese_Title": "その夜の妻", "English_Title": "Sono yo no tsuma (1930)", "Year": 1930.0, "location": "丸ノ内二丁目 Marunouchi 2", "Prefecture": "東京都", "lat": 35.689488, "lon": 139.691706, "loc_type": "filming"}, {"FilmID": 4529, "Japanese_Title": "朗かに歩め", "English_Title": "Hogaraka ni ayume (1930)", "Year": 1930.0, "location": "Kamakura Daibutsu (Giant Buddha Statue) 鎌倉の大仏", "Prefecture": "神奈川県", "lat": 35.447507, "lon": 139.642345, "loc_type": "filming"}, {"FilmID": 4529, "Japanese_Title": "朗かに歩め", "English_Title": "Hogaraka ni ayume (1930)", "Year": 1930.0, "location": "Yokohama Red Brick Storehouse 横浜赤レンガ倉庫前", "Prefecture": "神奈川県", "lat": 35.443708, "lon": 139.638026, "loc_type": "filming"}, {"FilmID": 4543, "Japanese_Title": "東京の女", "English_Title": "Woman of Tokyo", "Year": 1933.0, "location": "Sunamachi, Tokyo 砂町", "Prefecture": "東京都", "lat": 35.689488, "lon": 139.691706, "loc_type": "filming"}, {"FilmID": 4831, "Japanese_Title": "ひとごろし", "English_Title": "Murderer!", "Year": 1976.0, "location": "竹林,北嵯峨農地周辺＜嵯峨＜京都府,竹林 北嵯峨農地周辺＜嵯峨＜京都", "Prefecture": "京都府", "lat": 35.0262279, "lon": 135.6811349, "loc_type": "filming"}, {"FilmID": 4831, "Japanese_Title": "ひとごろし", "English_Title": "Murderer!", "Year": 1976.0, "location": "方丈,京都府 東山 建仁寺,方丈 京都 東山 建仁寺", "Prefecture": "京都府", "lat": 35.0007297, "lon": 135.773822, "loc_type": "filming"}, {"FilmID": 4831, "Japanese_Title": "ひとごろし", "English_Title": "Murderer!", "Year": 1976.0, "location": "中門、参道,京都府 北山 仁和寺,中門、参道 京都 北山 仁和寺", "Prefecture": "京都府", "lat": 35.0310937, "lon": 135.7138198, "loc_type": "filming"}, {"FilmID": 4831, "Japanese_Title": "ひとごろし", "English_Title": "Murderer!", "Year": 1976.0, "location": "かざりや,京都府 北山 今宮神社,かざりや 京都 北山 今宮神社", "Prefecture": "京都府", "lat": 35.045185, "lon": 135.742778, "loc_type": "filming"}, {"FilmID": 4831, "Japanese_Title": "ひとごろし", "English_Title": "Murderer!", "Year": 1976.0, "location": "船上、堤,大堰川＜京都郊外＜京都府,船上、堤 大堰川＜京都郊外＜京都", "Prefecture": "京都府", "lat": 34.8936252, "lon": 135.6965777, "loc_type": "filming"}, {"FilmID": 4831, "Japanese_Title": "ひとごろし", "English_Title": "Murderer!", "Year": 1976.0, "location": "辻堂、亀岡道、八木道,京都府 京都郊外 大内辻堂と周辺,辻堂、亀岡道、八木道 京都 京都郊外 大内辻堂と周辺", "Prefecture": "京都府", "lat": 35.0171561, "lon": 135.5992348, "loc_type": "filming"}, {"FilmID": 4831, "Japanese_Title": "ひとごろし", "English_Title": "Murderer!", "Year": 1976.0, "location": "天秤櫓、堀端、佐和口多聞櫓,彦根城 ＜滋賀県,天秤櫓、堀端、佐和口多聞櫓 彦根城 ＜滋賀県", "Prefecture": "滋賀県", "lat": 35.2749932, "lon": 136.2550498, "loc_type": "filming"}, {"FilmID": 4831, "Japanese_Title": "ひとごろし", "English_Title": "Murderer!", "Year": 1976.0, "location": "西岸並木葦原河口州,琵琶湖＜滋賀県,西岸並木葦原河口州 琵琶湖＜滋賀県", "Prefecture": "滋賀県", "lat": 35.3456394, "lon": 136.1709012, "loc_type": "filming"}, {"FilmID": 5902, "Japanese_Title": "東京物語 ニューデジタルリマスター", "English_Title": "Tokyo Story", "Year": 1953.0, "location": "Japan", "Prefecture": "群馬県", "lat": 36.6552269979992, "lon": 139.271494999839, "loc_type": "filming"}, {"FilmID": 5883, "Japanese_Title": "晩春", "English_Title": "Banshun (1949)", "Year": 1949.0, "location": "Tsurugaoka Hachimangū - Kamakura, Kanagawa Prefecture", "Prefecture": "神奈川県", "lat": 35.326146107290434, "lon": 139.55636704135563, "loc_type": "filming"}, {"FilmID": 5902, "Japanese_Title": "東京物語 ニューデジタルリマスター", "English_Title": "Tokyo Story", "Year": 1953.0, "location": "Atami, Shizuoka, Japan", "Prefecture": "静岡県", "lat": 35.096358492096, "lon": 139.071729365433, "loc_type": "filming"}, {"FilmID": 5461, "Japanese_Title": "小早川家の秋", "English_Title": "The End of Summer", "Year": 1961.0, "location": "Osaka, Japan", "Prefecture": "大阪府", "lat": 34.6937259098287, "lon": 135.502161952141, "loc_type": "filming"}, {"FilmID": 5463, "Japanese_Title": "一人息子", "English_Title": "The Only Son", "Year": 1987.0, "location": "Tokyo", "Prefecture": "東京都", "lat": 35.689488, "lon": 139.691706, "loc_type": "filming"}, {"FilmID": 5464, "Japanese_Title": "一人息子", "English_Title": "Hitori musuko (1936)", "Year": 1936.0, "location": "Shinano", "Prefecture": "長野県", "lat": 36.8063055555556, "lon": 138.207027777778, "loc_type": "filming"}, {"FilmID": 5902, "Japanese_Title": "東京物語 ニューデジタルリマスター", "English_Title": "Tokyo Story", "Year": 1953.0, "location": "Tokyo Bay, Japan", "Prefecture": "東京都", "lat": 30.4851091203536, "lon": 140.31389945905, "loc_type": "filming"}, {"FilmID": 5902, "Japanese_Title": "東京物語 ニューデジタルリマスター", "English_Title": "Tokyo Story", "Year": 1953.0, "location": "Shizuoka Prefecture", "Prefecture": "静岡県", "lat": 35.3605555555556, "lon": 138.727777777778, "loc_type": "filming"}, {"FilmID": 4071, "Japanese_Title": "大人の見る繪本 生れてはみたけれど", "English_Title": "Otona no miru ehon - Umarete wa mita keredo (1932)", "Year": 1932.0, "location": "Japan", "Prefecture": "群馬県", "lat": 36.6552269979992, "lon": 139.271494999839, "loc_type": "filming"}, {"FilmID": 5671, "Japanese_Title": "秋刀魚の味", "English_Title": "An Autumn Afternoon", "Year": 1962.0, "location": "Japan", "Prefecture": "群馬県", "lat": 36.6552269979992, "lon": 139.271494999839, "loc_type": "filming"}, {"FilmID": 5591, "Japanese_Title": "お早よう デジタルリマスター", "English_Title": "Good Morning", "Year": 1959.0, "location": "Tokyo", "Prefecture": "東京都", "lat": 35.689488, "lon": 139.691706, "loc_type": "filming"}, {"FilmID": 4071, "Japanese_Title": "大人の見る繪本 生れてはみたけれど", "English_Title": "Otona no miru ehon - Umarete wa mita keredo (1932)", "Year": 1932.0, "location": "Tokyo", "Prefecture": "東京都", "lat": 35.689488, "lon": 139.691706, "loc_type": "filming"}, {"FilmID": 5902, "Japanese_Title": "東京物語 ニューデジタルリマスター", "English_Title": "Tokyo Story", "Year": 1953.0, "location": "Ginza, Chuo, Tokyo, Japan", "Prefecture": "東京都", "lat": 35.672588, "lon": 139.764171, "loc_type": "filming"}, {"FilmID": 5902, "Japanese_Title": "東京物語 ニューデジタルリマスター", "English_Title": "Tokyo Story", "Year": 1953.0, "location": "Ginza Shopping District", "Prefecture": "東京都", "lat": 35.6668194444444, "lon": 139.767169444444, "loc_type": "filming"}, {"FilmID": 5902, "Japanese_Title": "東京物語 ニューデジタルリマスター", "English_Title": "Tokyo Story", "Year": 1953.0, "location": "Osaka, Japan", "Prefecture": "大阪府", "lat": 34.6937259098287, "lon": 135.502161952141, "loc_type": "filming"}, {"FilmID": 5464, "Japanese_Title": "一人息子", "English_Title": "Hitori musuko (1936)", "Year": 1936.0, "location": "Tokyo", "Prefecture": "東京都", "lat": 35.689488, "lon": 139.691706, "loc_type": "filming"}, {"FilmID": 5669, "Japanese_Title": "東京暮色", "English_Title": "Tokyo Twilight", "Year": 1957.0, "location": "Japan", "Prefecture": "群馬県", "lat": 36.6552269979992, "lon": 139.271494999839, "loc_type": "filming"}, {"FilmID": 5885, "Japanese_Title": "麦秋", "English_Title": "Early Summer", "Year": 1951.0, "location": "Japan", "Prefecture": "群馬県", "lat": 36.6552269979992, "lon": 139.271494999839, "loc_type": "filming"}, {"FilmID": 4486, "Japanese_Title": "父ありき", "English_Title": "There Was a Father", "Year": 1942.0, "location": "Japan", "Prefecture": "群馬県", "lat": 36.6552269979992, "lon": 139.271494999839, "loc_type": "filming"}, {"FilmID": 5730, "Japanese_Title": "風の中の牝鶏", "English_Title": "Kaze no naka no mendori (1948)", "Year": 1948.0, "location": "Japan", "Prefecture": "群馬県", "lat": 36.6552269979992, "lon": 139.271494999839, "loc_type": "filming"}, {"FilmID": 5734, "Japanese_Title": "長屋紳士録", "English_Title": "Nagaya shinshiroku (1947)", "Year": 1947.0, "location": "Japan", "Prefecture": "群馬県", "lat": 36.6552269979992, "lon": 139.271494999839, "loc_type": "filming"}, {"FilmID": 5753, "Japanese_Title": "浮草", "English_Title": "Ukikusa (1959)", "Year": 1959.0, "location": "Japan", "Prefecture": "群馬県", "lat": 36.6552269979992, "lon": 139.271494999839, "loc_type": "filming"}, {"FilmID": 5464, "Japanese_Title": "一人息子", "English_Title": "Hitori musuko (1936)", "Year": 1936.0, "location": "Shinano Province", "Prefecture": "岐阜県", "lat": 36.1091983, "lon": 136.9109166, "loc_type": "filming"}, {"FilmID": 5902, "Japanese_Title": "東京物語 ニューデジタルリマスター", "English_Title": "Tokyo Story", "Year": 1953.0, "location": "Hiroshima-ken", "Prefecture": "広島県", "lat": 34.24821, "lon": 132.55107, "loc_type": "filming"}, {"FilmID": 5902, "Japanese_Title": "東京物語 ニューデジタルリマスター", "English_Title": "Tokyo Story", "Year": 1953.0, "location": "Miyoshi, Hiroshima Prefecture", "Prefecture": "広島県", "lat": 34.810581, "lon": 132.853553, "loc_type": "filming"}, {"FilmID": 5902, "Japanese_Title": "東京物語 ニューデジタルリマスター", "English_Title": "Tokyo Story", "Year": 1953.0, "location": "Onomichi, Hiroshima Prefecture", "Prefecture": "広島県", "lat": 34.409903, "lon": 133.200643, "loc_type": "filming"}, {"FilmID": 5902, "Japanese_Title": "東京物語 ニューデジタルリマスター", "English_Title": "Tokyo Story", "Year": 1953.0, "location": "Onomichi-shi, Hiroshima-ken", "Prefecture": "広島県", "lat": 34.413146, "lon": 133.209845, "loc_type": "filming"}, {"FilmID": 5883, "Japanese_Title": "晩春", "English_Title": "Banshun (1949)", "Year": 1949.0, "location": "Tokyo", "Prefecture": "東京都", "lat": 35.689488, "lon": 139.691706, "loc_type": "filming"}, {"FilmID": 4486, "Japanese_Title": "父ありき", "English_Title": "There Was a Father", "Year": 1942.0, "location": "鎌倉大仏 鎌倉市長谷4-2-28 高徳院内 神奈川県鎌倉市", "Prefecture": "神奈川県", "lat": 35.3166995, "lon": 139.5361536, "loc_type": "filming"}, {"FilmID": 4486, "Japanese_Title": "父ありき", "English_Title": "There Was a Father", "Year": 1942.0, "location": "曾我兄弟の墓 神奈川県足柄下郡箱根町 神奈川県足柄下郡箱根町", "Prefecture": "神奈川県", "lat": 35.2167901, "lon": 139.0385029, "loc_type": "filming"}, {"FilmID": 4486, "Japanese_Title": "父ありき", "English_Title": "There Was a Father", "Year": 1942.0, "location": "宮ノ下と元箱根の間の国道1号。", "Prefecture": "神奈川県", "lat": 35.2034017, "lon": 139.0302417, "loc_type": "filming"}, {"FilmID": 4486, "Japanese_Title": "父ありき", "English_Title": "There Was a Father", "Year": 1942.0, "location": "芦ノ湖と富士山 神奈川県足柄下郡箱根町 神奈川県足柄下郡箱根町", "Prefecture": "神奈川県", "lat": 35.20006, "lon": 139.031121, "loc_type": "filming"}, {"FilmID": 4486, "Japanese_Title": "父ありき", "English_Title": "There Was a Father", "Year": 1942.0, "location": "六番桟橋 神奈川県足柄下郡箱根町", "Prefecture": "神奈川県", "lat": 35.2323553, "lon": 139.1069375, "loc_type": "filming"}, {"FilmID": 4486, "Japanese_Title": "父ありき", "English_Title": "There Was a Father", "Year": 1942.0, "location": "芦ノ湖　 神奈川県足柄下郡箱根町", "Prefecture": "神奈川県", "lat": 35.2323553, "lon": 139.1069375, "loc_type": "filming"}, {"FilmID": 4486, "Japanese_Title": "父ありき", "English_Title": "There Was a Father", "Year": 1942.0, "location": "賽ノ河原 箱根町元箱根 神奈川県足柄下郡箱根", "Prefecture": "神奈川県", "lat": 35.201457, "lon": 139.030808, "loc_type": "filming"}, {"FilmID": 5883, "Japanese_Title": "晩春", "English_Title": "Banshun (1949)", "Year": 1949.0, "location": "JR北鎌倉駅 神奈川県鎌倉市山ノ内 神奈川県鎌倉市", "Prefecture": "神奈川県", "lat": 35.3372461, "lon": 139.5452556, "loc_type": "filming"}, {"FilmID": 5883, "Japanese_Title": "晩春", "English_Title": "Banshun (1949)", "Year": 1949.0, "location": "北鎌倉駅プラットホーム 北鎌倉駅プラットフォーム (1) 神奈川県鎌倉市", "Prefecture": "神奈川県", "lat": 35.3372461, "lon": 139.5452556, "loc_type": "filming"}, {"FilmID": 5883, "Japanese_Title": "晩春", "English_Title": "Banshun (1949)", "Year": 1949.0, "location": "壽福寺 鎌倉市扇ガ谷1-17-7 神奈川県鎌倉市", "Prefecture": "神奈川県", "lat": 35.324258, "lon": 139.549009, "loc_type": "filming"}, {"FilmID": 5883, "Japanese_Title": "晩春", "English_Title": "Banshun (1949)", "Year": 1949.0, "location": "好々亭 鎌倉市山ノ内605 神奈川県鎌倉市", "Prefecture": "神奈川県", "lat": 35.3372461, "lon": 139.5452556, "loc_type": "filming"}, {"FilmID": 5883, "Japanese_Title": "晩春", "English_Title": "Banshun (1949)", "Year": 1949.0, "location": "鎌倉駅プラットホーム (1) 鎌倉市小町 神奈川県鎌倉市", "Prefecture": "神奈川県", "lat": 35.3190012, "lon": 139.5507329, "loc_type": "filming"}, {"FilmID": 5883, "Japanese_Title": "晩春", "English_Title": "Banshun (1949)", "Year": 1949.0, "location": "鎌倉駅プラットホーム (2)  神奈川県鎌倉市", "Prefecture": "神奈川県", "lat": 35.3112801, "lon": 139.5358722, "loc_type": "filming"}, {"FilmID": 5883, "Japanese_Title": "晩春", "English_Title": "Banshun (1949)", "Year": 1949.0, "location": "扇ヶ谷トンネル 鎌倉市扇ガ谷 神奈川県鎌倉市", "Prefecture": "神奈川県", "lat": 35.3235387, "lon": 139.5489777, "loc_type": "filming"}, {"FilmID": 5883, "Japanese_Title": "晩春", "English_Title": "Banshun (1949)", "Year": 1949.0, "location": "鵠沼海岸 神奈川県藤沢市鵠沼海岸一丁目 湘南海岸公園 神奈川県藤沢市", "Prefecture": "神奈川県", "lat": 35.3137415, "lon": 139.4752678, "loc_type": "filming"}, {"FilmID": 5883, "Japanese_Title": "晩春", "English_Title": "Banshun (1949)", "Year": 1949.0, "location": "和光 東京都中央区銀座4-5-11 東京都中央区", "Prefecture": "東京都", "lat": 35.6716602, "lon": 139.7650267, "loc_type": "filming"}, {"FilmID": 5883, "Japanese_Title": "晩春", "English_Title": "Banshun (1949)", "Year": 1949.0, "location": "鶴岡八幡宮 (1) 鎌倉市雪ノ下2-1-31 神奈川県鎌倉市", "Prefecture": "神奈川県", "lat": 35.3260978, "lon": 139.5564131, "loc_type": "filming"}, {"FilmID": 5883, "Japanese_Title": "晩春", "English_Title": "Banshun (1949)", "Year": 1949.0, "location": "鶴岡八幡宮 (2)  神奈川県鎌倉市", "Prefecture": "神奈川県", "lat": 35.3260978, "lon": 139.5564131, "loc_type": "filming"}, {"FilmID": 5883, "Japanese_Title": "晩春", "English_Title": "Banshun (1949)", "Year": 1949.0, "location": "八坂の塔 (1) 京都府京都市東山区清水八坂上町388 京都府京都市", "Prefecture": "京都府", "lat": 34.9985592, "lon": 135.7792354, "loc_type": "filming"}, {"FilmID": 5883, "Japanese_Title": "晩春", "English_Title": "Banshun (1949)", "Year": 1949.0, "location": "八坂の塔 (2)  京都府京都市", "Prefecture": "京都府", "lat": 34.9985592, "lon": 135.7792354, "loc_type": "filming"}, {"FilmID": 5883, "Japanese_Title": "晩春", "English_Title": "Banshun (1949)", "Year": 1949.0, "location": "清水寺附近の山  京都府京都市", "Prefecture": "京都府", "lat": 34.9948561, "lon": 135.7850463, "loc_type": "filming"}, {"FilmID": 5883, "Japanese_Title": "晩春", "English_Title": "Banshun (1949)", "Year": 1949.0, "location": "清水寺 京都市東山区清水一丁目 京都府京都市", "Prefecture": "京都府", "lat": 34.9948561, "lon": 135.7850463, "loc_type": "filming"}, {"FilmID": 5883, "Japanese_Title": "晩春", "English_Title": "Banshun (1949)", "Year": 1949.0, "location": "清水寺・奥の院  京都府京都市", "Prefecture": "京都府", "lat": 34.9947475, "lon": 135.7856052, "loc_type": "filming"}, {"FilmID": 5883, "Japanese_Title": "晩春", "English_Title": "Banshun (1949)", "Year": 1949.0, "location": "竜安寺方丈庭園 (1) 竜安寺：京都市右京区竜安寺御陵下町13 京都府京都市", "Prefecture": "京都府", "lat": 35.0344943, "lon": 135.7182634, "loc_type": "filming"}, {"FilmID": 5883, "Japanese_Title": "晩春", "English_Title": "Banshun (1949)", "Year": 1949.0, "location": "竜安寺方丈 (1)  京都府京都市", "Prefecture": "京都府", "lat": 35.0338901, "lon": 135.7182097, "loc_type": "filming"}, {"FilmID": 5883, "Japanese_Title": "晩春", "English_Title": "Banshun (1949)", "Year": 1949.0, "location": "竜安寺方丈庭園 (2)  京都府京都市", "Prefecture": "京都府", "lat": 35.0344943, "lon": 135.7182634, "loc_type": "filming"}, {"FilmID": 5884, "Japanese_Title": "宗方姉妹", "English_Title": "The Munekata Sisters", "Year": 1950.0, "location": "京都大学百周年時計台記念館 京都府京都市左京区吉田本町 京都府京都市左京区", "Prefecture": "京都府", "lat": 35.0259937, "lon": 135.7808373, "loc_type": "filming"}, {"FilmID": 5884, "Japanese_Title": "宗方姉妹", "English_Title": "The Munekata Sisters", "Year": 1950.0, "location": "京都御苑 (1) 京都市上京区京都御苑 京都府京都市上京区", "Prefecture": "京都府", "lat": 35.0254135, "lon": 135.7621246, "loc_type": "filming"}, {"FilmID": 5884, "Japanese_Title": "宗方姉妹", "English_Title": "The Munekata Sisters", "Year": 1950.0, "location": "京都御所", "Prefecture": "京都府", "lat": 35.0254135, "lon": 135.7621246, "loc_type": "filming"}, {"FilmID": 5884, "Japanese_Title": "宗方姉妹", "English_Title": "The Munekata Sisters", "Year": 1950.0, "location": "京都府京都市上京区", "Prefecture": "京都府", "lat": 35.0296181, "lon": 135.756627, "loc_type": "filming"}, {"FilmID": 5884, "Japanese_Title": "宗方姉妹", "English_Title": "The Munekata Sisters", "Year": 1950.0, "location": "京都府京都市上京", "Prefecture": "京都府", "lat": 35.0254135, "lon": 135.7621246, "loc_type": "filming"}, {"FilmID": 5885, "Japanese_Title": "麦秋", "English_Title": "Early Summer", "Year": 1951.0, "location": "由比ヶ浜 神奈川県鎌倉市由比ガ浜 神奈川県鎌倉市", "Prefecture": "神奈川県", "lat": 35.3092903, "lon": 139.542248, "loc_type": "filming"}, {"FilmID": 5885, "Japanese_Title": "麦秋", "English_Title": "Early Summer", "Year": 1951.0, "location": "北鎌倉駅 鎌倉市山ノ内 神奈川県鎌倉市", "Prefecture": "神奈川県", "lat": 35.3372461, "lon": 139.5452556, "loc_type": "filming"}, {"FilmID": 5885, "Japanese_Title": "麦秋", "English_Title": "Early Summer", "Year": 1951.0, "location": "北鎌倉駅プラットホーム (1)  神奈川県鎌倉市", "Prefecture": "神奈川県", "lat": 35.3372461, "lon": 139.5452556, "loc_type": "filming"}, {"FilmID": 5885, "Japanese_Title": "麦秋", "English_Title": "Early Summer", "Year": 1951.0, "location": "北鎌倉駅プラットホーム (2)  神奈川県鎌倉市", "Prefecture": "神奈川県", "lat": 35.3372461, "lon": 139.5452556, "loc_type": "filming"}, {"FilmID": 5885, "Japanese_Title": "麦秋", "English_Title": "Early Summer", "Year": 1951.0, "location": "北鎌倉附近の線路 鎌倉市山ノ内 神奈川県鎌倉市", "Prefecture": "神奈川県", "lat": 35.3372461, "lon": 139.5452556, "loc_type": "filming"}, {"FilmID": 5885, "Japanese_Title": "麦秋", "English_Title": "Early Summer", "Year": 1951.0, "location": "三菱ビルと三菱重工ビル 三菱ビル：東京都千代田区丸の内2-5-2 東京都千代田区", "Prefecture": "東京都", "lat": 35.6799425, "lon": 139.763604, "loc_type": "filming"}, {"FilmID": 5885, "Japanese_Title": "麦秋", "English_Title": "Early Summer", "Year": 1951.0, "location": "鎌倉大仏 鎌倉市長谷4-2-28 高徳院内 神奈川県鎌倉市", "Prefecture": "神奈川県", "lat": 35.3166995, "lon": 139.5361536, "loc_type": "filming"}, {"FilmID": 5885, "Japanese_Title": "麦秋", "English_Title": "Early Summer", "Year": 1951.0, "location": "大仏前 (2)  神奈川県鎌倉市", "Prefecture": "神奈川県", "lat": 35.3166995, "lon": 139.5361536, "loc_type": "filming"}, {"FilmID": 5885, "Japanese_Title": "麦秋", "English_Title": "Early Summer", "Year": 1951.0, "location": "歌舞伎座 東京都中央区銀座4-12-15 東京都中央区", "Prefecture": "東京都", "lat": 35.6694184, "lon": 139.7677369, "loc_type": "filming"}, {"FilmID": 5885, "Japanese_Title": "麦秋", "English_Title": "Early Summer", "Year": 1951.0, "location": "東京国立博物館本館 東京都台東区上野公園13-9 東京都台東区", "Prefecture": "東京都", "lat": 35.7188351, "lon": 139.7765215, "loc_type": "filming"}, {"FilmID": 5885, "Japanese_Title": "麦秋", "English_Title": "Early Summer", "Year": 1951.0, "location": "東京国立博物館の庭  東京都台東区", "Prefecture": "東京都", "lat": 35.7188351, "lon": 139.7765215, "loc_type": "filming"}, {"FilmID": 5885, "Japanese_Title": "麦秋", "English_Title": "Early Summer", "Year": 1951.0, "location": "稲村ヶ崎・国道134号 鎌倉市稲村ガ崎 神奈川県鎌倉市", "Prefecture": "神奈川県", "lat": 35.304303, "lon": 139.522274, "loc_type": "filming"}, {"FilmID": 5885, "Japanese_Title": "麦秋", "English_Title": "Early Summer", "Year": 1951.0, "location": "昭和第一高等学校 東京都文京区本郷1-2-15 東京都千代田区", "Prefecture": "東京都", "lat": 35.70261, "lon": 139.757264, "loc_type": "filming"}, {"FilmID": 5885, "Japanese_Title": "麦秋", "English_Title": "Early Summer", "Year": 1951.0, "location": "ニコライ堂 千代田区神田駿河台4-1-3 東京都千代田区", "Prefecture": "東京都", "lat": 35.6980554, "lon": 139.7655203, "loc_type": "filming"}, {"FilmID": 5885, "Japanese_Title": "麦秋", "English_Title": "Early Summer", "Year": 1951.0, "location": "雪ノ下一丁目の路地 鎌倉市雪ノ下一丁目 神奈川県鎌倉市", "Prefecture": "神奈川県", "lat": 35.322278, "lon": 139.554306, "loc_type": "filming"}, {"FilmID": 5885, "Japanese_Title": "麦秋", "English_Title": "Early Summer", "Year": 1951.0, "location": "庚申塔 鎌倉市扇ガ谷一丁目 壽福寺前 神奈川県鎌倉市", "Prefecture": "神奈川県", "lat": 35.324258, "lon": 139.549009, "loc_type": "filming"}, {"FilmID": 5885, "Japanese_Title": "麦秋", "English_Title": "Early Summer", "Year": 1951.0, "location": "扇ヶ谷踏切 (1) 鎌倉市扇ガ谷一丁目 壽福寺前 神奈川県鎌倉市", "Prefecture": "神奈川県", "lat": 35.324258, "lon": 139.549009, "loc_type": "filming"}, {"FilmID": 5885, "Japanese_Title": "麦秋", "English_Title": "Early Summer", "Year": 1951.0, "location": "丸の内八重洲ビル　千代田区丸の内2-6-2 神奈川県鎌倉市", "Prefecture": "神奈川県", "lat": 35.68003708678537, "lon": 139.76318236202718, "loc_type": "filming"}, {"FilmID": 5885, "Japanese_Title": "麦秋", "English_Title": "Early Summer", "Year": 1951.0, "location": "古河総合ビル　千代田区丸の内2-6-1 東京都千代田", "Prefecture": "東京都", "lat": 35.6791131, "lon": 139.7631367, "loc_type": "filming"}, {"FilmID": 54362, "Japanese_Title": "お茶漬の味", "English_Title": "Ochazuke no aji (1952)", "Year": 1952.0, "location": "修善寺・嵐山 静岡県伊豆市 静岡県伊豆市", "Prefecture": "静岡県", "lat": 34.9696549, "lon": 138.935801, "loc_type": "filming"}, {"FilmID": 54362, "Japanese_Title": "お茶漬の味", "English_Title": "Ochazuke no aji (1952)", "Year": 1952.0, "location": "新井旅館・花の棟 新井旅館：静岡県伊豆市修善寺970 静岡県伊豆市", "Prefecture": "静岡県", "lat": 34.970497, "lon": 138.926686, "loc_type": "filming"}, {"FilmID": 54362, "Japanese_Title": "お茶漬の味", "English_Title": "Ochazuke no aji (1952)", "Year": 1952.0, "location": "新井旅館・桐の棟  静岡県伊豆市", "Prefecture": "静岡県", "lat": 34.970497, "lon": 138.926686, "loc_type": "filming"}, {"FilmID": 54362, "Japanese_Title": "お茶漬の味", "English_Title": "Ochazuke no aji (1952)", "Year": 1952.0, "location": "新井旅館・青州楼  静岡県伊豆市", "Prefecture": "静岡県", "lat": 34.970497, "lon": 138.926686, "loc_type": "filming"}, {"FilmID": 54362, "Japanese_Title": "お茶漬の味", "English_Title": "Ochazuke no aji (1952)", "Year": 1952.0, "location": "新井旅館・華の池  静岡県伊豆市", "Prefecture": "静岡県", "lat": 34.970497, "lon": 138.926686, "loc_type": "filming"}, {"FilmID": 5902, "Japanese_Title": "東京物語 ニューデジタルリマスター", "English_Title": "Tokyo Story", "Year": 1953.0, "location": "住吉神社の大灯籠 広島県尾道市土堂2丁目10-12 広島県尾道市", "Prefecture": "広島県", "lat": 34.4081746, "lon": 133.2028511, "loc_type": "filming"}, {"FilmID": 5902, "Japanese_Title": "東京物語 ニューデジタルリマスター", "English_Title": "Tokyo Story", "Year": 1953.0, "location": "山陽本線の線路 (1) 広島県尾道市 広島県尾道市", "Prefecture": "広島県", "lat": 34.4048389, "lon": 133.1936527, "loc_type": "filming"}, {"FilmID": 5902, "Japanese_Title": "東京物語 ニューデジタルリマスター", "English_Title": "Tokyo Story", "Year": 1953.0, "location": "浄土寺の崖  広島県尾道市", "Prefecture": "広島県", "lat": 34.4118664, "lon": 133.2102069, "loc_type": "filming"}, {"FilmID": 5902, "Japanese_Title": "東京物語 ニューデジタルリマスター", "English_Title": "Tokyo Story", "Year": 1953.0, "location": "東武伊勢崎線・堀切駅 (1) 東京都足立区千住曙町 東京都足立区", "Prefecture": "東京都", "lat": 35.7433151, "lon": 139.817653, "loc_type": "filming"}, {"FilmID": 5902, "Japanese_Title": "東京物語 ニューデジタルリマスター", "English_Title": "Tokyo Story", "Year": 1953.0, "location": "東武伊勢崎線・堀切駅 (2)  東京都足立区", "Prefecture": "東京都", "lat": 35.7433151, "lon": 139.817653, "loc_type": "filming"}, {"FilmID": 5902, "Japanese_Title": "東京物語 ニューデジタルリマスター", "English_Title": "Tokyo Story", "Year": 1953.0, "location": "東武伊勢崎線・堀切駅 (3)  東京都足立区", "Prefecture": "東京都", "lat": 35.7433151, "lon": 139.817653, "loc_type": "filming"}, {"FilmID": 5893, "Japanese_Title": "彼岸花", "English_Title": "Higanbana (1958)", "Year": 1958.0, "location": "JR東京駅 東京都千代田区丸の内1-9-1 東京都千代田区", "Prefecture": "東京都", "lat": 35.6831579, "lon": 139.7691071, "loc_type": "filming"}, {"FilmID": 5893, "Japanese_Title": "彼岸花", "English_Title": "Higanbana (1958)", "Year": 1958.0, "location": "聖路加国際病院旧棟・表側 東京都中央区明石町9-1 東京都中央区", "Prefecture": "東京都", "lat": 35.667344, "lon": 139.777139, "loc_type": "filming"}, {"FilmID": 5893, "Japanese_Title": "彼岸花", "English_Title": "Higanbana (1958)", "Year": 1958.0, "location": "築地本願寺 中央区築地3-15-1 東京都中央区", "Prefecture": "東京都", "lat": 35.6664505, "lon": 139.7722847, "loc_type": "filming"}, {"FilmID": 5893, "Japanese_Title": "彼岸花", "English_Title": "Higanbana (1958)", "Year": 1958.0, "location": "聖路加国際病院旧棟・裏側 東京都中央区明石町9-1 東京都中央区", "Prefecture": "東京都", "lat": 35.667344, "lon": 139.777139, "loc_type": "filming"}, {"FilmID": 5893, "Japanese_Title": "彼岸花", "English_Title": "Higanbana (1958)", "Year": 1958.0, "location": "箱根町役場箱根出張所の屋上 (1) 箱根町役場箱根出張所：神奈川県足柄下郡箱根町箱根1 神奈川県足柄下郡箱根町", "Prefecture": "神奈川県", "lat": 35.197955, "lon": 139.029102, "loc_type": "filming"}, {"FilmID": 5893, "Japanese_Title": "彼岸花", "English_Title": "Higanbana (1958)", "Year": 1958.0, "location": "箱根町役場箱根出張所の屋上 (2)  神奈川県足柄下郡箱根町", "Prefecture": "神奈川県", "lat": 35.197955, "lon": 139.029102, "loc_type": "filming"}, {"FilmID": 5893, "Japanese_Title": "彼岸花", "English_Title": "Higanbana (1958)", "Year": 1958.0, "location": "芦ノ湖　 神奈川県足柄下郡箱根町", "Prefecture": "神奈川県", "lat": 35.2323553, "lon": 139.1069375, "loc_type": "filming"}, {"FilmID": 5893, "Japanese_Title": "彼岸花", "English_Title": "Higanbana (1958)", "Year": 1958.0, "location": "竹島と灯籠 愛知県蒲郡市竹島町 愛知県蒲郡市", "Prefecture": "愛知県", "lat": 34.8109719, "lon": 137.2316465, "loc_type": "filming"}, {"FilmID": 5893, "Japanese_Title": "彼岸花", "English_Title": "Higanbana (1958)", "Year": 1958.0, "location": "竹島橋 蒲郡市竹島町\n 愛知県蒲郡市", "Prefecture": "愛知県", "lat": 34.8109719, "lon": 137.2316465, "loc_type": "filming"}, {"FilmID": 5893, "Japanese_Title": "彼岸花", "English_Title": "Higanbana (1958)", "Year": 1958.0, "location": "三河大島と小島 蒲郡市 愛知県蒲郡市", "Prefecture": "愛知県", "lat": 34.7889563, "lon": 137.2326899, "loc_type": "filming"}, {"FilmID": 5893, "Japanese_Title": "彼岸花", "English_Title": "Higanbana (1958)", "Year": 1958.0, "location": "蒲郡プリンスホテル 蒲郡市竹島町15-1 愛知県蒲郡市", "Prefecture": "愛知県", "lat": 34.8158288, "lon": 137.2359435, "loc_type": "filming"}, {"FilmID": 5893, "Japanese_Title": "彼岸花", "English_Title": "Higanbana (1958)", "Year": 1958.0, "location": "東寺の五重塔 京都府京都市南区九条町1番地 京都府京都市", "Prefecture": "京都府", "lat": 34.9798918, "lon": 135.7487063, "loc_type": "filming"}, {"FilmID": 5902, "Japanese_Title": "東京物語 ニューデジタルリマスター", "English_Title": "Tokyo Story", "Year": 1953.0, "location": "荒川土手と物干し  東京都足立区", "Prefecture": "東京都", "lat": 35.7581841, "lon": 139.8013487, "loc_type": "filming"}, {"FilmID": 5902, "Japanese_Title": "東京物語 ニューデジタルリマスター", "English_Title": "Tokyo Story", "Year": 1953.0, "location": "東京都足立区柳原一丁目 東京都足立区", "Prefecture": "東京都", "lat": 35.7457435, "lon": 139.8126302, "loc_type": "filming"}, {"FilmID": 5896, "Japanese_Title": "秋日和 デジタルリマスター", "English_Title": "Akibiyori (1960)", "Year": 1960.0, "location": "東禅寺 東京都港区高輪3-16-16 東京都港区", "Prefecture": "東京都", "lat": 35.634051, "lon": 139.735551, "loc_type": "filming"}, {"FilmID": 5896, "Japanese_Title": "秋日和 デジタルリマスター", "English_Title": "Akibiyori (1960)", "Year": 1960.0, "location": "清洲橋 東京都中央区日本橋中洲-江東区清澄二丁目 東京都中央区・江東区", "Prefecture": "東京都", "lat": 35.6824438, "lon": 139.791895, "loc_type": "filming"}, {"FilmID": 5896, "Japanese_Title": "秋日和 デジタルリマスター", "English_Title": "Akibiyori (1960)", "Year": 1960.0, "location": "東京ビル 東京都千代田区丸の内2-7-2 東京都千代田区", "Prefecture": "東京都", "lat": 35.6785454, "lon": 139.7649463, "loc_type": "filming"}, {"FilmID": 5896, "Japanese_Title": "秋日和 デジタルリマスター", "English_Title": "Akibiyori (1960)", "Year": 1960.0, "location": "東京中央郵便局の駐車場  東京都千代田区", "Prefecture": "東京都", "lat": 35.6800963, "lon": 139.7646975, "loc_type": "filming"}, {"FilmID": 5896, "Japanese_Title": "秋日和 デジタルリマスター", "English_Title": "Akibiyori (1960)", "Year": 1960.0, "location": "東京中央郵便局  東京都千代田区", "Prefecture": "東京都", "lat": 35.6800963, "lon": 139.7646975, "loc_type": "filming"}, {"FilmID": 5902, "Japanese_Title": "東京物語 ニューデジタルリマスター", "English_Title": "Tokyo Story", "Year": 1953.0, "location": "東京都足立区柳原一丁目", "Prefecture": "東京都", "lat": 35.7457435, "lon": 139.8126302, "loc_type": "filming"}, {"FilmID": 5461, "Japanese_Title": "小早川家の秋", "English_Title": "The End of Summer", "Year": 1961.0, "location": "東寺の五重塔 東寺：京都府京都市南区九条町1 京都府京都市", "Prefecture": "京都府", "lat": 34.9811177, "lon": 135.7475964, "loc_type": "filming"}, {"FilmID": 5461, "Japanese_Title": "小早川家の秋", "English_Title": "The End of Summer", "Year": 1961.0, "location": "渡月橋 京都市右京区 京都府京都市", "Prefecture": "京都府", "lat": 35.0128798, "lon": 135.6777583, "loc_type": "filming"}, {"FilmID": 5461, "Japanese_Title": "小早川家の秋", "English_Title": "The End of Summer", "Year": 1961.0, "location": "保津川べりの街灯 京都市右京区 京都府京都", "Prefecture": "京都府", "lat": 35.0069867, "lon": 135.7152055, "loc_type": "filming"}, {"FilmID": 5902, "Japanese_Title": "東京物語 ニューデジタルリマスター", "English_Title": "Tokyo Story", "Year": 1953.0, "location": "八幡山の眺め 静岡県熱海市 静岡県熱海市", "Prefecture": "静岡県", "lat": 35.0353846, "lon": 139.0974521, "loc_type": "filming"}, {"FilmID": 5902, "Japanese_Title": "東京物語 ニューデジタルリマスター", "English_Title": "Tokyo Story", "Year": 1953.0, "location": "静岡県熱海市 静岡県熱海市", "Prefecture": "静岡県", "lat": 35.0962764, "lon": 139.0717047, "loc_type": "filming"}, {"FilmID": 5902, "Japanese_Title": "東京物語 ニューデジタルリマスター", "English_Title": "Tokyo Story", "Year": 1953.0, "location": "静岡県熱海市", "Prefecture": "静岡県", "lat": 35.0961466, "lon": 139.0769487, "loc_type": "filming"}, {"FilmID": 5902, "Japanese_Title": "東京物語 ニューデジタルリマスター", "English_Title": "Tokyo Story", "Year": 1953.0, "location": "大阪城天守閣 大阪府大阪市中央区大阪城1-1\n 大阪府大阪市中央区", "Prefecture": "大阪府", "lat": 34.6873153, "lon": 135.5262013, "loc_type": "filming"}, {"FilmID": 5902, "Japanese_Title": "東京物語 ニューデジタルリマスター", "English_Title": "Tokyo Story", "Year": 1953.0, "location": "浄土寺の石塔 浄土寺境内 広島県尾道市", "Prefecture": "広島県", "lat": 34.4118664, "lon": 133.2102069, "loc_type": "filming"}, {"FilmID": 5902, "Japanese_Title": "東京物語 ニューデジタルリマスター", "English_Title": "Tokyo Story", "Year": 1953.0, "location": "尾道水道と向島の眺め (1) 広島県尾道市\n 広島県尾道市", "Prefecture": "広島県", "lat": 34.395702, "lon": 133.198548, "loc_type": "filming"}, {"FilmID": 5902, "Japanese_Title": "東京物語 ニューデジタルリマスター", "English_Title": "Tokyo Story", "Year": 1953.0, "location": "中央桟橋 広島県尾道市土堂2丁目 広島県尾道市", "Prefecture": "広島県", "lat": 34.407723, "lon": 133.2024693, "loc_type": "filming"}, {"FilmID": 5902, "Japanese_Title": "東京物語 ニューデジタルリマスター", "English_Title": "Tokyo Story", "Year": 1953.0, "location": "広島県尾道市東久保町20-28", "Prefecture": "広島県", "lat": 34.4118664, "lon": 133.2102069, "loc_type": "filming"}, {"FilmID": 5902, "Japanese_Title": "東京物語 ニューデジタルリマスター", "English_Title": "Tokyo Story", "Year": 1953.0, "location": "福善寺墓地 (1)  広島県尾道市", "Prefecture": "広島県", "lat": 34.411986, "lon": 133.202958, "loc_type": "filming"}, {"FilmID": 5902, "Japanese_Title": "東京物語 ニューデジタルリマスター", "English_Title": "Tokyo Story", "Year": 1953.0, "location": "福善寺 広島県尾道市長江1丁目9-1 広島県尾道市", "Prefecture": "広島県", "lat": 34.411986, "lon": 133.202958, "loc_type": "filming"}, {"FilmID": 5902, "Japanese_Title": "東京物語 ニューデジタルリマスター", "English_Title": "Tokyo Story", "Year": 1953.0, "location": "広島県尾道市東久保町20-14 広島県尾道市", "Prefecture": "広島県", "lat": 34.412922, "lon": 133.209807, "loc_type": "filming"}, {"FilmID": 5902, "Japanese_Title": "東京物語 ニューデジタルリマスター", "English_Title": "Tokyo Story", "Year": 1953.0, "location": "浄土寺多宝塔  広島県尾道市", "Prefecture": "広島県", "lat": 34.4118151, "lon": 133.2110102, "loc_type": "filming"}, {"FilmID": 5902, "Japanese_Title": "東京物語 ニューデジタルリマスター", "English_Title": "Tokyo Story", "Year": 1953.0, "location": "尾道市立筒湯小学校  広島県尾道市", "Prefecture": "広島県", "lat": 34.4209372, "lon": 133.204538, "loc_type": "filming"}, {"FilmID": 5902, "Japanese_Title": "東京物語 ニューデジタルリマスター", "English_Title": "Tokyo Story", "Year": 1953.0, "location": "山陽本線　 広島県尾道市", "Prefecture": "広島県", "lat": 34.4048389, "lon": 133.1936527, "loc_type": "filming"}, {"FilmID": 5902, "Japanese_Title": "東京物語 ニューデジタルリマスター", "English_Title": "Tokyo Story", "Year": 1953.0, "location": "広島県尾道", "Prefecture": "広島県", "lat": 34.4088756, "lon": 133.2048886, "loc_type": "filming"}, {"FilmID": 5671, "Japanese_Title": "秋刀魚の味", "English_Title": "An Autumn Afternoon", "Year": 1962.0, "location": "東京都", "Prefecture": "東京都", "lat": 35.6894875, "lon": 139.6917064, "loc_type": "filming"}, {"FilmID": 5591, "Japanese_Title": "お早よう デジタルリマスター", "English_Title": "Good Morning", "Year": 1959.0, "location": "東京都", "Prefecture": "東京都", "lat": 35.6894875, "lon": 139.6917064, "loc_type": "filming"}, {"FilmID": 5893, "Japanese_Title": "彼岸花", "English_Title": "Higanbana (1958)", "Year": 1958.0, "location": "中央区、 東京都", "Prefecture": "東京都", "lat": 35.6706505, "lon": 139.7718614, "loc_type": "filming"}, {"FilmID": 5669, "Japanese_Title": "東京暮色", "English_Title": "Tokyo Twilight", "Year": 1957.0, "location": "千代田区、東京都", "Prefecture": "東京都", "lat": 35.6940027, "lon": 139.7535951, "loc_type": "filming"}, {"FilmID": 5902, "Japanese_Title": "東京物語 ニューデジタルリマスター", "English_Title": "Tokyo Story", "Year": 1953.0, "location": "足立区、 東京都", "Prefecture": "東京都", "lat": 35.7756644, "lon": 139.8044788, "loc_type": "filming"}, {"FilmID": 54362, "Japanese_Title": "お茶漬の味", "English_Title": "Ochazuke no aji (1952)", "Year": 1952.0, "location": "東京都", "Prefecture": "東京都", "lat": 35.6894875, "lon": 139.6917064, "loc_type": "filming"}, {"FilmID": 5884, "Japanese_Title": "宗方姉妹", "English_Title": "The Munekata Sisters", "Year": 1950.0, "location": "東京都", "Prefecture": "東京都", "lat": 35.6894875, "lon": 139.6917064, "loc_type": "filming"}, {"FilmID": 5883, "Japanese_Title": "晩春", "English_Title": "Banshun (1949)", "Year": 1949.0, "location": "中央区 東京都", "Prefecture": "東京都", "lat": 35.6706505, "lon": 139.7718614, "loc_type": "filming"}, {"FilmID": 5734, "Japanese_Title": "長屋紳士録", "English_Title": "Nagaya shinshiroku (1947)", "Year": 1947.0, "location": "東京都", "Prefecture": "東京都", "lat": 35.6894875, "lon": 139.6917064, "loc_type": "filming"}, {"FilmID": 5896, "Japanese_Title": "秋日和 デジタルリマスター", "English_Title": "Akibiyori (1960)", "Year": 1960.0, "location": "千代田区、東京都", "Prefecture": "東京都", "lat": 35.6940027, "lon": 139.7535951, "loc_type": "filming"}, {"FilmID": 5896, "Japanese_Title": "秋日和 デジタルリマスター", "English_Title": "Akibiyori (1960)", "Year": 1960.0, "location": "港区、東京都", "Prefecture": "東京都", "lat": 35.6580681, "lon": 139.7515992, "loc_type": "filming"}, {"FilmID": 5896, "Japanese_Title": "秋日和 デジタルリマスター", "English_Title": "Akibiyori (1960)", "Year": 1960.0, "location": "中央区、東京都", "Prefecture": "東京都", "lat": 35.6706505, "lon": 139.7718614, "loc_type": "filming"}, {"FilmID": 5896, "Japanese_Title": "秋日和 デジタルリマスター", "English_Title": "Akibiyori (1960)", "Year": 1960.0, "location": "江東区、東京都", "Prefecture": "東京都", "lat": 35.6728535, "lon": 139.8174097, "loc_type": "filming"}, {"FilmID": 5885, "Japanese_Title": "麦秋", "English_Title": "Early Summer", "Year": 1951.0, "location": "原節子 千代田区、中央区、台東区 東京都", "Prefecture": "東京都", "lat": 35.694345, "lon": 139.776166, "loc_type": "filming"}, {"FilmID": 5893, "Japanese_Title": "彼岸花", "English_Title": "Higanbana (1958)", "Year": 1958.0, "location": "箱根町 神奈川県", "Prefecture": "神奈川県", "lat": 35.2323553, "lon": 139.1069375, "loc_type": "filming"}, {"FilmID": 55432, "Japanese_Title": "早春", "English_Title": "Early Spring", "Year": 1956.0, "location": "神奈川県", "Prefecture": "神奈川県", "lat": 35.4475073, "lon": 139.6423446, "loc_type": "filming"}, {"FilmID": 54362, "Japanese_Title": "お茶漬の味", "English_Title": "Ochazuke no aji (1952)", "Year": 1952.0, "location": "中郡大磯町 神奈川県", "Prefecture": "神奈川県", "lat": 35.3068498, "lon": 139.3113138, "loc_type": "filming"}, {"FilmID": 5885, "Japanese_Title": "麦秋", "English_Title": "Early Summer", "Year": 1951.0, "location": "茅ヶ崎市 神奈川県", "Prefecture": "神奈川県", "lat": 35.3338429, "lon": 139.4036386, "loc_type": "filming"}, {"FilmID": 5883, "Japanese_Title": "晩春", "English_Title": "Banshun (1949)", "Year": 1949.0, "location": "神奈川県", "Prefecture": "神奈川県", "lat": 35.4475073, "lon": 139.6423446, "loc_type": "filming"}, {"FilmID": 5734, "Japanese_Title": "長屋紳士録", "English_Title": "Nagaya shinshiroku (1947)", "Year": 1947.0, "location": "茅ヶ崎市 神奈川県", "Prefecture": "神奈川県", "lat": 35.3338429, "lon": 139.4036386, "loc_type": "filming"}, {"FilmID": 4486, "Japanese_Title": "父ありき", "English_Title": "There Was a Father", "Year": 1942.0, "location": "箱根町 神奈川県", "Prefecture": "神奈川県", "lat": 35.2323553, "lon": 139.1069375, "loc_type": "filming"}, {"FilmID": 5885, "Japanese_Title": "麦秋", "English_Title": "Early Summer", "Year": 1951.0, "location": "鎌倉市", "Prefecture": "神奈川県", "lat": 35.310505, "lon": 139.4966368, "loc_type": "filming"}, {"FilmID": 5883, "Japanese_Title": "晩春", "English_Title": "Banshun (1949)", "Year": 1949.0, "location": "鎌倉市", "Prefecture": "神奈川県", "lat": 35.310505, "lon": 139.4966368, "loc_type": "filming"}, {"FilmID": 4486, "Japanese_Title": "父ありき", "English_Title": "There Was a Father", "Year": 1942.0, "location": "鎌倉市", "Prefecture": "神奈川県", "lat": 35.310505, "lon": 139.4966368, "loc_type": "filming"}, {"FilmID": 4529, "Japanese_Title": "朗かに歩め", "English_Title": "Hogaraka ni ayume (1930)", "Year": 1930.0, "location": "鎌倉市", "Prefecture": "神奈川県", "lat": 35.310505, "lon": 139.4966368, "loc_type": "filming"}, {"FilmID": 5885, "Japanese_Title": "麦秋", "English_Title": "Early Summer", "Year": 1951.0, "location": "奈良県", "Prefecture": "奈良県", "lat": 34.6853345, "lon": 135.8327421, "loc_type": "filming"}, {"FilmID": 5884, "Japanese_Title": "宗方姉妹", "English_Title": "The Munekata Sisters", "Year": 1950.0, "location": "奈良県", "Prefecture": "奈良県", "lat": 34.6853345, "lon": 135.8327421, "loc_type": "filming"}, {"FilmID": 5461, "Japanese_Title": "小早川家の秋", "English_Title": "The End of Summer", "Year": 1961.0, "location": "京都府", "Prefecture": "京都府", "lat": 35.0212466, "lon": 135.7555968, "loc_type": "filming"}, {"FilmID": 5893, "Japanese_Title": "彼岸花", "English_Title": "Higanbana (1958)", "Year": 1958.0, "location": "京都府", "Prefecture": "京都府", "lat": 35.0212466, "lon": 135.7555968, "loc_type": "filming"}, {"FilmID": 5884, "Japanese_Title": "宗方姉妹", "English_Title": "The Munekata Sisters", "Year": 1950.0, "location": "京都府", "Prefecture": "京都府", "lat": 35.0212466, "lon": 135.7555968, "loc_type": "filming"}, {"FilmID": 5883, "Japanese_Title": "晩春", "English_Title": "Banshun (1949)", "Year": 1949.0, "location": "京都府", "Prefecture": "京都府", "lat": 35.0212466, "lon": 135.7555968, "loc_type": "filming"}, {"FilmID": 5902, "Japanese_Title": "東京物語 ニューデジタルリマスター", "English_Title": "Tokyo Story", "Year": 1953.0, "location": "熱海市 静岡県", "Prefecture": "静岡県", "lat": 35.0962764, "lon": 139.0717047, "loc_type": "filming"}, {"FilmID": 54362, "Japanese_Title": "お茶漬の味", "English_Title": "Ochazuke no aji (1952)", "Year": 1952.0, "location": "伊豆市 静岡県", "Prefecture": "静岡県", "lat": 34.9765857, "lon": 138.946704, "loc_type": "filming"}, {"FilmID": 5893, "Japanese_Title": "彼岸花", "English_Title": "Higanbana (1958)", "Year": 1958.0, "location": "蒲郡市 愛知県", "Prefecture": "愛知県", "lat": 34.8265004, "lon": 137.2195158, "loc_type": "filming"}, {"FilmID": 5902, "Japanese_Title": "東京物語 ニューデジタルリマスター", "English_Title": "Tokyo Story", "Year": 1953.0, "location": "大阪市中央区", "Prefecture": "広島県", "lat": 34.6812614, "lon": 135.5098009, "loc_type": "filming"}, {"FilmID": 5902, "Japanese_Title": "東京物語 ニューデジタルリマスター", "English_Title": "Tokyo Story", "Year": 1953.0, "location": "尾道市 広島県", "Prefecture": "広島県", "lat": 34.4088756, "lon": 133.2048886, "loc_type": "filming"}, {"FilmID": 5883, "Japanese_Title": "晩春", "English_Title": "Banshun (1949)", "Year": 1949.0, "location": "Kitakamakura Station, Kamakura, Kanagawa, Japan", "Prefecture": "神奈川県", "lat": 35.318998793473966, "lon": 139.5504561157678, "loc_type": "filming"}, {"FilmID": 5883, "Japanese_Title": "晩春", "English_Title": "Banshun (1949)", "Year": 1949.0, "location": "Chigasaki, Kanagawa, Japan", "Prefecture": "神奈川県", "lat": 35.3338519939656, "lon": 139.4036017369, "loc_type": "filming"}, {"FilmID": 5883, "Japanese_Title": "晩春", "English_Title": "Banshun (1949)", "Year": 1949.0, "location": "Kita-Kamakura, Kanagawa, Japan", "Prefecture": "神奈川県", "lat": 35.3375664159777, "lon": 139.545049987227, "loc_type": "filming"}, {"FilmID": 5883, "Japanese_Title": "晩春", "English_Title": "Banshun (1949)", "Year": 1949.0, "location": "Kyoto", "Prefecture": "京都府", "lat": 35.021247, "lon": 135.755597, "loc_type": "filming"}, {"FilmID": 5883, "Japanese_Title": "晩春", "English_Title": "Banshun (1949)", "Year": 1949.0, "location": "Ofuna, Kanagawa, Japan", "Prefecture": "神奈川県", "lat": 35.3464354539737, "lon": 139.544000551057, "loc_type": "filming"}, {"FilmID": 5883, "Japanese_Title": "晩春", "English_Title": "Banshun (1949)", "Year": 1949.0, "location": "Totsuka, Kanagawa, Japan", "Prefecture": "神奈川県", "lat": 35.4000356750053, "lon": 139.533535349576, "loc_type": "filming"}, {"FilmID": 5883, "Japanese_Title": "晩春", "English_Title": "Banshun (1949)", "Year": 1949.0, "location": "Ueno Station, Ueno, Tokyo, Japan", "Prefecture": "東京都", "lat": 35.708410454908, "lon": 139.773939604116, "loc_type": "filming"}, {"FilmID": 5883, "Japanese_Title": "晩春", "English_Title": "Banshun (1949)", "Year": 1949.0, "location": "Yokohama, Kanagawa, Japan", "Prefecture": "神奈川県", "lat": 35.443708, "lon": 139.638026, "loc_type": "filming"}, {"FilmID": 5885, "Japanese_Title": "麦秋", "English_Title": "Early Summer", "Year": 1951.0, "location": "Ginza, Chuo-ku, Tokyo, Japan", "Prefecture": "東京都", "lat": 35.670869819215, "lon": 139.766647388762, "loc_type": "filming"}, {"FilmID": 5885, "Japanese_Title": "麦秋", "English_Title": "Early Summer", "Year": 1951.0, "location": "Kita-Kamakura, Kanagawa, Japan", "Prefecture": "神奈川県", "lat": 35.3375664159777, "lon": 139.545049987227, "loc_type": "filming"}, {"FilmID": 5885, "Japanese_Title": "麦秋", "English_Title": "Early Summer", "Year": 1951.0, "location": "Shochiku-Ofuna, Ofuna, Kanagawa, Japan", "Prefecture": "神奈川県", "lat": 35.3464354539737, "lon": 139.544000551057, "loc_type": "filming"}, {"FilmID": 5896, "Japanese_Title": "秋日和 デジタルリマスター", "English_Title": "Akibiyori (1960)", "Year": 1960.0, "location": "Tokyo Tower, Tokyo, Japan", "Prefecture": "東京都", "lat": 35.6585778290431, "lon": 139.745438343669, "loc_type": "filming"}, {"FilmID": 3901, "Japanese_Title": "美人と哀愁", "English_Title": "Beauty's Sorrows (aka The Sorrow of the Beautiful Woman)", "Year": 1931.0, "location": "Shochiku-Kamata Studios, Japan", "Prefecture": "東京都", "lat": 35.689488, "lon": 139.691706, "loc_type": "filming"}, {"FilmID": 5893, "Japanese_Title": "彼岸花", "English_Title": "Higanbana (1958)", "Year": 1958.0, "location": "Ginza, Chuo-ku, Tokyo, Japan", "Prefecture": "東京都", "lat": 35.670869819215, "lon": 139.766647388762, "loc_type": "filming"}, {"FilmID": 3840, "Japanese_Title": "引越し夫婦", "English_Title": "Couple on the Move", "Year": 1928.0, "location": "Shochiku-Kamata Studios, Japan", "Prefecture": "東京都", "lat": 35.689488, "lon": 139.691706, "loc_type": "filming"}, {"FilmID": 4333, "Japanese_Title": "学生ロマンス 若き日", "English_Title": "Student Romance: Days of Youth", "Year": 1929.0, "location": "Shochiku-Kamata Studios, Japan", "Prefecture": "東京都", "lat": 35.689488, "lon": 139.691706, "loc_type": "filming"}, {"FilmID": 54362, "Japanese_Title": "お茶漬の味", "English_Title": "Ochazuke no aji (1952)", "Year": 1952.0, "location": "Ginza, Chuo-ku, Tokyo, Japan", "Prefecture": "東京都", "lat": 35.670869819215, "lon": 139.766647388762, "loc_type": "filming"}, {"FilmID": 54362, "Japanese_Title": "お茶漬の味", "English_Title": "Ochazuke no aji (1952)", "Year": 1952.0, "location": "Oiso, Kanagawa, Japan", "Prefecture": "神奈川県", "lat": 35.3150387573516, "lon": 139.3163439761, "loc_type": "filming"}, {"FilmID": 54362, "Japanese_Title": "お茶漬の味", "English_Title": "Ochazuke no aji (1952)", "Year": 1952.0, "location": "Hamamatsu City, Shizuoka, Japan", "Prefecture": "静岡県", "lat": 34.7659080140652, "lon": 137.633047412626, "loc_type": "filming"}, {"FilmID": 3915, "Japanese_Title": "肉体美", "English_Title": "Nikutaibi (1928)", "Year": 1928.0, "location": "Shochiku-Kamata Studios, Tokyo, Japan", "Prefecture": "東京都", "lat": 35.689488, "lon": 139.691706, "loc_type": "filming"}, {"FilmID": 54666, "Japanese_Title": "出来ごころ", "English_Title": "Passing Fancy (2008)", "Year": 2008.0, "location": "Nikko, Tochigi, Japan", "Prefecture": "栃木県", "lat": 36.7198595069611, "lon": 139.698259371122, "loc_type": "filming"}, {"FilmID": 5671, "Japanese_Title": "秋刀魚の味", "English_Title": "An Autumn Afternoon", "Year": 1962.0, "location": "Shochiku-Ofuna, Ofuna, Kanagawa, Japan", "Prefecture": "神奈川県", "lat": 35.3464354539737, "lon": 139.544000551057, "loc_type": "filming"}, {"FilmID": 55432, "Japanese_Title": "早春", "English_Title": "Early Spring", "Year": 1956.0, "location": "Enoshima, Kanagawa, Japan", "Prefecture": "神奈川県", "lat": 35.301415878171, "lon": 139.482932592953, "loc_type": "filming"}, {"FilmID": 55432, "Japanese_Title": "早春", "English_Title": "Early Spring", "Year": 1956.0, "location": "Kamata, Ota-ku, Tokyo, Japan", "Prefecture": "東京都", "lat": 35.5639268693489, "lon": 139.723727425996, "loc_type": "filming"}, {"FilmID": 55432, "Japanese_Title": "早春", "English_Title": "Early Spring", "Year": 1956.0, "location": "Kawasaki, Kanagawa, Japan", "Prefecture": "神奈川県", "lat": 35.5299416929597, "lon": 139.702437904429, "loc_type": "filming"}, {"FilmID": 55432, "Japanese_Title": "早春", "English_Title": "Early Spring", "Year": 1956.0, "location": "Mitsuishi, Okayama, Japan", "Prefecture": "岡山県", "lat": 34.8019647731751, "lon": 134.276110555145, "loc_type": "filming"}, {"FilmID": 55432, "Japanese_Title": "早春", "English_Title": "Early Spring", "Year": 1956.0, "location": "Seta Bridge, Lake Biwa, Shiga, Japan", "Prefecture": "滋賀県", "lat": 34.9634757973308, "lon": 135.909648779261, "loc_type": "filming"}, {"FilmID": 55432, "Japanese_Title": "早春", "English_Title": "Early Spring", "Year": 1956.0, "location": "Tokyo", "Prefecture": "東京都", "lat": 35.689488, "lon": 139.691706, "loc_type": "filming"}, {"FilmID": 3920, "Japanese_Title": "戸田家の兄妹", "English_Title": "The Brothers and Sisters of the Toda Family", "Year": 1941.0, "location": "Shochiku-Ofuna, Ofuna, Kanagawa, Japan", "Prefecture": "神奈川県", "lat": 35.3464354539737, "lon": 139.544000551057, "loc_type": "filming"}, {"FilmID": 5422, "Japanese_Title": "遠い雲", "English_Title": "Tokyo Story", "Year": 1953.0, "location": "Atami, Shizuoka, Japan", "Prefecture": "静岡県", "lat": 35.096358492096, "lon": 139.071729365433, "loc_type": "filming"}, {"FilmID": 5422, "Japanese_Title": "遠い雲", "English_Title": "Tokyo Story", "Year": 1953.0, "location": "Onomichi, Hiroshima, Japan", "Prefecture": "広島県", "lat": 34.4088643797318, "lon": 133.204854110741, "loc_type": "filming"}, {"FilmID": 5422, "Japanese_Title": "遠い雲", "English_Title": "Tokyo Story", "Year": 1953.0, "location": "Tokyo", "Prefecture": "東京都", "lat": 35.689488, "lon": 139.691706, "loc_type": "filming"}, {"FilmID": 3976, "Japanese_Title": "若人の夢", "English_Title": "Dreams of Youth", "Year": 1928.0, "location": "Shochiku-Kamata Studios, Tokyo, Japan", "Prefecture": "東京都", "lat": 35.689488, "lon": 139.691706, "loc_type": "filming"}, {"FilmID": 3854, "Japanese_Title": "母を恋はずや", "English_Title": "Haha wo kowazuya (1934)", "Year": 1934.0, "location": "Japan", "Prefecture": "群馬県", "lat": 36.6552269979992, "lon": 139.271494999839, "loc_type": "represented"}, {"FilmID": 3864, "Japanese_Title": "浮草物語", "English_Title": "Ukikusa monogatari (1934)", "Year": 1934.0, "location": "Japan", "Prefecture": "群馬県", "lat": 36.6552269979992, "lon": 139.271494999839, "loc_type": "represented"}, {"FilmID": 3883, "Japanese_Title": "東京の英雄", "English_Title": "A Hero of Tokyo", "Year": 1935.0, "location": "Tokyo", "Prefecture": "東京都", "lat": 35.689488, "lon": 139.691706, "loc_type": "represented"}, {"FilmID": 3920, "Japanese_Title": "戸田家の兄妹", "English_Title": "The Brothers and Sisters of the Toda Family", "Year": 1941.0, "location": "Tokyo", "Prefecture": "東京都", "lat": 35.689488, "lon": 139.691706, "loc_type": "represented"}, {"FilmID": 3946, "Japanese_Title": "大学よいとこ", "English_Title": "Daigaku yoitoko (1936)", "Year": 1936.0, "location": "Tokyo", "Prefecture": "東京都", "lat": 35.689488, "lon": 139.691706, "loc_type": "represented"}, {"FilmID": 3975, "Japanese_Title": "非常線の女", "English_Title": "Dragnet Girl", "Year": 1933.0, "location": "Japan", "Prefecture": "群馬県", "lat": 36.6552269979992, "lon": 139.271494999839, "loc_type": "represented"}, {"FilmID": 4068, "Japanese_Title": "落第はしたけれど", "English_Title": "Rakudai wa shitakeredo (1930)", "Year": 1930.0, "location": "Tokyo", "Prefecture": "東京都", "lat": 35.689488, "lon": 139.691706, "loc_type": "represented"}, {"FilmID": 4071, "Japanese_Title": "大人の見る繪本 生れてはみたけれど", "English_Title": "Otona no miru ehon - Umarete wa mita keredo (1932)", "Year": 1932.0, "location": "Tokyo", "Prefecture": "東京都", "lat": 35.689488, "lon": 139.691706, "loc_type": "represented"}, {"FilmID": 4231, "Japanese_Title": "出来ごころ", "English_Title": "Dekigokoro (1933)", "Year": 1933.0, "location": "Tokyo", "Prefecture": "東京都", "lat": 35.689488, "lon": 139.691706, "loc_type": "represented"}, {"FilmID": 4486, "Japanese_Title": "父ありき", "English_Title": "There Was a Father", "Year": 1942.0, "location": "Tokyo", "Prefecture": "東京都", "lat": 35.689488, "lon": 139.691706, "loc_type": "represented"}, {"FilmID": 4498, "Japanese_Title": "東京の合唱", "English_Title": "Tôkyô no kôrasu (1931)", "Year": 1931.0, "location": "Tokyo", "Prefecture": "東京都", "lat": 35.689488, "lon": 139.691706, "loc_type": "represented"}, {"FilmID": 4529, "Japanese_Title": "朗かに歩め", "English_Title": "Hogaraka ni ayume (1930)", "Year": 1930.0, "location": "Japan", "Prefecture": "群馬県", "lat": 36.6552269979992, "lon": 139.271494999839, "loc_type": "represented"}, {"FilmID": 4534, "Japanese_Title": "淑女は何を忘れたか", "English_Title": "Shukujo wa nani o wasureta ka (1937)", "Year": 1937.0, "location": "Tokyo", "Prefecture": "東京都", "lat": 35.689488, "lon": 139.691706, "loc_type": "represented"}, {"FilmID": 4543, "Japanese_Title": "東京の女", "English_Title": "Woman of Tokyo", "Year": 1933.0, "location": "Japan", "Prefecture": "群馬県", "lat": 36.6552269979992, "lon": 139.271494999839, "loc_type": "represented"}, {"FilmID": 5902, "Japanese_Title": "東京物語 ニューデジタルリマスター", "English_Title": "Tokyo Story", "Year": 1953.0, "location": "Japan", "Prefecture": "群馬県", "lat": 36.6552269979992, "lon": 139.271494999839, "loc_type": "represented"}, {"FilmID": 5883, "Japanese_Title": "晩春", "English_Title": "Banshun (1949)", "Year": 1949.0, "location": "Kyoto", "Prefecture": "京都府", "lat": 35.021247, "lon": 135.755597, "loc_type": "represented"}, {"FilmID": 5461, "Japanese_Title": "小早川家の秋", "English_Title": "The End of Summer", "Year": 1961.0, "location": "Kyoto", "Prefecture": "京都府", "lat": 35.021247, "lon": 135.755597, "loc_type": "represented"}, {"FilmID": 5464, "Japanese_Title": "一人息子", "English_Title": "Hitori musuko (1936)", "Year": 1936.0, "location": "Tokyo", "Prefecture": "東京都", "lat": 35.689488, "lon": 139.691706, "loc_type": "represented"}, {"FilmID": 5591, "Japanese_Title": "お早よう デジタルリマスター", "English_Title": "Good Morning", "Year": 1959.0, "location": "Tokyo", "Prefecture": "東京都", "lat": 35.689488, "lon": 139.691706, "loc_type": "represented"}, {"FilmID": 5669, "Japanese_Title": "東京暮色", "English_Title": "Tokyo Twilight", "Year": 1957.0, "location": "Tokyo", "Prefecture": "東京都", "lat": 35.689488, "lon": 139.691706, "loc_type": "represented"}, {"FilmID": 5671, "Japanese_Title": "秋刀魚の味", "English_Title": "An Autumn Afternoon", "Year": 1962.0, "location": "Tokyo", "Prefecture": "東京都", "lat": 35.689488, "lon": 139.691706, "loc_type": "represented"}, {"FilmID": 5885, "Japanese_Title": "麦秋", "English_Title": "Early Summer", "Year": 1951.0, "location": "Kamakura", "Prefecture": "神奈川県", "lat": 35.325947, "lon": 139.556279, "loc_type": "represented"}, {"FilmID": 5734, "Japanese_Title": "長屋紳士録", "English_Title": "Nagaya shinshiroku (1947)", "Year": 1947.0, "location": "Tokyo", "Prefecture": "東京都", "lat": 35.689488, "lon": 139.691706, "loc_type": "represented"}, {"FilmID": 5753, "Japanese_Title": "浮草", "English_Title": "Ukikusa (1959)", "Year": 1959.0, "location": "Japan", "Prefecture": "群馬県", "lat": 36.6552269979992, "lon": 139.271494999839, "loc_type": "represented"}, {"FilmID": 5896, "Japanese_Title": "秋日和 デジタルリマスター", "English_Title": "Akibiyori (1960)", "Year": 1960.0, "location": "Tokyo", "Prefecture": "東京都", "lat": 35.689488, "lon": 139.691706, "loc_type": "represented"}, {"FilmID": 5893, "Japanese_Title": "彼岸花", "English_Title": "Higanbana (1958)", "Year": 1958.0, "location": "Tokyo", "Prefecture": "東京都", "lat": 35.689488, "lon": 139.691706, "loc_type": "represented"}, {"FilmID": 54362, "Japanese_Title": "お茶漬の味", "English_Title": "Ochazuke no aji (1952)", "Year": 1952.0, "location": "Tokyo", "Prefecture": "東京都", "lat": 35.689488, "lon": 139.691706, "loc_type": "represented"}, {"FilmID": 5884, "Japanese_Title": "宗方姉妹", "English_Title": "The Munekata Sisters", "Year": 1950.0, "location": "Tokyo", "Prefecture": "東京都", "lat": 35.689488, "lon": 139.691706, "loc_type": "represented"}, {"FilmID": 55432, "Japanese_Title": "早春", "English_Title": "Early Spring", "Year": 1956.0, "location": "Tokyo", "Prefecture": "東京都", "lat": 35.689488, "lon": 139.691706, "loc_type": "represented"}, {"FilmID": 5422, "Japanese_Title": "遠い雲", "English_Title": "Tokyo Story", "Year": 1953.0, "location": "Japan", "Prefecture": "群馬県", "lat": 36.6552269979992, "lon": 139.271494999839, "loc_type": "represented"}, {"FilmID": 5422, "Japanese_Title": "遠い雲", "English_Title": "Tokyo Story", "Year": 1953.0, "location": "Japan", "Prefecture": "群馬県", "lat": 36.6552269979992, "lon": 139.271494999839, "loc_type": "filming"}, {"FilmID": 5730, "Japanese_Title": "風の中の牝鶏", "English_Title": "Kaze no naka no mendori (1948)", "Year": 1948.0, "location": "Tokyo", "Prefecture": "東京都", "lat": 35.689488, "lon": 139.691706, "loc_type": "represented"}, {"FilmID": 5902, "Japanese_Title": "東京物語 ニューデジタルリマスター", "English_Title": "Tokyo Story", "Year": 1953.0, "location": "Tokyo", "Prefecture": "東京都", "lat": 35.689488, "lon": 139.691706, "loc_type": "represented"}, {"FilmID": 65377, "Japanese_Title": "めぞん一刻 完結篇", "English_Title": "Maison Ikkoku: The Final Chapter", "Year": 1988.0, "location": "Tokyo", "Prefecture": "東京都", "lat": 35.689488, "lon": 139.691706, "loc_type": "represented"}, {"FilmID": 66101, "Japanese_Title": "天才柳沢教授の生活", "English_Title": null, "Year": 2002.0, "location": "東京都 ⦿ 中野区 ⦿ 川中湯", "Prefecture": "東京都", "lat": 34.9658155, "lon": 135.8136515, "loc_type": "filming"}, {"FilmID": 5902, "Japanese_Title": "東京物語 ニューデジタルリマスター", "English_Title": "Tokyo Story", "Year": 1953.0, "location": "東京都 ⦿ 台東区 ⦿ 寛永寺旧本坊表門動", "Prefecture": "東京都", "lat": 35.7125805, "lon": 139.7800712, "loc_type": "filming"}, {"FilmID": 5902, "Japanese_Title": "東京物語 ニューデジタルリマスター", "English_Title": "Tokyo Story", "Year": 1953.0, "location": "東京都 ⦿ 足立区 ⦿ 東武伊勢崎線堀切駅«", "Prefecture": "東京都", "lat": 35.7746029, "lon": 139.8045163, "loc_type": "filming"}, {"FilmID": 5902, "Japanese_Title": "東京物語 ニューデジタルリマスター", "English_Title": "Tokyo Story", "Year": 1953.0, "location": "広島県 ⦿ 尾道市 ⦿ 浄土寺", "Prefecture": "広島県", "lat": 34.3039185, "lon": 133.171708, "loc_type": "filming"}, {"FilmID": 5902, "Japanese_Title": "東京物語 ニューデジタルリマスター", "English_Title": "Tokyo Story", "Year": 1953.0, "location": "広島県 ⦿ 尾道市 ⦿ 住吉神社の大灯籠", "Prefecture": "広島県", "lat": 34.4088519, "lon": 133.2051549, "loc_type": "filming"}, {"FilmID": 5902, "Japanese_Title": "東京物語 ニューデジタルリマスター", "English_Title": "Tokyo Story", "Year": 1953.0, "location": "広島県 ⦿ 尾道市 ⦿ 竹村屋G", "Prefecture": "広島県", "lat": 34.4088519, "lon": 133.2051549, "loc_type": "filming"}, {"FilmID": 5902, "Japanese_Title": "東京物語 ニューデジタルリマスター", "English_Title": "Tokyo Story", "Year": 1953.0, "location": "広島県 ⦿ 尾道市 ⦿ 筒湯小学校跡", "Prefecture": "広島県", "lat": 34.3830298, "lon": 133.1948858, "loc_type": "filming"}, {"FilmID": 66470, "Japanese_Title": "映像研には手を出すな！", "English_Title": "Keep Your Hands Off Eizouken! The Movie", "Year": 2020.0, "location": "港区立郷土歴史館", "Prefecture": "東京都", "lat": 35.639158, "lon": 139.726661, "loc_type": "filming"}, {"FilmID": 66470, "Japanese_Title": "映像研には手を出すな！", "English_Title": "Keep Your Hands Off Eizouken! The Movie", "Year": 2020.0, "location": "東京都 ⦿ 洗足池公園", "Prefecture": "東京都", "lat": 35.6022974, "lon": 139.6906054, "loc_type": "filming"}, {"FilmID": 66470, "Japanese_Title": "映像研には手を出すな！", "English_Title": "Keep Your Hands Off Eizouken! The Movie", "Year": 2020.0, "location": "廃工場", "Prefecture": "茨城県", "lat": 36.005315, "lon": 140.373126, "loc_type": "filming"}, {"FilmID": 66470, "Japanese_Title": "映像研には手を出すな！", "English_Title": "Keep Your Hands Off Eizouken! The Movie", "Year": 2020.0, "location": "臨江閣", "Prefecture": "群馬県", "lat": 36.395744, "lon": 139.062272, "loc_type": "filming"}, {"FilmID": 66470, "Japanese_Title": "映像研には手を出すな！", "English_Title": "Keep Your Hands Off Eizouken! The Movie", "Year": 2020.0, "location": "トチセン", "Prefecture": "栃木県", "lat": 36.306172, "lon": 139.457325, "loc_type": "filming"}, {"FilmID": 66470, "Japanese_Title": "映像研には手を出すな！", "English_Title": "Keep Your Hands Off Eizouken! The Movie", "Year": 2020.0, "location": "桐生水質浄化センター", "Prefecture": "群馬県", "lat": 36.364355, "lon": 139.36725, "loc_type": "filming"}, {"FilmID": 66470, "Japanese_Title": "映像研には手を出すな！", "English_Title": "Keep Your Hands Off Eizouken! The Movie", "Year": 2020.0, "location": "茨城県 ⦿ 水戸市 ⦿ 茨城県三の丸庁舎", "Prefecture": "茨城県", "lat": 36.3763771, "lon": 140.4758267, "loc_type": "filming"}, {"FilmID": 66470, "Japanese_Title": "映像研には手を出すな！", "English_Title": "Keep Your Hands Off Eizouken! The Movie", "Year": 2020.0, "location": "足利短期大学", "Prefecture": "栃木県", "lat": 36.340469, "lon": 139.447483, "loc_type": "filming"}, {"FilmID": 66470, "Japanese_Title": "映像研には手を出すな！", "English_Title": "Keep Your Hands Off Eizouken! The Movie", "Year": 2020.0, "location": "表参道", "Prefecture": "東京都", "lat": 35.6652511, "lon": 139.7120921, "loc_type": "filming"}, {"FilmID": 66470, "Japanese_Title": "映像研には手を出すな！", "English_Title": "Keep Your Hands Off Eizouken! The Movie", "Year": 2020.0, "location": "群馬大学工学部", "Prefecture": "群馬県", "lat": 36.422622, "lon": 139.347039, "loc_type": "filming"}, {"FilmID": 66470, "Japanese_Title": "映像研には手を出すな！", "English_Title": "Keep Your Hands Off Eizouken! The Movie", "Year": 2020.0, "location": "LARGO", "Prefecture": "東京都", "lat": 35.660778, "lon": 139.587675, "loc_type": "filming"}, {"FilmID": 66470, "Japanese_Title": "映像研には手を出すな！", "English_Title": "Keep Your Hands Off Eizouken! The Movie", "Year": 2020.0, "location": "横利根閘門", "Prefecture": "茨城県", "lat": 35.912045, "lon": 140.494144, "loc_type": "filming"}, {"FilmID": 66470, "Japanese_Title": "映像研には手を出すな！", "English_Title": "Keep Your Hands Off Eizouken! The Movie", "Year": 2020.0, "location": "東京都 ⦿ 中央区 ⦿ 朝潮小橋", "Prefecture": "東京都", "lat": 35.6539955, "lon": 139.7744428, "loc_type": "filming"}, {"FilmID": 66470, "Japanese_Title": "映像研には手を出すな！", "English_Title": "Keep Your Hands Off Eizouken! The Movie", "Year": 2020.0, "location": "紅棉路", "Prefecture": "Overseas", "lat": 22.278899, "lon": 114.161949, "loc_type": "filming"}, {"FilmID": 66470, "Japanese_Title": "映像研には手を出すな！", "English_Title": "Keep Your Hands Off Eizouken! The Movie", "Year": 2020.0, "location": "レゾナック川崎事業所", "Prefecture": "神奈川県", "lat": 35.504922, "lon": 139.723059, "loc_type": "filming"}, {"FilmID": 66470, "Japanese_Title": "映像研には手を出すな！", "English_Title": "Keep Your Hands Off Eizouken! The Movie", "Year": 2020.0, "location": "加瀬のレンタルボックス船橋小室町", "Prefecture": "千葉県", "lat": 35.797371, "lon": 140.070245, "loc_type": "filming"}, {"FilmID": 66470, "Japanese_Title": "映像研には手を出すな！", "English_Title": "Keep Your Hands Off Eizouken! The Movie", "Year": 2020.0, "location": "上野附近の道", "Prefecture": "東京都", "lat": 35.7135958, "lon": 139.7781484, "loc_type": "filming"}, {"FilmID": 66470, "Japanese_Title": "映像研には手を出すな！", "English_Title": "Keep Your Hands Off Eizouken! The Movie", "Year": 2020.0, "location": "Ibaraki, Japan", "Prefecture": "大阪府", "lat": 34.8163238367522, "lon": 135.5685425657, "loc_type": "filming"}, {"FilmID": 66470, "Japanese_Title": "映像研には手を出すな！", "English_Title": "Keep Your Hands Off Eizouken! The Movie", "Year": 2020.0, "location": "富士ビル", "Prefecture": "埼玉県", "lat": 35.846695, "lon": 139.538963, "loc_type": "filming"}, {"FilmID": 66470, "Japanese_Title": "映像研には手を出すな！", "English_Title": "Keep Your Hands Off Eizouken! The Movie", "Year": 2020.0, "location": "恩廻公園調節池", "Prefecture": "神奈川県", "lat": 35.576843, "lon": 139.502613, "loc_type": "filming"}, {"FilmID": 66470, "Japanese_Title": "映像研には手を出すな！", "English_Title": "Keep Your Hands Off Eizouken! The Movie", "Year": 2020.0, "location": "岩舟山採石場跡", "Prefecture": "栃木県", "lat": 36.330822, "lon": 139.654419, "loc_type": "filming"}, {"FilmID": 66470, "Japanese_Title": "映像研には手を出すな！", "English_Title": "Keep Your Hands Off Eizouken! The Movie", "Year": 2020.0, "location": "旧西中学校", "Prefecture": "群馬県", "lat": 36.416392, "lon": 139.334747, "loc_type": "filming"}, {"FilmID": 66470, "Japanese_Title": "映像研には手を出すな！", "English_Title": "Keep Your Hands Off Eizouken! The Movie", "Year": 2020.0, "location": "農道", "Prefecture": "石川県", "lat": 36.666241, "lon": 136.672101, "loc_type": "filming"}, {"FilmID": 66470, "Japanese_Title": "映像研には手を出すな！", "English_Title": "Keep Your Hands Off Eizouken! The Movie", "Year": 2020.0, "location": "千葉都市モノレール千城台駅", "Prefecture": "千葉県", "lat": 35.62238, "lon": 140.188495, "loc_type": "filming"}, {"FilmID": 66470, "Japanese_Title": "映像研には手を出すな！", "English_Title": "Keep Your Hands Off Eizouken! The Movie", "Year": 2020.0, "location": "深谷市リトルリーググラウンド（岡部東グラウンド）", "Prefecture": "埼玉県", "lat": 36.209355, "lon": 139.255095, "loc_type": "filming"}, {"FilmID": 66470, "Japanese_Title": "映像研には手を出すな！", "English_Title": "Keep Your Hands Off Eizouken! The Movie", "Year": 2020.0, "location": "千葉都市モノレール桜木駅", "Prefecture": "千葉県", "lat": 35.631286, "lon": 140.161025, "loc_type": "filming"}, {"FilmID": 66634, "Japanese_Title": "100万円の女たち", "English_Title": "Million Yen Women", "Year": 2017.0, "location": "Tokyo", "Prefecture": "東京都", "lat": 35.689488, "lon": 139.691706, "loc_type": "filming"}, {"FilmID": 66634, "Japanese_Title": "100万円の女たち", "English_Title": "Million Yen Women", "Year": 2017.0, "location": "ホテルヴィクトリアコート関内", "Prefecture": "神奈川県", "lat": 35.445756, "lon": 139.631127, "loc_type": "filming"}, {"FilmID": 66634, "Japanese_Title": "100万円の女たち", "English_Title": "Million Yen Women", "Year": 2017.0, "location": "東京拘置所", "Prefecture": "東京都", "lat": 35.760342, "lon": 139.819594, "loc_type": "filming"}, {"FilmID": 66634, "Japanese_Title": "100万円の女たち", "English_Title": "Million Yen Women", "Year": 2017.0, "location": "木更津市立太田中学校", "Prefecture": "千葉県", "lat": 35.378066, "lon": 139.94878, "loc_type": "filming"}, {"FilmID": 66634, "Japanese_Title": "100万円の女たち", "English_Title": "Million Yen Women", "Year": 2017.0, "location": "（新宿駅）", "Prefecture": "東京都", "lat": 35.6894072, "lon": 139.7003058, "loc_type": "filming"}, {"FilmID": 66634, "Japanese_Title": "100万円の女たち", "English_Title": "Million Yen Women", "Year": 2017.0, "location": "北里大学病院", "Prefecture": "神奈川県", "lat": 35.538357, "lon": 139.392738, "loc_type": "filming"}, {"FilmID": 66634, "Japanese_Title": "100万円の女たち", "English_Title": "Million Yen Women", "Year": 2017.0, "location": "昭和の森車屋", "Prefecture": "東京都", "lat": 35.719056, "lon": 139.364522, "loc_type": "filming"}, {"FilmID": 66634, "Japanese_Title": "100万円の女たち", "English_Title": "Million Yen Women", "Year": 2017.0, "location": "芝浦運河の末広橋", "Prefecture": "東京都", "lat": 35.649236, "lon": 139.757483, "loc_type": "filming"}, {"FilmID": 66634, "Japanese_Title": "100万円の女たち", "English_Title": "Million Yen Women", "Year": 2017.0, "location": "Q.E.D.CLUB", "Prefecture": "東京都", "lat": 35.644186, "lon": 139.704025, "loc_type": "filming"}, {"FilmID": 66634, "Japanese_Title": "100万円の女たち", "English_Title": "Million Yen Women", "Year": 2017.0, "location": "ケイナカノクラシックバレエアカデミー駒込教室", "Prefecture": "東京都", "lat": 35.731931, "lon": 139.748553, "loc_type": "filming"}, {"FilmID": 66634, "Japanese_Title": "100万円の女たち", "English_Title": "Million Yen Women", "Year": 2017.0, "location": "東京工科大学、日本工学院八王子専門学校", "Prefecture": "東京都", "lat": 35.626483, "lon": 139.340972, "loc_type": "filming"}, {"FilmID": 66634, "Japanese_Title": "100万円の女たち", "English_Title": "Million Yen Women", "Year": 2017.0, "location": "KOiBUMi", "Prefecture": "東京都", "lat": 35.662561, "lon": 139.694806, "loc_type": "filming"}, {"FilmID": 66634, "Japanese_Title": "100万円の女たち", "English_Title": "Million Yen Women", "Year": 2017.0, "location": "恵比寿西5ビル(第5ハネハビル)", "Prefecture": "東京都", "lat": 35.647544, "lon": 139.707628, "loc_type": "filming"}, {"FilmID": 66634, "Japanese_Title": "100万円の女たち", "English_Title": "Million Yen Women", "Year": 2017.0, "location": "（神田書店街）", "Prefecture": "東京都", "lat": 35.6956944, "lon": 139.7593864, "loc_type": "filming"}, {"FilmID": 66634, "Japanese_Title": "100万円の女たち", "English_Title": "Million Yen Women", "Year": 2017.0, "location": "桃李", "Prefecture": "東京都", "lat": 35.624717, "lon": 139.771297, "loc_type": "filming"}, {"FilmID": 66634, "Japanese_Title": "100万円の女たち", "English_Title": "Million Yen Women", "Year": 2017.0, "location": "民家", "Prefecture": "宮城県", "lat": 35.645828, "lon": 139.7075947, "loc_type": "filming"}, {"FilmID": 66634, "Japanese_Title": "100万円の女たち", "English_Title": "Million Yen Women", "Year": 2017.0, "location": "（新宿）", "Prefecture": "東京都", "lat": 35.6911017, "lon": 139.706763, "loc_type": "filming"}, {"FilmID": 66634, "Japanese_Title": "100万円の女たち", "English_Title": "Million Yen Women", "Year": 2017.0, "location": "京王線幡ヶ谷3号踏切", "Prefecture": "東京都", "lat": 35.675953, "lon": 139.673825, "loc_type": "filming"}, {"FilmID": 66634, "Japanese_Title": "100万円の女たち", "English_Title": "Million Yen Women", "Year": 2017.0, "location": "藤沢聖苑", "Prefecture": "神奈川県", "lat": 35.356025, "lon": 139.490717, "loc_type": "filming"}, {"FilmID": 66634, "Japanese_Title": "100万円の女たち", "English_Title": "Million Yen Women", "Year": 2017.0, "location": "ベニースーパー佐野店", "Prefecture": "東京都", "lat": 35.788633, "lon": 139.837614, "loc_type": "filming"}, {"FilmID": 66634, "Japanese_Title": "100万円の女たち", "English_Title": "Million Yen Women", "Year": 2017.0, "location": "神楽坂 割烹加賀", "Prefecture": "東京都", "lat": 35.700534, "lon": 139.739361, "loc_type": "filming"}, {"FilmID": 66634, "Japanese_Title": "100万円の女たち", "English_Title": "Million Yen Women", "Year": 2017.0, "location": "（横浜駅東口）", "Prefecture": "神奈川県", "lat": 35.4652, "lon": 139.6247, "loc_type": "filming"}, {"FilmID": 66634, "Japanese_Title": "100万円の女たち", "English_Title": "Million Yen Women", "Year": 2017.0, "location": "Chiba, Japan", "Prefecture": "千葉県", "lat": 35.803649, "lon": 140.251508, "loc_type": "filming"}, {"FilmID": 66634, "Japanese_Title": "100万円の女たち", "English_Title": "Million Yen Women", "Year": 2017.0, "location": "騎士道", "Prefecture": "東京都", "lat": 35.687885, "lon": 139.715245, "loc_type": "filming"}, {"FilmID": 66634, "Japanese_Title": "100万円の女たち", "English_Title": "Million Yen Women", "Year": 2017.0, "location": "表参道", "Prefecture": "東京都", "lat": 35.6652511, "lon": 139.7120921, "loc_type": "filming"}, {"FilmID": 66634, "Japanese_Title": "100万円の女たち", "English_Title": "Million Yen Women", "Year": 2017.0, "location": "Kanagawa, Japan", "Prefecture": "神奈川県", "lat": 35.5303555555556, "lon": 139.713566666667, "loc_type": "filming"}, {"FilmID": 66634, "Japanese_Title": "100万円の女たち", "English_Title": "Million Yen Women", "Year": 2017.0, "location": "八重洲ブックセンター", "Prefecture": "東京都", "lat": 35.678175, "lon": 139.768164, "loc_type": "filming"}, {"FilmID": 66634, "Japanese_Title": "100万円の女たち", "English_Title": "Million Yen Women", "Year": 2017.0, "location": "君津市営聖地公園", "Prefecture": "千葉県", "lat": 35.288032, "lon": 140.04133, "loc_type": "filming"}, {"FilmID": 66634, "Japanese_Title": "100万円の女たち", "English_Title": "Million Yen Women", "Year": 2017.0, "location": "木更津市立わかば保育園", "Prefecture": "千葉県", "lat": 35.378303, "lon": 139.933764, "loc_type": "filming"}, {"FilmID": 66799, "Japanese_Title": "時をかける少女", "English_Title": "The Girl Who Leapt Through Time", "Year": 2016.0, "location": "茨城県立石岡第二高等学校", "Prefecture": "茨城県", "lat": 36.200004, "lon": 140.273004, "loc_type": "filming"}, {"FilmID": 66799, "Japanese_Title": "時をかける少女", "English_Title": "The Girl Who Leapt Through Time", "Year": 2016.0, "location": "旧静浦中学校", "Prefecture": "静岡県", "lat": 35.054883, "lon": 138.888611, "loc_type": "filming"}, {"FilmID": 66799, "Japanese_Title": "時をかける少女", "English_Title": "The Girl Who Leapt Through Time", "Year": 2016.0, "location": "Shizuoka, Japan", "Prefecture": "静岡県", "lat": 34.916663, "lon": 138.3166654, "loc_type": "filming"}, {"FilmID": 66799, "Japanese_Title": "時をかける少女", "English_Title": "The Girl Who Leapt Through Time", "Year": 2016.0, "location": "植田理容所", "Prefecture": "静岡県", "lat": 35.096842, "lon": 138.85727, "loc_type": "filming"}, {"FilmID": 66799, "Japanese_Title": "時をかける少女", "English_Title": "The Girl Who Leapt Through Time", "Year": 2016.0, "location": "長井崎中学校", "Prefecture": "静岡県", "lat": 35.020633, "lon": 138.883836, "loc_type": "filming"}, {"FilmID": 66799, "Japanese_Title": "時をかける少女", "English_Title": "The Girl Who Leapt Through Time", "Year": 2016.0, "location": "竜宮公園の二穴洞窟", "Prefecture": "静岡県", "lat": 34.641694, "lon": 138.915936, "loc_type": "filming"}, {"FilmID": 66799, "Japanese_Title": "時をかける少女", "English_Title": "The Girl Who Leapt Through Time", "Year": 2016.0, "location": "リックス松戸二ツ木店", "Prefecture": "千葉県", "lat": 35.821056, "lon": 139.920972, "loc_type": "filming"}, {"FilmID": 66799, "Japanese_Title": "時をかける少女", "English_Title": "The Girl Who Leapt Through Time", "Year": 2016.0, "location": "狩野川", "Prefecture": "静岡県", "lat": 35.094592, "lon": 138.858456, "loc_type": "filming"}, {"FilmID": 66799, "Japanese_Title": "時をかける少女", "English_Title": "The Girl Who Leapt Through Time", "Year": 2016.0, "location": "来迎寺", "Prefecture": "静岡県", "lat": 35.021586, "lon": 138.899396, "loc_type": "filming"}, {"FilmID": 66799, "Japanese_Title": "時をかける少女", "English_Title": "The Girl Who Leapt Through Time", "Year": 2016.0, "location": "一件家", "Prefecture": "静岡県", "lat": 35.024936, "lon": 138.89946, "loc_type": "filming"}, {"FilmID": 66799, "Japanese_Title": "時をかける少女", "English_Title": "The Girl Who Leapt Through Time", "Year": 2016.0, "location": "内浦湾の防波堤", "Prefecture": "静岡県", "lat": 35.024244, "lon": 138.897286, "loc_type": "filming"}, {"FilmID": 66799, "Japanese_Title": "時をかける少女", "English_Title": "The Girl Who Leapt Through Time", "Year": 2016.0, "location": "（戸田海岸）", "Prefecture": "静岡県", "lat": 35.0955842, "lon": 138.8634925, "loc_type": "filming"}, {"FilmID": 66799, "Japanese_Title": "時をかける少女", "English_Title": "The Girl Who Leapt Through Time", "Year": 2016.0, "location": "平滑川沿いのペリーロード", "Prefecture": "静岡県", "lat": 34.6716873, "lon": 138.9432603, "loc_type": "filming"}, {"FilmID": 66799, "Japanese_Title": "時をかける少女", "English_Title": "The Girl Who Leapt Through Time", "Year": 2016.0, "location": "松濤館の見える護岸", "Prefecture": "静岡県", "lat": 35.021577, "lon": 138.897093, "loc_type": "filming"}, {"FilmID": 66799, "Japanese_Title": "時をかける少女", "English_Title": "The Girl Who Leapt Through Time", "Year": 2016.0, "location": "南流山7号公園", "Prefecture": "千葉県", "lat": 35.840384, "lon": 139.899151, "loc_type": "filming"}, {"FilmID": 66799, "Japanese_Title": "時をかける少女", "English_Title": "The Girl Who Leapt Through Time", "Year": 2016.0, "location": "大浜海岸", "Prefecture": "静岡県", "lat": 34.652667, "lon": 138.918011, "loc_type": "filming"}, {"FilmID": 66799, "Japanese_Title": "時をかける少女", "English_Title": "The Girl Who Leapt Through Time", "Year": 2016.0, "location": "鍋田浜海水浴場", "Prefecture": "静岡県", "lat": 34.666813, "lon": 138.935981, "loc_type": "filming"}, {"FilmID": 66799, "Japanese_Title": "時をかける少女", "English_Title": "The Girl Who Leapt Through Time", "Year": 2016.0, "location": "流山市立図書館", "Prefecture": "千葉県", "lat": 35.859016, "lon": 139.902548, "loc_type": "filming"}, {"FilmID": 66799, "Japanese_Title": "時をかける少女", "English_Title": "The Girl Who Leapt Through Time", "Year": 2016.0, "location": "（熱帯植物園", "Prefecture": "静岡県", "lat": 34.6795334, "lon": 138.945316, "loc_type": "filming"}, {"FilmID": 66799, "Japanese_Title": "時をかける少女", "English_Title": "The Girl Who Leapt Through Time", "Year": 2016.0, "location": "大井香取神社", "Prefecture": "千葉県", "lat": 35.852516, "lon": 140.004805, "loc_type": "filming"}, {"FilmID": 66799, "Japanese_Title": "時をかける少女", "English_Title": "The Girl Who Leapt Through Time", "Year": 2016.0, "location": "田牛海水浴場", "Prefecture": "静岡県", "lat": 34.640868, "lon": 138.914045, "loc_type": "filming"}, {"FilmID": 66799, "Japanese_Title": "時をかける少女", "English_Title": "The Girl Who Leapt Through Time", "Year": 2016.0, "location": "福生市営プール", "Prefecture": "東京都", "lat": 35.734241, "lon": 139.321612, "loc_type": "filming"}, {"FilmID": 66799, "Japanese_Title": "時をかける少女", "English_Title": "The Girl Who Leapt Through Time", "Year": 2016.0, "location": "遠津浜海岸", "Prefecture": "神奈川県", "lat": 35.151272, "lon": 139.68075, "loc_type": "filming"}, {"FilmID": 66799, "Japanese_Title": "時をかける少女", "English_Title": "The Girl Who Leapt Through Time", "Year": 2016.0, "location": "香貫山公園", "Prefecture": "静岡県", "lat": 35.091842, "lon": 138.875736, "loc_type": "filming"}, {"FilmID": 66799, "Japanese_Title": "時をかける少女", "English_Title": "The Girl Who Leapt Through Time", "Year": 2016.0, "location": "川崎市多摩区（よみうりランド", "Prefecture": "神奈川県", "lat": 35.625288, "lon": 139.5187833, "loc_type": "filming"}, {"FilmID": 66799, "Japanese_Title": "時をかける少女", "English_Title": "The Girl Who Leapt Through Time", "Year": 2016.0, "location": "島郷海水浴場", "Prefecture": "静岡県", "lat": 35.065864, "lon": 138.876175, "loc_type": "filming"}, {"FilmID": 66799, "Japanese_Title": "時をかける少女", "English_Title": "The Girl Who Leapt Through Time", "Year": 2016.0, "location": "丸和", "Prefecture": "静岡県", "lat": 35.085816, "lon": 138.858358, "loc_type": "filming"}, {"FilmID": 66799, "Japanese_Title": "時をかける少女", "English_Title": "The Girl Who Leapt Through Time", "Year": 2016.0, "location": "沼津魚類共同組合製氷工場", "Prefecture": "静岡県", "lat": 35.080758, "lon": 138.85507, "loc_type": "filming"}, {"FilmID": 66845, "Japanese_Title": "Dr．倫太郎", "English_Title": "Dr. Rintaro, Psychiatrist", "Year": 2015.0, "location": "横浜市立大学医学部附属病院", "Prefecture": "神奈川県", "lat": 35.344447, "lon": 139.651053, "loc_type": "filming"}, {"FilmID": 66845, "Japanese_Title": "Dr．倫太郎", "English_Title": "Dr. Rintaro, Psychiatrist", "Year": 2015.0, "location": "東京臨海病院", "Prefecture": "東京都", "lat": 35.652272, "lon": 139.853761, "loc_type": "filming"}, {"FilmID": 66845, "Japanese_Title": "Dr．倫太郎", "English_Title": "Dr. Rintaro, Psychiatrist", "Year": 2015.0, "location": "柳橋附近", "Prefecture": "東京都", "lat": 35.6979785, "lon": 139.7888534, "loc_type": "filming"}, {"FilmID": 66845, "Japanese_Title": "Dr．倫太郎", "English_Title": "Dr. Rintaro, Psychiatrist", "Year": 2015.0, "location": "Kanagawa, Japan", "Prefecture": "神奈川県", "lat": 35.5303555555556, "lon": 139.713566666667, "loc_type": "filming"}, {"FilmID": 66845, "Japanese_Title": "Dr．倫太郎", "English_Title": "Dr. Rintaro, Psychiatrist", "Year": 2015.0, "location": "鈴木ビル", "Prefecture": "東京都", "lat": 35.672047, "lon": 139.771853, "loc_type": "filming"}, {"FilmID": 66845, "Japanese_Title": "Dr．倫太郎", "English_Title": "Dr. Rintaro, Psychiatrist", "Year": 2015.0, "location": "国会図書館前庭", "Prefecture": "東京都", "lat": 35.6770719, "lon": 139.7477299, "loc_type": "filming"}, {"FilmID": 66845, "Japanese_Title": "Dr．倫太郎", "English_Title": "Dr. Rintaro, Psychiatrist", "Year": 2015.0, "location": "海洋会館", "Prefecture": "神奈川県", "lat": 35.448033, "lon": 139.6438, "loc_type": "filming"}, {"FilmID": 66845, "Japanese_Title": "Dr．倫太郎", "English_Title": "Dr. Rintaro, Psychiatrist", "Year": 2015.0, "location": "Tokyo", "Prefecture": "東京都", "lat": 35.689488, "lon": 139.691706, "loc_type": "filming"}, {"FilmID": 66845, "Japanese_Title": "Dr．倫太郎", "English_Title": "Dr. Rintaro, Psychiatrist", "Year": 2015.0, "location": "みらい館大明（旧大明小学校）", "Prefecture": "東京都", "lat": 35.735683, "lon": 139.704564, "loc_type": "filming"}, {"FilmID": 66845, "Japanese_Title": "Dr．倫太郎", "English_Title": "Dr. Rintaro, Psychiatrist", "Year": 2015.0, "location": "きく家", "Prefecture": "東京都", "lat": 35.685347, "lon": 139.782214, "loc_type": "filming"}, {"FilmID": 66845, "Japanese_Title": "Dr．倫太郎", "English_Title": "Dr. Rintaro, Psychiatrist", "Year": 2015.0, "location": "カフェダイニングバー104.5", "Prefecture": "東京都", "lat": 35.697433, "lon": 139.767586, "loc_type": "filming"}, {"FilmID": 66845, "Japanese_Title": "Dr．倫太郎", "English_Title": "Dr. Rintaro, Psychiatrist", "Year": 2015.0, "location": "八芳園", "Prefecture": "東京都", "lat": 35.638436, "lon": 139.7287, "loc_type": "filming"}, {"FilmID": 66845, "Japanese_Title": "Dr．倫太郎", "English_Title": "Dr. Rintaro, Psychiatrist", "Year": 2015.0, "location": "八重洲ブックセンター", "Prefecture": "東京都", "lat": 35.678175, "lon": 139.768164, "loc_type": "filming"}, {"FilmID": 66845, "Japanese_Title": "Dr．倫太郎", "English_Title": "Dr. Rintaro, Psychiatrist", "Year": 2015.0, "location": "創価大学", "Prefecture": "東京都", "lat": 35.688997, "lon": 139.328167, "loc_type": "filming"}, {"FilmID": 66845, "Japanese_Title": "Dr．倫太郎", "English_Title": "Dr. Rintaro, Psychiatrist", "Year": 2015.0, "location": "（天王洲野球場）", "Prefecture": "東京都", "lat": 35.6193184, "lon": 139.7497315, "loc_type": "filming"}, {"FilmID": 66845, "Japanese_Title": "Dr．倫太郎", "English_Title": "Dr. Rintaro, Psychiatrist", "Year": 2015.0, "location": "東京都 ⦿ 洗足池公園", "Prefecture": "東京都", "lat": 35.6022974, "lon": 139.6906054, "loc_type": "filming"}, {"FilmID": 66845, "Japanese_Title": "Dr．倫太郎", "English_Title": "Dr. Rintaro, Psychiatrist", "Year": 2015.0, "location": "川崎市（川崎競馬場？", "Prefecture": "神奈川県", "lat": 35.5324982, "lon": 139.7108026, "loc_type": "filming"}, {"FilmID": 66845, "Japanese_Title": "Dr．倫太郎", "English_Title": "Dr. Rintaro, Psychiatrist", "Year": 2015.0, "location": "武蔵野銀行東京支店", "Prefecture": "東京都", "lat": 35.691975, "lon": 139.767678, "loc_type": "filming"}, {"FilmID": 66845, "Japanese_Title": "Dr．倫太郎", "English_Title": "Dr. Rintaro, Psychiatrist", "Year": 2015.0, "location": "ホルモン焼肉ぶち新宿店", "Prefecture": "東京都", "lat": 35.694436, "lon": 139.698603, "loc_type": "filming"}, {"FilmID": 66845, "Japanese_Title": "Dr．倫太郎", "English_Title": "Dr. Rintaro, Psychiatrist", "Year": 2015.0, "location": "Shinjuku, Tokyo, Japan", "Prefecture": "東京都", "lat": 35.6937975588517, "lon": 139.703440126944, "loc_type": "filming"}, {"FilmID": 66845, "Japanese_Title": "Dr．倫太郎", "English_Title": "Dr. Rintaro, Psychiatrist", "Year": 2015.0, "location": "花屋敷遊園地の中", "Prefecture": "東京都", "lat": 35.715285, "lon": 139.794544, "loc_type": "filming"}, {"FilmID": 66845, "Japanese_Title": "Dr．倫太郎", "English_Title": "Dr. Rintaro, Psychiatrist", "Year": 2015.0, "location": "センター北シンボル広場", "Prefecture": "神奈川県", "lat": 35.553611, "lon": 139.579519, "loc_type": "filming"}, {"FilmID": 66845, "Japanese_Title": "Dr．倫太郎", "English_Title": "Dr. Rintaro, Psychiatrist", "Year": 2015.0, "location": "モザイクモール港北・都筑阪急", "Prefecture": "神奈川県", "lat": 35.554997, "lon": 139.577903, "loc_type": "filming"}, {"FilmID": 66845, "Japanese_Title": "Dr．倫太郎", "English_Title": "Dr. Rintaro, Psychiatrist", "Year": 2015.0, "location": "横浜市営地下鉄 センター北駅", "Prefecture": "神奈川県", "lat": 35.553436, "lon": 139.578425, "loc_type": "filming"}, {"FilmID": 66845, "Japanese_Title": "Dr．倫太郎", "English_Title": "Dr. Rintaro, Psychiatrist", "Year": 2015.0, "location": "中国式ソフト整体院", "Prefecture": "東京都", "lat": 35.762589, "lon": 139.727248, "loc_type": "filming"}, {"FilmID": 66845, "Japanese_Title": "Dr．倫太郎", "English_Title": "Dr. Rintaro, Psychiatrist", "Year": 2015.0, "location": "港町架道橋", "Prefecture": "東京都", "lat": 35.653181, "lon": 139.757122, "loc_type": "filming"}, {"FilmID": 66845, "Japanese_Title": "Dr．倫太郎", "English_Title": "Dr. Rintaro, Psychiatrist", "Year": 2015.0, "location": "民家", "Prefecture": "宮城県", "lat": 35.645828, "lon": 139.7075947, "loc_type": "filming"}, {"FilmID": 66845, "Japanese_Title": "Dr．倫太郎", "English_Title": "Dr. Rintaro, Psychiatrist", "Year": 2015.0, "location": "葉山テラス", "Prefecture": "神奈川県", "lat": 35.247075, "lon": 139.593797, "loc_type": "filming"}, {"FilmID": 66845, "Japanese_Title": "Dr．倫太郎", "English_Title": "Dr. Rintaro, Psychiatrist", "Year": 2015.0, "location": "久留和海水浴場", "Prefecture": "神奈川県", "lat": 35.247159, "lon": 139.592208, "loc_type": "filming"}, {"FilmID": 66845, "Japanese_Title": "Dr．倫太郎", "English_Title": "Dr. Rintaro, Psychiatrist", "Year": 2015.0, "location": "御苑 炉庵", "Prefecture": "東京都", "lat": 35.689783, "lon": 139.709817, "loc_type": "filming"}, {"FilmID": 66845, "Japanese_Title": "Dr．倫太郎", "English_Title": "Dr. Rintaro, Psychiatrist", "Year": 2015.0, "location": "日本テレビ", "Prefecture": "東京都", "lat": 35.6643132, "lon": 139.7598181, "loc_type": "filming"}, {"FilmID": 66845, "Japanese_Title": "Dr．倫太郎", "English_Title": "Dr. Rintaro, Psychiatrist", "Year": 2015.0, "location": "上池台小池公園", "Prefecture": "東京都", "lat": 35.599106, "lon": 139.696997, "loc_type": "filming"}, {"FilmID": 66845, "Japanese_Title": "Dr．倫太郎", "English_Title": "Dr. Rintaro, Psychiatrist", "Year": 2015.0, "location": "洗足池駅", "Prefecture": "東京都", "lat": 35.599907, "lon": 139.691393, "loc_type": "filming"}, {"FilmID": 66845, "Japanese_Title": "Dr．倫太郎", "English_Title": "Dr. Rintaro, Psychiatrist", "Year": 2015.0, "location": "小池公園付近の坂道", "Prefecture": "東京都", "lat": 35.59849, "lon": 139.698178, "loc_type": "filming"}, {"FilmID": 66845, "Japanese_Title": "Dr．倫太郎", "English_Title": "Dr. Rintaro, Psychiatrist", "Year": 2015.0, "location": "温故学会会館", "Prefecture": "東京都", "lat": 35.654331, "lon": 139.711395, "loc_type": "filming"}, {"FilmID": 66845, "Japanese_Title": "Dr．倫太郎", "English_Title": "Dr. Rintaro, Psychiatrist", "Year": 2015.0, "location": "城南島海浜公園", "Prefecture": "東京都", "lat": 35.579167, "lon": 139.784797, "loc_type": "filming"}, {"FilmID": 66845, "Japanese_Title": "Dr．倫太郎", "English_Title": "Dr. Rintaro, Psychiatrist", "Year": 2015.0, "location": "からくり櫓付近の人形町通り", "Prefecture": "東京都", "lat": 35.68479, "lon": 139.783819, "loc_type": "filming"}, {"FilmID": 66845, "Japanese_Title": "Dr．倫太郎", "English_Title": "Dr. Rintaro, Psychiatrist", "Year": 2015.0, "location": "Fuchu, Tokyo, Japan", "Prefecture": "東京都", "lat": 35.66898123218, "lon": 139.477707161217, "loc_type": "filming"}, {"FilmID": 66890, "Japanese_Title": "天使のナイフ", "English_Title": null, "Year": 2015.0, "location": "ファミール富岡A", "Prefecture": "栃木県", "lat": 36.311252, "lon": 139.595718, "loc_type": "filming"}, {"FilmID": 66890, "Japanese_Title": "天使のナイフ", "English_Title": null, "Year": 2015.0, "location": "ザ・モール505", "Prefecture": "茨城県", "lat": 36.080669, "lon": 140.205742, "loc_type": "filming"}, {"FilmID": 66890, "Japanese_Title": "天使のナイフ", "English_Title": null, "Year": 2015.0, "location": "Shinjuku", "Prefecture": "東京都", "lat": 35.692363, "lon": 139.7011337, "loc_type": "filming"}, {"FilmID": 66890, "Japanese_Title": "天使のナイフ", "English_Title": null, "Year": 2015.0, "location": "モンマルトル", "Prefecture": "Overseas", "lat": 48.8861929, "lon": 2.3430895, "loc_type": "filming"}, {"FilmID": 66890, "Japanese_Title": "天使のナイフ", "English_Title": null, "Year": 2015.0, "location": "天鷹寺", "Prefecture": "栃木県", "lat": 36.330641, "lon": 139.587509, "loc_type": "filming"}, {"FilmID": 66890, "Japanese_Title": "天使のナイフ", "English_Title": null, "Year": 2015.0, "location": "溜池", "Prefecture": "東京都", "lat": 35.67118, "lon": 139.739261, "loc_type": "filming"}, {"FilmID": 66890, "Japanese_Title": "天使のナイフ", "English_Title": null, "Year": 2015.0, "location": "ニチイ学館本社ビル", "Prefecture": "東京都", "lat": 35.700452, "lon": 139.759248, "loc_type": "filming"}, {"FilmID": 66890, "Japanese_Title": "天使のナイフ", "English_Title": null, "Year": 2015.0, "location": "サンボルト", "Prefecture": "東京都", "lat": 35.734239, "lon": 139.847572, "loc_type": "filming"}, {"FilmID": 66890, "Japanese_Title": "天使のナイフ", "English_Title": null, "Year": 2015.0, "location": "朝日森天満宮", "Prefecture": "栃木県", "lat": 36.321133, "lon": 139.573782, "loc_type": "filming"}, {"FilmID": 66890, "Japanese_Title": "天使のナイフ", "English_Title": null, "Year": 2015.0, "location": "島郷海水浴場", "Prefecture": "静岡県", "lat": 35.065864, "lon": 138.876175, "loc_type": "filming"}, {"FilmID": 66890, "Japanese_Title": "天使のナイフ", "English_Title": null, "Year": 2015.0, "location": "航空公園駅前交差点", "Prefecture": "埼玉県", "lat": 35.799472, "lon": 139.467012, "loc_type": "filming"}, {"FilmID": 66890, "Japanese_Title": "天使のナイフ", "English_Title": null, "Year": 2015.0, "location": "所沢航空記念公園", "Prefecture": "埼玉県", "lat": 35.798142, "lon": 139.475694, "loc_type": "filming"}, {"FilmID": 66890, "Japanese_Title": "天使のナイフ", "English_Title": null, "Year": 2015.0, "location": "第二あづま荘", "Prefecture": "埼玉県", "lat": 35.793868, "lon": 139.485855, "loc_type": "filming"}, {"FilmID": 66890, "Japanese_Title": "天使のナイフ", "English_Title": null, "Year": 2015.0, "location": "靴下売場", "Prefecture": "東京都", "lat": 35.7309591, "lon": 139.71248, "loc_type": "filming"}, {"FilmID": 66890, "Japanese_Title": "天使のナイフ", "English_Title": null, "Year": 2015.0, "location": "Saitama Superarena, Chuo-ku, Saitama City, Saitama, Japan", "Prefecture": "埼玉県", "lat": 35.8950696170503, "lon": 139.630779596947, "loc_type": "filming"}, {"FilmID": 66890, "Japanese_Title": "天使のナイフ", "English_Title": null, "Year": 2015.0, "location": "葛西臨海公園", "Prefecture": "東京都", "lat": 35.643928, "lon": 139.857092, "loc_type": "filming"}, {"FilmID": 66890, "Japanese_Title": "天使のナイフ", "English_Title": null, "Year": 2015.0, "location": "Tokyo", "Prefecture": "東京都", "lat": 35.689488, "lon": 139.691706, "loc_type": "filming"}, {"FilmID": 66890, "Japanese_Title": "天使のナイフ", "English_Title": null, "Year": 2015.0, "location": "aquaQUEST", "Prefecture": "東京都", "lat": 35.732076, "lon": 139.738273, "loc_type": "filming"}, {"FilmID": 66890, "Japanese_Title": "天使のナイフ", "English_Title": null, "Year": 2015.0, "location": "（大宮氷川神社", "Prefecture": "埼玉県", "lat": 35.9165147, "lon": 139.6298936, "loc_type": "filming"}, {"FilmID": 66890, "Japanese_Title": "天使のナイフ", "English_Title": null, "Year": 2015.0, "location": "島田市立金谷中学校", "Prefecture": "静岡県", "lat": 34.83203, "lon": 138.124376, "loc_type": "filming"}, {"FilmID": 66890, "Japanese_Title": "天使のナイフ", "English_Title": null, "Year": 2015.0, "location": "両替町通り", "Prefecture": "静岡県", "lat": 34.97405, "lon": 138.381498, "loc_type": "filming"}, {"FilmID": 66890, "Japanese_Title": "天使のナイフ", "English_Title": null, "Year": 2015.0, "location": "コンコルド広場", "Prefecture": "Overseas", "lat": 34.9739232, "lon": 138.3857176, "loc_type": "filming"}, {"FilmID": 66890, "Japanese_Title": "天使のナイフ", "English_Title": null, "Year": 2015.0, "location": "同・駅前", "Prefecture": "東京都", "lat": 35.666414, "lon": 139.7592633, "loc_type": "filming"}, {"FilmID": 66890, "Japanese_Title": "天使のナイフ", "English_Title": null, "Year": 2015.0, "location": "nonsense shimokitazawa", "Prefecture": "東京都", "lat": 35.65562, "lon": 139.667373, "loc_type": "filming"}, {"FilmID": 66890, "Japanese_Title": "天使のナイフ", "English_Title": null, "Year": 2015.0, "location": "西武デパート裏駐車場", "Prefecture": "東京都", "lat": 35.786018, "lon": 139.472175, "loc_type": "filming"}, {"FilmID": 66890, "Japanese_Title": "天使のナイフ", "English_Title": null, "Year": 2015.0, "location": "飯田橋・警察病院", "Prefecture": "東京都", "lat": 35.7089939, "lon": 139.6594383, "loc_type": "filming"}, {"FilmID": 66101, "Japanese_Title": "天才柳沢教授の生活", "English_Title": null, "Year": 2002.0, "location": "目黒通り", "Prefecture": "東京都", "lat": 35.631661, "lon": 139.706167, "loc_type": "filming"}, {"FilmID": 66101, "Japanese_Title": "天才柳沢教授の生活", "English_Title": null, "Year": 2002.0, "location": "立教大学", "Prefecture": "東京都", "lat": 35.730675, "lon": 139.703992, "loc_type": "filming"}, {"FilmID": 66101, "Japanese_Title": "天才柳沢教授の生活", "English_Title": null, "Year": 2002.0, "location": "アットベーネ", "Prefecture": "東京都", "lat": 35.648503, "lon": 139.677378, "loc_type": "filming"}, {"FilmID": 66101, "Japanese_Title": "天才柳沢教授の生活", "English_Title": null, "Year": 2002.0, "location": "川島商店街", "Prefecture": "東京都", "lat": 35.688344, "lon": 139.675164, "loc_type": "filming"}, {"FilmID": 66101, "Japanese_Title": "天才柳沢教授の生活", "English_Title": null, "Year": 2002.0, "location": "小沢牛乳店", "Prefecture": "東京都", "lat": 35.610578, "lon": 139.644836, "loc_type": "filming"}, {"FilmID": 66101, "Japanese_Title": "天才柳沢教授の生活", "English_Title": null, "Year": 2002.0, "location": "関東鉄道常総線新守谷駅", "Prefecture": "茨城県", "lat": 35.966539, "lon": 139.985736, "loc_type": "filming"}, {"FilmID": 5464, "Japanese_Title": "一人息子", "English_Title": "Hitori musuko (1936)", "Year": 1936.0, "location": "西塩田", "Prefecture": "愛知県", "lat": 34.7536281, "lon": 137.419095, "loc_type": "filming"}, {"FilmID": 5464, "Japanese_Title": "一人息子", "English_Title": "Hitori musuko (1936)", "Year": 1936.0, "location": "笠原工業", "Prefecture": "群馬県", "lat": 36.2257623, "lon": 139.5352191, "loc_type": "filming"}, {"FilmID": 68891, "Japanese_Title": "竜馬がゆく", "English_Title": "Ryûma ga yuku", "Year": 1982.0, "location": "清水寺", "Prefecture": "京都府", "lat": 34.9948561, "lon": 135.7850463, "loc_type": "filming"}, {"FilmID": 4831, "Japanese_Title": "ひとごろし", "English_Title": "Murderer!", "Year": 1976.0, "location": "大堰川", "Prefecture": "群馬県", "lat": 36.4382633, "lon": 139.0683064, "loc_type": "filming"}, {"FilmID": 68891, "Japanese_Title": "竜馬がゆく", "English_Title": "Ryûma ga yuku", "Year": 1982.0, "location": "二条城", "Prefecture": "京都府", "lat": 35.0140076, "lon": 135.7485369, "loc_type": "filming"}, {"FilmID": 68891, "Japanese_Title": "竜馬がゆく", "English_Title": "Ryûma ga yuku", "Year": 1982.0, "location": "化野念仏寺", "Prefecture": "京都府", "lat": 35.026772, "lon": 135.664512, "loc_type": "filming"}, {"FilmID": 4831, "Japanese_Title": "ひとごろし", "English_Title": "Murderer!", "Year": 1976.0, "location": "仁和寺　1989年以前", "Prefecture": "京都府", "lat": 35.0314, "lon": 135.7133, "loc_type": "filming"}, {"FilmID": 4831, "Japanese_Title": "ひとごろし", "English_Title": "Murderer!", "Year": 1976.0, "location": "今宮神社　1989年以前", "Prefecture": "京都府", "lat": 35.0453, "lon": 135.7428, "loc_type": "filming"}, {"FilmID": 4831, "Japanese_Title": "ひとごろし", "English_Title": "Murderer!", "Year": 1976.0, "location": "彦根城", "Prefecture": "滋賀県", "lat": 35.276452, "lon": 136.251846, "loc_type": "filming"}, {"FilmID": 4831, "Japanese_Title": "ひとごろし", "English_Title": "Murderer!", "Year": 1976.0, "location": "北嵯峨農地周辺", "Prefecture": "京都府", "lat": 35.034, "lon": 135.666, "loc_type": "filming"}, {"FilmID": 4831, "Japanese_Title": "ひとごろし", "English_Title": "Murderer!", "Year": 1976.0, "location": "琵琶湖", "Prefecture": "滋賀県", "lat": 35.3456394, "lon": 136.1709012, "loc_type": "filming"}, {"FilmID": 4831, "Japanese_Title": "ひとごろし", "English_Title": "Murderer!", "Year": 1976.0, "location": "建仁寺", "Prefecture": "京都府", "lat": 35.0002572, "lon": 135.7737408, "loc_type": "filming"}, {"FilmID": 4831, "Japanese_Title": "ひとごろし", "English_Title": "Murderer!", "Year": 1976.0, "location": "大内辻堂と周辺", "Prefecture": "京都府", "lat": 35.015, "lon": 135.67, "loc_type": "filming"}, {"FilmID": 5463, "Japanese_Title": "一人息子", "English_Title": "The Only Son", "Year": 1987.0, "location": "旧西塩田小学校", "Prefecture": "京都府", "lat": 34.940732, "lon": 135.772106, "loc_type": "filming"}, {"FilmID": 68891, "Japanese_Title": "竜馬がゆく", "English_Title": "Ryûma ga yuku", "Year": 1982.0, "location": "旧グラバー住宅〔グラバー園〕", "Prefecture": "長崎県", "lat": 32.7337, "lon": 129.8683, "loc_type": "filming"}, {"FilmID": 4557, "Japanese_Title": "お嬢さん", "English_Title": "Young Lady", "Year": 1930.0, "location": "東京", "Prefecture": "東京都", "lat": 35.6896286010742, "lon": 139.6917724609375, "loc_type": "filming"}, {"FilmID": 54362, "Japanese_Title": "お茶漬の味", "English_Title": "Ochazuke no aji (1952)", "Year": 1952.0, "location": "東京", "Prefecture": "東京都", "lat": 35.6896286010742, "lon": 139.6917724609375, "loc_type": "filming"}, {"FilmID": 65377, "Japanese_Title": "めぞん一刻 完結篇", "English_Title": "Maison Ikkoku: The Final Chapter", "Year": 1988.0, "location": "東京", "Prefecture": "東京都", "lat": 35.6896286010742, "lon": 139.6917724609375, "loc_type": "filming"}, {"FilmID": 5464, "Japanese_Title": "一人息子", "English_Title": "Hitori musuko (1936)", "Year": 1936.0, "location": "東京", "Prefecture": "東京都", "lat": 35.6896286010742, "lon": 139.6917724609375, "loc_type": "filming"}, {"FilmID": 5464, "Japanese_Title": "一人息子", "English_Title": "Hitori musuko (1936)", "Year": 1936.0, "location": "長野県", "Prefecture": "岐阜県", "lat": 35.487491607666, "lon": 137.5006103515625, "loc_type": "filming"}, {"FilmID": 3999, "Japanese_Title": "和製喧嘩友達", "English_Title": "Wasei kenka tomodachi (1929)", "Year": 1929.0, "location": "東京", "Prefecture": "東京都", "lat": 35.6896286010742, "lon": 139.6917724609375, "loc_type": "filming"}, {"FilmID": 4069, "Japanese_Title": "大学は出たけれど", "English_Title": "Daigaku wa detakeredo (1929)", "Year": 1929.0, "location": "東京", "Prefecture": "東京都", "lat": 35.6896286010742, "lon": 139.6917724609375, "loc_type": "filming"},