{"generated": "2025-12-26T18:25:47.066392", "metadata": {"categories": {"ozu": {"name": "Yasujiro Ozu", "name_jp": "å°æ´¥å®‰äºŒéƒŽ", "film_count": 92, "location_count": 441, "color": "#e74c3c"}, "kurosawa": {"name": "Akira Kurosawa", "name_jp": "é»’æ¾¤æ˜Ž", "film_count": 380, "location_count": 2156, "color": "#3498db"}, "mizoguchi": {"name": "Kenji Mizoguchi", "name_jp": "æºå£å¥äºŒ", "film_count": 99, "location_count": 246, "color": "#2ecc71"}}}, "locations": [{"type": "Feature", "geometry": {"type": "Point", "coordinates": [135.772106, 34.940732]}, "properties": {"category": "ozu", "location_type": "filming", "film_title": "一人息子", "film_title_en": "Hitori musuko (1936)", "year": 1936.0, "location_name": "旧西塩田小学校", "prefecture": "京都府"}}, {"type": "Feature", "geometry": {"type": "Point", "coordinates": [139.691716, 35.689456]}, "properties": {"category": "ozu", "location_type": "filming", "film_title": "引越し夫婦", "film_title_en": "Couple on the Move", "year": 1928.0, "location_name": "Filmed at Shochiku-Kamata Studios, Tokyo, Japan （Now the Nissay Aromasquare Buiding in Kamata, Tokyo）", "prefecture": "東京都"}}, {"type": "Feature", "geometry": {"type": "Point", "coordinates": [139.691706, 35.689488]}, "properties": {"category": "ozu", "location_type": "filming", "film_title": "突貫小僧", "film_title_en": "A Straightforward Boy", "year": 1929.0, "location_name": "黒澤工場敷地内", "prefecture": "東京都"}}, {"type": "Feature", "geometry": {"type": "Point", "coordinates": [139.691706, 35.689488]}, "properties": {"category": "ozu", "location_type": "filming", "film_title": "東京の英雄", "film_title_en": "A Hero of Tokyo", "year": 1935.0, "location_name": "Tokyo", "prefecture": "東京都"}}, {"type": "Feature", "geometry": {"type": "Point", "coordinates": [139.691716, 35.689456]}, "properties": {"category": "ozu", "location_type": "filming", "film_title": "美人哀愁", "film_title_en": "Beauty's Sorrows", "year": 1931.0, "location_name": "Filmed at Shochiku-Kamata Studios, Tokyo, Japan （Now the Nissay Aromasquare Buiding in Kamata, Tokyo）", "prefecture": "東京都"}}, {"type": "Feature", "geometry": {"type": "Point", "coordinates": [139.691716, 35.689456]}, "properties": {"category": "ozu", "location_type": "filming", "film_title": "肉体美", "film_title_en": "Nikutaibi (1928)", "year": 1928.0, "location_name": "Filmed at Shochiku-Kamata Studios, Tokyo, Japan （Now the Nissay Aromasquare Buiding in Kamata, Tokyo）", "prefecture": "東京都"}}, {"type": "Feature", "geometry": {"type": "Point", "coordinates": [139.691706, 35.689488]}, "properties": {"category": "ozu", "location_type": "filming", "film_title": "戸田家の兄妹", "film_title_en": "The Brothers and Sisters of the Toda Family", "year": 1941.0, "location_name": "Chiyoda- ward and Shonan area 千代田区を舞台とした映画作品湘南を舞台とした映画作品", "prefecture": "東京都"}}, {"type": "Feature", "geometry": {"type": "Point", "coordinates": [139.538189, 35.353349]}, "properties": {"category": "ozu", "location_type": "filming", "film_title": "戸田家の兄妹", "film_title_en": "The Brothers and Sisters of the Toda Family", "year": 1941.0, "location_name": "Shochiku-Ofuna Studio, Ofuna, Kanagawa, Japan 大船撮影所,", "prefecture": "神奈川県"}}, {"type": "Feature", "geometry": {"type": "Point", "coordinates": [139.716, 35.5629]}, "properties": {"category": "ozu", "location_type": "filming", "film_title": "大学よいとこ", "film_title_en": "Daigaku yoitoko (1936)", "year": 1936.0, "location_name": "Shochiku-Kamata Studios, Japan", "prefecture": "東京都"}}, {"type": "Feature", "geometry": {"type": "Point", "coordinates": [139.716, 35.5629]}, "properties": {"category": "ozu", "location_type": "filming", "film_title": "非常線の女", "film_title_en": "Dragnet Girl", "year": 1933.0, "location_name": "Shochiku-Kamata Studios, Tokyo, Japan", "prefecture": "東京都"}}, {"type": "Feature", "geometry": {"type": "Point", "coordinates": [139.691716, 35.689456]}, "properties": {"category": "ozu", "location_type": "filming", "film_title": "若人の夢", "film_title_en": "Dreams of Youth", "year": 1928.0, "location_name": "Filmed at Shochiku-Kamata Studios, Tokyo, Japan （Now the Nissay Aromasquare Buiding in Kamata, Tokyo）", "prefecture": "東京都"}}, {"type": "Feature", "geometry": {"type": "Point", "coordinates": [139.691706, 35.689488]}, "properties": {"category": "ozu", "location_type": "filming", "film_title": "落第はしたけれど", "film_title_en": "Rakudai wa shitakeredo (1930)", "year": 1930.0, "location_name": "Tokyo,Japan", "prefecture": "東京都"}}, {"type": "Feature", "geometry": {"type": "Point", "coordinates": [139.691706, 35.689488]}, "properties": {"category": "ozu", "location_type": "filming", "film_title": "大人の見る繪本 生れてはみたけれど", "film_title_en": "Otona no miru ehon - Umarete wa mita keredo (1932)", "year": 1932.0, "location_name": "JR操車場西の原っぱ Somewhere west to JR switchyard", "prefecture": "東京都"}}, {"type": "Feature", "geometry": {"type": "Point", "coordinates": [139.691716, 35.689456]}, "properties": {"category": "ozu", "location_type": "filming", "film_title": "大人の見る繪本 生れてはみたけれど", "film_title_en": "Otona no miru ehon - Umarete wa mita keredo (1932)", "year": 1932.0, "location_name": "A道」in the website", "prefecture": "東京都"}}, {"type": "Feature", "geometry": {"type": "Point", "coordinates": [139.691716, 35.689456]}, "properties": {"category": "ozu", "location_type": "filming", "film_title": "大人の見る繪本 生れてはみたけれど", "film_title_en": "Otona no miru ehon - Umarete wa mita keredo (1932)", "year": 1932.0, "location_name": "線路沿いの道」in the website", "prefecture": "東京都"}}, {"type": "Feature", "geometry": {"type": "Point", "coordinates": [139.691706, 35.689488]}, "properties": {"category": "ozu", "location_type": "filming", "film_title": "大人の見る繪本 生れてはみたけれど", "film_title_en": "Otona no miru ehon - Umarete wa mita keredo (1932)", "year": 1932.0, "location_name": "踏切 a railroad crossing", "prefecture": "東京都"}}, {"type": "Feature", "geometry": {"type": "Point", "coordinates": [139.691706, 35.689488]}, "properties": {"category": "ozu", "location_type": "filming", "film_title": "大人の見る繪本 生れてはみたけれど", "film_title_en": "Otona no miru ehon - Umarete wa mita keredo (1932)", "year": 1932.0, "location_name": "通学路：御薗神社前 in front of Misono shrine", "prefecture": "東京都"}}, {"type": "Feature", "geometry": {"type": "Point", "coordinates": [139.691706, 35.689488]}, "properties": {"category": "ozu", "location_type": "filming", "film_title": "大人の見る繪本 生れてはみたけれど", "film_title_en": "Otona no miru ehon - Umarete wa mita keredo (1932)", "year": 1932.0, "location_name": "矢口尋常小学校", "prefecture": "東京都"}}, {"type": "Feature", "geometry": {"type": "Point", "coordinates": [140.402845, 37.125883]}, "properties": {"category": "ozu", "location_type": "filming", "film_title": "大人の見る繪本 生れてはみたけれど", "film_title_en": "Otona no miru ehon - Umarete wa mita keredo (1932)", "year": 1932.0, "location_name": "踏切", "prefecture": "東京都"}}, {"type": "Feature", "geometry": {"type": "Point", "coordinates": [139.691706, 35.689488]}, "properties": {"category": "ozu", "location_type": "filming", "film_title": "大人の見る繪本 生れてはみたけれど", "film_title_en": "Otona no miru ehon - Umarete wa mita keredo (1932)", "year": 1932.0, "location_name": "屋台の菓子屋の場面", "prefecture": "東京都"}}, {"type": "Feature", "geometry": {"type": "Point", "coordinates": [139.691706, 35.689488]}, "properties": {"category": "ozu", "location_type": "filming", "film_title": "大人の見る繪本 生れてはみたけれど", "film_title_en": "Otona no miru ehon - Umarete wa mita keredo (1932)", "year": 1932.0, "location_name": "交番前でのやり取りの空き地", "prefecture": "東京都"}}, {"type": "Feature", "geometry": {"type": "Point", "coordinates": [139.691706, 35.689488]}, "properties": {"category": "ozu", "location_type": "filming", "film_title": "大人の見る繪本 生れてはみたけれど", "film_title_en": "Otona no miru ehon - Umarete wa mita keredo (1932)", "year": 1932.0, "location_name": "駐在所 police box", "prefecture": "東京都"}}, {"type": "Feature", "geometry": {"type": "Point", "coordinates": [139.691706, 35.689488]}, "properties": {"category": "ozu", "location_type": "filming", "film_title": "大人の見る繪本 生れてはみたけれど", "film_title_en": "Otona no miru ehon - Umarete wa mita keredo (1932)", "year": 1932.0, "location_name": "上野西郷隆盛像 Takamori Saigo statue at Ueno", "prefecture": "東京都"}}, {"type": "Feature", "geometry": {"type": "Point", "coordinates": [139.691706, 35.689488]}, "properties": {"category": "ozu", "location_type": "filming", "film_title": "大人の見る繪本 生れてはみたけれど", "film_title_en": "Otona no miru ehon - Umarete wa mita keredo (1932)", "year": 1932.0, "location_name": "上野動物園正門 Ueno Zoo main gate", "prefecture": "東京都"}}, {"type": "Feature", "geometry": {"type": "Point", "coordinates": [139.691706, 35.689488]}, "properties": {"category": "ozu", "location_type": "filming", "film_title": "大人の見る繪本 生れてはみたけれど", "film_title_en": "Otona no miru ehon - Umarete wa mita keredo (1932)", "year": 1932.0, "location_name": "Kamata, Tokyo", "prefecture": "東京都"}}, {"type": "Feature", "geometry": {"type": "Point", "coordinates": [139.691716, 35.689456]}, "properties": {"category": "ozu", "location_type": "filming", "film_title": "一人息子", "film_title_en": "Hitori musuko (1936)", "year": 1936.0, "location_name": "Tokyo City Garbage Incineration Dump 東京市塵芥焼却場", "prefecture": "東京都"}}, {"type": "Feature", "geometry": {"type": "Point", "coordinates": [135.5001, 34.6626]}, "properties": {"category": "ozu", "location_type": "filming", "film_title": "一人息子", "film_title_en": "Hitori musuko (1936)", "year": 1936.0, "location_name": "上野駅Ueno Station", "prefecture": "東京都"}}, {"type": "Feature", "geometry": {"type": "Point", "coordinates": [135.5259, 34.6873]}, "properties": {"category": "ozu", "location_type": "filming", "film_title": "一人息子", "film_title_en": "Hitori musuko (1936)", "year": 1936.0, "location_name": "Eitai Bridge, Tokyo 永代橋", "prefecture": "東京都"}}, {"type": "Feature", "geometry": {"type": "Point", "coordinates": [139.691716, 35.689456]}, "properties": {"category": "ozu", "location_type": "filming", "film_title": "出来ごころ", "film_title_en": "Dekigokoro (1933)", "year": 1933.0, "location_name": "Furuishiba （古石場）, Tokyo", "prefecture": "東京都"}}, {"type": "Feature", "geometry": {"type": "Point", "coordinates": [139.691716, 35.689456]}, "properties": {"category": "ozu", "location_type": "filming", "film_title": "学生ロマンス 若き日", "film_title_en": "Student Romance: Days of Youth", "year": 1929.0, "location_name": "Filmed at Shochiku-Kamata Studios, Tokyo, Japan （Now the Nissay Aromasquare Buiding in Kamata, Tokyo）", "prefecture": "東京都"}}, {"type": "Feature", "geometry": {"type": "Point", "coordinates": [139.691706, 35.689488]}, "properties": {"category": "ozu", "location_type": "filming", "film_title": "その夜の妻", "film_title_en": "Sono yo no tsuma (1930)", "year": 1930.0, "location_name": "Probably 三井本館 Mitsuihonkan", "prefecture": "東京都"}}, {"type": "Feature", "geometry": {"type": "Point", "coordinates": [139.691706, 35.689488]}, "properties": {"category": "ozu", "location_type": "filming", "film_title": "その夜の妻", "film_title_en": "Sono yo no tsuma (1930)", "year": 1930.0, "location_name": "丸ノ内二丁目 Marunouchi 2", "prefecture": "東京都"}}, {"type": "Feature", "geometry": {"type": "Point", "coordinates": [139.642508, 35.447737]}, "properties": {"category": "ozu", "location_type": "filming", "film_title": "朗かに歩め", "film_title_en": "Hogaraka ni ayume (1930)", "year": 1930.0, "location_name": "Kamakura Daibutsu （Giant Buddha Statue） 鎌倉の大仏", "prefecture": "神奈川県"}}, {"type": "Feature", "geometry": {"type": "Point", "coordinates": [139.638026, 35.443708]}, "properties": {"category": "ozu", "location_type": "filming", "film_title": "朗かに歩め", "film_title_en": "Hogaraka ni ayume (1930)", "year": 1930.0, "location_name": "Yokohama Red Brick Storehouse 横浜赤レンガ倉庫前", "prefecture": "神奈川県"}}, {"type": "Feature", "geometry": {"type": "Point", "coordinates": [139.691706, 35.689488]}, "properties": {"category": "ozu", "location_type": "filming", "film_title": "東京の女", "film_title_en": "Woman of Tokyo", "year": 1933.0, "location_name": "Sunamachi, Tokyo 砂町", "prefecture": "東京都"}}, {"type": "Feature", "geometry": {"type": "Point", "coordinates": [139.271495, 36.655227]}, "properties": {"category": "ozu", "location_type": "filming", "film_title": "東京物語", "film_title_en": "Tokyo Story", "year": 1953.0, "location_name": "Japan", "prefecture": "群馬県"}}, {"type": "Feature", "geometry": {"type": "Point", "coordinates": [139.556367, 35.326146]}, "properties": {"category": "ozu", "location_type": "filming", "film_title": "晩春", "film_title_en": "Banshun (1949)", "year": 1949.0, "location_name": "Tsurugaoka Hachimangū - Kamakura, Kanagawa Prefecture", "prefecture": "神奈川県"}}, {"type": "Feature", "geometry": {"type": "Point", "coordinates": [139.071729, 35.096358]}, "properties": {"category": "ozu", "location_type": "filming", "film_title": "東京物語", "film_title_en": "Tokyo Story", "year": 1953.0, "location_name": "Atami, Shizuoka, Japan", "prefecture": "静岡県"}}, {"type": "Feature", "geometry": {"type": "Point", "coordinates": [135.502162, 34.693726]}, "properties": {"category": "ozu", "location_type": "filming", "film_title": "小早川家の秋", "film_title_en": "The End of Summer", "year": 1961.0, "location_name": "Osaka, Japan", "prefecture": "大阪府"}}, {"type": "Feature", "geometry": {"type": "Point", "coordinates": [138.207028, 36.806306]}, "properties": {"category": "ozu", "location_type": "filming", "film_title": "一人息子", "film_title_en": "Hitori musuko (1936)", "year": 1936.0, "location_name": "Shinano", "prefecture": "長野県"}}, {"type": "Feature", "geometry": {"type": "Point", "coordinates": [140.313899, 30.485109]}, "properties": {"category": "ozu", "location_type": "filming", "film_title": "東京物語", "film_title_en": "Tokyo Story", "year": 1953.0, "location_name": "Tokyo Bay, Japan", "prefecture": "東京都"}}, {"type": "Feature", "geometry": {"type": "Point", "coordinates": [138.727778, 35.360556]}, "properties": {"category": "ozu", "location_type": "filming", "film_title": "東京物語", "film_title_en": "Tokyo Story", "year": 1953.0, "location_name": "Shizuoka Prefecture", "prefecture": "静岡県"}}, {"type": "Feature", "geometry": {"type": "Point", "coordinates": [139.271495, 36.655227]}, "properties": {"category": "ozu", "location_type": "filming", "film_title": "大人の見る繪本 生れてはみたけれど", "film_title_en": "Otona no miru ehon - Umarete wa mita keredo (1932)", "year": 1932.0, "location_name": "Japan", "prefecture": "群馬県"}}, {"type": "Feature", "geometry": {"type": "Point", "coordinates": [139.271495, 36.655227]}, "properties": {"category": "ozu", "location_type": "filming", "film_title": "秋刀魚の味", "film_title_en": "An Autumn Afternoon", "year": 1962.0, "location_name": "Japan", "prefecture": "群馬県"}}, {"type": "Feature", "geometry": {"type": "Point", "coordinates": [139.691706, 35.689488]}, "properties": {"category": "ozu", "location_type": "filming", "film_title": "お早よう", "film_title_en": "Good Morning", "year": 1959.0, "location_name": "Tokyo", "prefecture": "東京都"}}, {"type": "Feature", "geometry": {"type": "Point", "coordinates": [139.691706, 35.689488]}, "properties": {"category": "ozu", "location_type": "filming", "film_title": "大人の見る繪本 生れてはみたけれど", "film_title_en": "Otona no miru ehon - Umarete wa mita keredo (1932)", "year": 1932.0, "location_name": "Tokyo", "prefecture": "東京都"}}, {"type": "Feature", "geometry": {"type": "Point", "coordinates": [139.764171, 35.672588]}, "properties": {"category": "ozu", "location_type": "filming", "film_title": "東京物語", "film_title_en": "Tokyo Story", "year": 1953.0, "location_name": "Ginza, Chuo, Tokyo, Japan", "prefecture": "東京都"}}, {"type": "Feature", "geometry": {"type": "Point", "coordinates": [139.767169, 35.666819]}, "properties": {"category": "ozu", "location_type": "filming", "film_title": "東京物語", "film_title_en": "Tokyo Story", "year": 1953.0, "location_name": "Ginza Shopping District", "prefecture": "東京都"}}, {"type": "Feature", "geometry": {"type": "Point", "coordinates": [135.502162, 34.693726]}, "properties": {"category": "ozu", "location_type": "filming", "film_title": "東京物語", "film_title_en": "Tokyo Story", "year": 1953.0, "location_name": "Osaka, Japan", "prefecture": "大阪府"}}, {"type": "Feature", "geometry": {"type": "Point", "coordinates": [139.691706, 35.689488]}, "properties": {"category": "ozu", "location_type": "filming", "film_title": "一人息子", "film_title_en": "Hitori musuko (1936)", "year": 1936.0, "location_name": "Tokyo", "prefecture": "東京都"}}, {"type": "Feature", "geometry": {"type": "Point", "coordinates": [139.271495, 36.655227]}, "properties": {"category": "ozu", "location_type": "filming", "film_title": "東京暮色", "film_title_en": "Tokyo Twilight", "year": 1957.0, "location_name": "Japan", "prefecture": "群馬県"}}, {"type": "Feature", "geometry": {"type": "Point", "coordinates": [139.271495, 36.655227]}, "properties": {"category": "ozu", "location_type": "filming", "film_title": "麥秋", "film_title_en": "Early Summer", "year": 1951.0, "location_name": "Japan", "prefecture": "群馬県"}}, {"type": "Feature", "geometry": {"type": "Point", "coordinates": [139.271495, 36.655227]}, "properties": {"category": "ozu", "location_type": "filming", "film_title": "父ありき", "film_title_en": "There Was a Father", "year": 1942.0, "location_name": "Japan", "prefecture": "群馬県"}}, {"type": "Feature", "geometry": {"type": "Point", "coordinates": [139.271495, 36.655227]}, "properties": {"category": "ozu", "location_type": "filming", "film_title": "風の中の牝鶏", "film_title_en": "Kaze no naka no mendori (1948)", "year": 1948.0, "location_name": "Japan", "prefecture": "群馬県"}}, {"type": "Feature", "geometry": {"type": "Point", "coordinates": [139.271495, 36.655227]}, "properties": {"category": "ozu", "location_type": "filming", "film_title": "長屋紳士録", "film_title_en": "Nagaya shinshiroku (1947)", "year": 1947.0, "location_name": "Japan", "prefecture": "群馬県"}}, {"type": "Feature", "geometry": {"type": "Point", "coordinates": [139.271495, 36.655227]}, "properties": {"category": "ozu", "location_type": "filming", "film_title": "浮草", "film_title_en": "Ukikusa (1959)", "year": 1959.0, "location_name": "Japan", "prefecture": "群馬県"}}, {"type": "Feature", "geometry": {"type": "Point", "coordinates": [136.910917, 36.109198]}, "properties": {"category": "ozu", "location_type": "filming", "film_title": "一人息子", "film_title_en": "Hitori musuko (1936)", "year": 1936.0, "location_name": "Shinano Province", "prefecture": "岐阜県"}}, {"type": "Feature", "geometry": {"type": "Point", "coordinates": [132.55107, 34.24821]}, "properties": {"category": "ozu", "location_type": "filming", "film_title": "東京物語", "film_title_en": "Tokyo Story", "year": 1953.0, "location_name": "Hiroshima-ken", "prefecture": "広島県"}}, {"type": "Feature", "geometry": {"type": "Point", "coordinates": [132.853553, 34.810581]}, "properties": {"category": "ozu", "location_type": "filming", "film_title": "東京物語", "film_title_en": "Tokyo Story", "year": 1953.0, "location_name": "Miyoshi, Hiroshima Prefecture", "prefecture": "広島県"}}, {"type": "Feature", "geometry": {"type": "Point", "coordinates": [133.200643, 34.409903]}, "properties": {"category": "ozu", "location_type": "filming", "film_title": "東京物語", "film_title_en": "Tokyo Story", "year": 1953.0, "location_name": "Onomichi, Hiroshima Prefecture", "prefecture": "広島県"}}, {"type": "Feature", "geometry": {"type": "Point", "coordinates": [133.209845, 34.413146]}, "properties": {"category": "ozu", "location_type": "filming", "film_title": "東京物語", "film_title_en": "Tokyo Story", "year": 1953.0, "location_name": "Onomichi-shi, Hiroshima-ken", "prefecture": "広島県"}}, {"type": "Feature", "geometry": {"type": "Point", "coordinates": [139.691706, 35.689488]}, "properties": {"category": "ozu", "location_type": "filming", "film_title": "晩春", "film_title_en": "Banshun (1949)", "year": 1949.0, "location_name": "Tokyo", "prefecture": "東京都"}}, {"type": "Feature", "geometry": {"type": "Point", "coordinates": [139.536154, 35.316699]}, "properties": {"category": "ozu", "location_type": "filming", "film_title": "父ありき", "film_title_en": "There Was a Father", "year": 1942.0, "location_name": "鎌倉大仏 鎌倉市長谷4-2-28 高徳院内 神奈川県鎌倉市", "prefecture": "神奈川県"}}, {"type": "Feature", "geometry": {"type": "Point", "coordinates": [139.038503, 35.21679]}, "properties": {"category": "ozu", "location_type": "filming", "film_title": "父ありき", "film_title_en": "There Was a Father", "year": 1942.0, "location_name": "曾我兄弟の墓 神奈川県足柄下郡箱根町 神奈川県足柄下郡箱根町", "prefecture": "神奈川県"}}, {"type": "Feature", "geometry": {"type": "Point", "coordinates": [139.030242, 35.203402]}, "properties": {"category": "ozu", "location_type": "filming", "film_title": "父ありき", "film_title_en": "There Was a Father", "year": 1942.0, "location_name": "宮ノ下と元箱根の間の国道1号。", "prefecture": "神奈川県"}}, {"type": "Feature", "geometry": {"type": "Point", "coordinates": [139.031121, 35.20006]}, "properties": {"category": "ozu", "location_type": "filming", "film_title": "父ありき", "film_title_en": "There Was a Father", "year": 1942.0, "location_name": "芦ノ湖と富士山 神奈川県足柄下郡箱根町 神奈川県足柄下郡箱根町", "prefecture": "神奈川県"}}, {"type": "Feature", "geometry": {"type": "Point", "coordinates": [139.106937, 35.232355]}, "properties": {"category": "ozu", "location_type": "filming", "film_title": "父ありき", "film_title_en": "There Was a Father", "year": 1942.0, "location_name": "六番桟橋 神奈川県足柄下郡箱根町", "prefecture": "神奈川県"}}, {"type": "Feature", "geometry": {"type": "Point", "coordinates": [139.642508, 35.447737]}, "properties": {"category": "ozu", "location_type": "filming", "film_title": "父ありき", "film_title_en": "There Was a Father", "year": 1942.0, "location_name": "芦ノ湖 神奈川県足柄下郡箱根町", "prefecture": "神奈川県"}}, {"type": "Feature", "geometry": {"type": "Point", "coordinates": [139.030808, 35.201457]}, "properties": {"category": "ozu", "location_type": "filming", "film_title": "父ありき", "film_title_en": "There Was a Father", "year": 1942.0, "location_name": "賽ノ河原 箱根町元箱根 神奈川県足柄下郡箱根", "prefecture": "神奈川県"}}, {"type": "Feature", "geometry": {"type": "Point", "coordinates": [139.545256, 35.337246]}, "properties": {"category": "ozu", "location_type": "filming", "film_title": "晩春", "film_title_en": "Banshun (1949)", "year": 1949.0, "location_name": "JR北鎌倉駅 神奈川県鎌倉市山ノ内 神奈川県鎌倉市", "prefecture": "神奈川県"}}, {"type": "Feature", "geometry": {"type": "Point", "coordinates": [139.642508, 35.447737]}, "properties": {"category": "ozu", "location_type": "filming", "film_title": "晩春", "film_title_en": "Banshun (1949)", "year": 1949.0, "location_name": "北鎌倉駅プラットホーム 北鎌倉駅プラットフォーム （1） 神奈川県鎌倉市", "prefecture": "神奈川県"}}, {"type": "Feature", "geometry": {"type": "Point", "coordinates": [139.549009, 35.324258]}, "properties": {"category": "ozu", "location_type": "filming", "film_title": "晩春", "film_title_en": "Banshun (1949)", "year": 1949.0, "location_name": "壽福寺 鎌倉市扇ガ谷1-17-7 神奈川県鎌倉市", "prefecture": "神奈川県"}}, {"type": "Feature", "geometry": {"type": "Point", "coordinates": [139.545256, 35.337246]}, "properties": {"category": "ozu", "location_type": "filming", "film_title": "晩春", "film_title_en": "Banshun (1949)", "year": 1949.0, "location_name": "好々亭 鎌倉市山ノ内605 神奈川県鎌倉市", "prefecture": "神奈川県"}}, {"type": "Feature", "geometry": {"type": "Point", "coordinates": [139.642508, 35.447737]}, "properties": {"category": "ozu", "location_type": "filming", "film_title": "晩春", "film_title_en": "Banshun (1949)", "year": 1949.0, "location_name": "鎌倉駅プラットホーム （1） 鎌倉市小町 神奈川県鎌倉市", "prefecture": "神奈川県"}}, {"type": "Feature", "geometry": {"type": "Point", "coordinates": [139.642508, 35.447737]}, "properties": {"category": "ozu", "location_type": "filming", "film_title": "晩春", "film_title_en": "Banshun (1949)", "year": 1949.0, "location_name": "鎌倉駅プラットホーム （2） 神奈川県鎌倉市", "prefecture": "神奈川県"}}, {"type": "Feature", "geometry": {"type": "Point", "coordinates": [139.548978, 35.323539]}, "properties": {"category": "ozu", "location_type": "filming", "film_title": "晩春", "film_title_en": "Banshun (1949)", "year": 1949.0, "location_name": "扇ヶ谷トンネル 鎌倉市扇ガ谷 神奈川県鎌倉市", "prefecture": "神奈川県"}}, {"type": "Feature", "geometry": {"type": "Point", "coordinates": [139.475268, 35.313741]}, "properties": {"category": "ozu", "location_type": "filming", "film_title": "晩春", "film_title_en": "Banshun (1949)", "year": 1949.0, "location_name": "鵠沼海岸 神奈川県藤沢市鵠沼海岸一丁目 湘南海岸公園 神奈川県藤沢市", "prefecture": "神奈川県"}}, {"type": "Feature", "geometry": {"type": "Point", "coordinates": [139.765027, 35.67166]}, "properties": {"category": "ozu", "location_type": "filming", "film_title": "晩春", "film_title_en": "Banshun (1949)", "year": 1949.0, "location_name": "和光 東京都中央区銀座4-5-11 東京都中央区", "prefecture": "東京都"}}, {"type": "Feature", "geometry": {"type": "Point", "coordinates": [139.642508, 35.447737]}, "properties": {"category": "ozu", "location_type": "filming", "film_title": "晩春", "film_title_en": "Banshun (1949)", "year": 1949.0, "location_name": "鶴岡八幡宮 （1） 鎌倉市雪ノ下2-1-31 神奈川県鎌倉市", "prefecture": "神奈川県"}}, {"type": "Feature", "geometry": {"type": "Point", "coordinates": [139.642508, 35.447737]}, "properties": {"category": "ozu", "location_type": "filming", "film_title": "晩春", "film_title_en": "Banshun (1949)", "year": 1949.0, "location_name": "鶴岡八幡宮 （2） 神奈川県鎌倉市", "prefecture": "神奈川県"}}, {"type": "Feature", "geometry": {"type": "Point", "coordinates": [135.755579, 35.021251]}, "properties": {"category": "ozu", "location_type": "filming", "film_title": "晩春", "film_title_en": "Banshun (1949)", "year": 1949.0, "location_name": "八坂の塔 （1） 京都府京都市東山区清水八坂上町388 京都府京都市", "prefecture": "京都府"}}, {"type": "Feature", "geometry": {"type": "Point", "coordinates": [135.755579, 35.021251]}, "properties": {"category": "ozu", "location_type": "filming", "film_title": "晩春", "film_title_en": "Banshun (1949)", "year": 1949.0, "location_name": "八坂の塔 （2） 京都府京都市", "prefecture": "京都府"}}, {"type": "Feature", "geometry": {"type": "Point", "coordinates": [135.755579, 35.021251]}, "properties": {"category": "ozu", "location_type": "filming", "film_title": "晩春", "film_title_en": "Banshun (1949)", "year": 1949.0, "location_name": "清水寺附近の山 京都府京都市", "prefecture": "京都府"}}, {"type": "Feature", "geometry": {"type": "Point", "coordinates": [135.785046, 34.994856]}, "properties": {"category": "ozu", "location_type": "filming", "film_title": "晩春", "film_title_en": "Banshun (1949)", "year": 1949.0, "location_name": "清水寺 京都市東山区清水一丁目 京都府京都市", "prefecture": "京都府"}}, {"type": "Feature", "geometry": {"type": "Point", "coordinates": [135.755579, 35.021251]}, "properties": {"category": "ozu", "location_type": "filming", "film_title": "晩春", "film_title_en": "Banshun (1949)", "year": 1949.0, "location_name": "清水寺・奥の院 京都府京都市", "prefecture": "京都府"}}, {"type": "Feature", "geometry": {"type": "Point", "coordinates": [135.755579, 35.021251]}, "properties": {"category": "ozu", "location_type": "filming", "film_title": "晩春", "film_title_en": "Banshun (1949)", "year": 1949.0, "location_name": "竜安寺方丈庭園 （1） 竜安寺：京都市右京区竜安寺御陵下町13 京都府京都市", "prefecture": "京都府"}}, {"type": "Feature", "geometry": {"type": "Point", "coordinates": [135.755579, 35.021251]}, "properties": {"category": "ozu", "location_type": "filming", "film_title": "晩春", "film_title_en": "Banshun (1949)", "year": 1949.0, "location_name": "竜安寺方丈 （1） 京都府京都市", "prefecture": "京都府"}}, {"type": "Feature", "geometry": {"type": "Point", "coordinates": [135.755579, 35.021251]}, "properties": {"category": "ozu", "location_type": "filming", "film_title": "晩春", "film_title_en": "Banshun (1949)", "year": 1949.0, "location_name": "竜安寺方丈庭園 （2） 京都府京都市", "prefecture": "京都府"}}, {"type": "Feature", "geometry": {"type": "Point", "coordinates": [135.780837, 35.025994]}, "properties": {"category": "ozu", "location_type": "filming", "film_title": "宗方姉妹", "film_title_en": "The Munekata Sisters", "year": 1950.0, "location_name": "京都大学百周年時計台記念館 京都府京都市左京区吉田本町 京都府京都市左京区", "prefecture": "京都府"}}, {"type": "Feature", "geometry": {"type": "Point", "coordinates": [135.755579, 35.021251]}, "properties": {"category": "ozu", "location_type": "filming", "film_title": "宗方姉妹", "film_title_en": "The Munekata Sisters", "year": 1950.0, "location_name": "京都御苑 （1） 京都市上京区京都御苑 京都府京都市上京区", "prefecture": "京都府"}}, {"type": "Feature", "geometry": {"type": "Point", "coordinates": [135.762125, 35.025413]}, "properties": {"category": "ozu", "location_type": "filming", "film_title": "宗方姉妹", "film_title_en": "The Munekata Sisters", "year": 1950.0, "location_name": "京都御所", "prefecture": "京都府"}}, {"type": "Feature", "geometry": {"type": "Point", "coordinates": [135.756627, 35.029618]}, "properties": {"category": "ozu", "location_type": "filming", "film_title": "宗方姉妹", "film_title_en": "The Munekata Sisters", "year": 1950.0, "location_name": "京都府京都市上京区", "prefecture": "京都府"}}, {"type": "Feature", "geometry": {"type": "Point", "coordinates": [135.762125, 35.025413]}, "properties": {"category": "ozu", "location_type": "filming", "film_title": "宗方姉妹", "film_title_en": "The Munekata Sisters", "year": 1950.0, "location_name": "京都府京都市上京", "prefecture": "京都府"}}, {"type": "Feature", "geometry": {"type": "Point", "coordinates": [139.542248, 35.30929]}, "properties": {"category": "ozu", "location_type": "filming", "film_title": "麥秋", "film_title_en": "Early Summer", "year": 1951.0, "location_name": "由比ヶ浜 神奈川県鎌倉市由比ガ浜 神奈川県鎌倉市", "prefecture": "神奈川県"}}, {"type": "Feature", "geometry": {"type": "Point", "coordinates": [139.545256, 35.337246]}, "properties": {"category": "ozu", "location_type": "filming", "film_title": "麥秋", "film_title_en": "Early Summer", "year": 1951.0, "location_name": "北鎌倉駅 鎌倉市山ノ内 神奈川県鎌倉市", "prefecture": "神奈川県"}}, {"type": "Feature", "geometry": {"type": "Point", "coordinates": [139.642508, 35.447737]}, "properties": {"category": "ozu", "location_type": "filming", "film_title": "麥秋", "film_title_en": "Early Summer", "year": 1951.0, "location_name": "北鎌倉駅プラットホーム （1） 神奈川県鎌倉市", "prefecture": "神奈川県"}}, {"type": "Feature", "geometry": {"type": "Point", "coordinates": [139.642508, 35.447737]}, "properties": {"category": "ozu", "location_type": "filming", "film_title": "麥秋", "film_title_en": "Early Summer", "year": 1951.0, "location_name": "北鎌倉駅プラットホーム （2） 神奈川県鎌倉市", "prefecture": "神奈川県"}}, {"type": "Feature", "geometry": {"type": "Point", "coordinates": [139.545256, 35.337246]}, "properties": {"category": "ozu", "location_type": "filming", "film_title": "麥秋", "film_title_en": "Early Summer", "year": 1951.0, "location_name": "北鎌倉附近の線路 鎌倉市山ノ内 神奈川県鎌倉市", "prefecture": "神奈川県"}}, {"type": "Feature", "geometry": {"type": "Point", "coordinates": [139.763604, 35.679943]}, "properties": {"category": "ozu", "location_type": "filming", "film_title": "麥秋", "film_title_en": "Early Summer", "year": 1951.0, "location_name": "三菱ビルと三菱重工ビル 三菱ビル：東京都千代田区丸の内2-5-2 東京都千代田区", "prefecture": "東京都"}}, {"type": "Feature", "geometry": {"type": "Point", "coordinates": [139.536154, 35.316699]}, "properties": {"category": "ozu", "location_type": "filming", "film_title": "麥秋", "film_title_en": "Early Summer", "year": 1951.0, "location_name": "鎌倉大仏 鎌倉市長谷4-2-28 高徳院内 神奈川県鎌倉市", "prefecture": "神奈川県"}}, {"type": "Feature", "geometry": {"type": "Point", "coordinates": [139.642508, 35.447737]}, "properties": {"category": "ozu", "location_type": "filming", "film_title": "麥秋", "film_title_en": "Early Summer", "year": 1951.0, "location_name": "大仏前 （2） 神奈川県鎌倉市", "prefecture": "神奈川県"}}, {"type": "Feature", "geometry": {"type": "Point", "coordinates": [139.767737, 35.669418]}, "properties": {"category": "ozu", "location_type": "filming", "film_title": "麥秋", "film_title_en": "Early Summer", "year": 1951.0, "location_name": "歌舞伎座 東京都中央区銀座4-12-15 東京都中央区", "prefecture": "東京都"}}, {"type": "Feature", "geometry": {"type": "Point", "coordinates": [139.776522, 35.718835]}, "properties": {"category": "ozu", "location_type": "filming", "film_title": "麥秋", "film_title_en": "Early Summer", "year": 1951.0, "location_name": "東京国立博物館本館 東京都台東区上野公園13-9 東京都台東区", "prefecture": "東京都"}}, {"type": "Feature", "geometry": {"type": "Point", "coordinates": [139.691716, 35.689456]}, "properties": {"category": "ozu", "location_type": "filming", "film_title": "麥秋", "film_title_en": "Early Summer", "year": 1951.0, "location_name": "東京国立博物館の庭 東京都台東区", "prefecture": "東京都"}}, {"type": "Feature", "geometry": {"type": "Point", "coordinates": [139.522274, 35.304303]}, "properties": {"category": "ozu", "location_type": "filming", "film_title": "麥秋", "film_title_en": "Early Summer", "year": 1951.0, "location_name": "稲村ヶ崎・国道134号 鎌倉市稲村ガ崎 神奈川県鎌倉市", "prefecture": "神奈川県"}}, {"type": "Feature", "geometry": {"type": "Point", "coordinates": [139.757264, 35.70261]}, "properties": {"category": "ozu", "location_type": "filming", "film_title": "麥秋", "film_title_en": "Early Summer", "year": 1951.0, "location_name": "昭和第一高等学校 東京都文京区本郷1-2-15 東京都千代田区", "prefecture": "東京都"}}, {"type": "Feature", "geometry": {"type": "Point", "coordinates": [139.76552, 35.698055]}, "properties": {"category": "ozu", "location_type": "filming", "film_title": "麥秋", "film_title_en": "Early Summer", "year": 1951.0, "location_name": "ニコライ堂 千代田区神田駿河台4-1-3 東京都千代田区", "prefecture": "東京都"}}, {"type": "Feature", "geometry": {"type": "Point", "coordinates": [139.554306, 35.322278]}, "properties": {"category": "ozu", "location_type": "filming", "film_title": "麥秋", "film_title_en": "Early Summer", "year": 1951.0, "location_name": "雪ノ下一丁目の路地 鎌倉市雪ノ下一丁目 神奈川県鎌倉市", "prefecture": "神奈川県"}}, {"type": "Feature", "geometry": {"type": "Point", "coordinates": [139.549009, 35.324258]}, "properties": {"category": "ozu", "location_type": "filming", "film_title": "麥秋", "film_title_en": "Early Summer", "year": 1951.0, "location_name": "庚申塔 鎌倉市扇ガ谷一丁目 壽福寺前 神奈川県鎌倉市", "prefecture": "神奈川県"}}, {"type": "Feature", "geometry": {"type": "Point", "coordinates": [139.642508, 35.447737]}, "properties": {"category": "ozu", "location_type": "filming", "film_title": "麥秋", "film_title_en": "Early Summer", "year": 1951.0, "location_name": "扇ヶ谷踏切 （1） 鎌倉市扇ガ谷一丁目 壽福寺前 神奈川県鎌倉市", "prefecture": "神奈川県"}}, {"type": "Feature", "geometry": {"type": "Point", "coordinates": [139.642508, 35.447737]}, "properties": {"category": "ozu", "location_type": "filming", "film_title": "麥秋", "film_title_en": "Early Summer", "year": 1951.0, "location_name": "丸の内八重洲ビル 千代田区丸の内2-6-2 神奈川県鎌倉市", "prefecture": "神奈川県"}}, {"type": "Feature", "geometry": {"type": "Point", "coordinates": [139.691716, 35.689456]}, "properties": {"category": "ozu", "location_type": "filming", "film_title": "麥秋", "film_title_en": "Early Summer", "year": 1951.0, "location_name": "古河総合ビル 千代田区丸の内2-6-1 東京都千代田", "prefecture": "東京都"}}, {"type": "Feature", "geometry": {"type": "Point", "coordinates": [138.935801, 34.969655]}, "properties": {"category": "ozu", "location_type": "filming", "film_title": "お茶漬の味", "film_title_en": "Ochazuke no aji (1952)", "year": 1952.0, "location_name": "修善寺・嵐山 静岡県伊豆市 静岡県伊豆市", "prefecture": "静岡県"}}, {"type": "Feature", "geometry": {"type": "Point", "coordinates": [138.926686, 34.970497]}, "properties": {"category": "ozu", "location_type": "filming", "film_title": "お茶漬の味", "film_title_en": "Ochazuke no aji (1952)", "year": 1952.0, "location_name": "新井旅館・花の棟 新井旅館：静岡県伊豆市修善寺970 静岡県伊豆市", "prefecture": "静岡県"}}, {"type": "Feature", "geometry": {"type": "Point", "coordinates": [138.382939, 34.976794]}, "properties": {"category": "ozu", "location_type": "filming", "film_title": "お茶漬の味", "film_title_en": "Ochazuke no aji (1952)", "year": 1952.0, "location_name": "新井旅館・桐の棟 静岡県伊豆市", "prefecture": "静岡県"}}, {"type": "Feature", "geometry": {"type": "Point", "coordinates": [138.382939, 34.976794]}, "properties": {"category": "ozu", "location_type": "filming", "film_title": "お茶漬の味", "film_title_en": "Ochazuke no aji (1952)", "year": 1952.0, "location_name": "新井旅館・青州楼 静岡県伊豆市", "prefecture": "静岡県"}}, {"type": "Feature", "geometry": {"type": "Point", "coordinates": [138.382939, 34.976794]}, "properties": {"category": "ozu", "location_type": "filming", "film_title": "お茶漬の味", "film_title_en": "Ochazuke no aji (1952)", "year": 1952.0, "location_name": "新井旅館・華の池 静岡県伊豆市", "prefecture": "静岡県"}}, {"type": "Feature", "geometry": {"type": "Point", "coordinates": [133.202851, 34.408175]}, "properties": {"category": "ozu", "location_type": "filming", "film_title": "東京物語", "film_title_en": "Tokyo Story", "year": 1953.0, "location_name": "住吉神社の大灯籠 広島県尾道市土堂2丁目10-12 広島県尾道市", "prefecture": "広島県"}}, {"type": "Feature", "geometry": {"type": "Point", "coordinates": [132.459619, 34.396576]}, "properties": {"category": "ozu", "location_type": "filming", "film_title": "東京物語", "film_title_en": "Tokyo Story", "year": 1953.0, "location_name": "山陽本線の線路 （1） 広島県尾道市 広島県尾道市", "prefecture": "広島県"}}, {"type": "Feature", "geometry": {"type": "Point", "coordinates": [132.459619, 34.396576]}, "properties": {"category": "ozu", "location_type": "filming", "film_title": "東京物語", "film_title_en": "Tokyo Story", "year": 1953.0, "location_name": "浄土寺の崖 広島県尾道市", "prefecture": "広島県"}}, {"type": "Feature", "geometry": {"type": "Point", "coordinates": [139.691716, 35.689456]}, "properties": {"category": "ozu", "location_type": "filming", "film_title": "東京物語", "film_title_en": "Tokyo Story", "year": 1953.0, "location_name": "東武伊勢崎線・堀切駅 （1） 東京都足立区千住曙町 東京都足立区", "prefecture": "東京都"}}, {"type": "Feature", "geometry": {"type": "Point", "coordinates": [139.691716, 35.689456]}, "properties": {"category": "ozu", "location_type": "filming", "film_title": "東京物語", "film_title_en": "Tokyo Story", "year": 1953.0, "location_name": "東武伊勢崎線・堀切駅 （2） 東京都足立区", "prefecture": "東京都"}}, {"type": "Feature", "geometry": {"type": "Point", "coordinates": [139.691716, 35.689456]}, "properties": {"category": "ozu", "location_type": "filming", "film_title": "東京物語", "film_title_en": "Tokyo Story", "year": 1953.0, "location_name": "東武伊勢崎線・堀切駅 （3） 東京都足立区", "prefecture": "東京都"}}, {"type": "Feature", "geometry": {"type": "Point", "coordinates": [139.769107, 35.683158]}, "properties": {"category": "ozu", "location_type": "filming", "film_title": "彼岸花", "film_title_en": "Higanbana (1958)", "year": 1958.0, "location_name": "JR東京駅 東京都千代田区丸の内1-9-1 東京都千代田区", "prefecture": "東京都"}}, {"type": "Feature", "geometry": {"type": "Point", "coordinates": [139.777139, 35.667344]}, "properties": {"category": "ozu", "location_type": "filming", "film_title": "彼岸花", "film_title_en": "Higanbana (1958)", "year": 1958.0, "location_name": "聖路加国際病院旧棟・表側 東京都中央区明石町9-1 東京都中央区", "prefecture": "東京都"}}, {"type": "Feature", "geometry": {"type": "Point", "coordinates": [139.772285, 35.666451]}, "properties": {"category": "ozu", "location_type": "filming", "film_title": "彼岸花", "film_title_en": "Higanbana (1958)", "year": 1958.0, "location_name": "築地本願寺 中央区築地3-15-1 東京都中央区", "prefecture": "東京都"}}, {"type": "Feature", "geometry": {"type": "Point", "coordinates": [139.777139, 35.667344]}, "properties": {"category": "ozu", "location_type": "filming", "film_title": "彼岸花", "film_title_en": "Higanbana (1958)", "year": 1958.0, "location_name": "聖路加国際病院旧棟・裏側 東京都中央区明石町9-1 東京都中央区", "prefecture": "東京都"}}, {"type": "Feature", "geometry": {"type": "Point", "coordinates": [139.642508, 35.447737]}, "properties": {"category": "ozu", "location_type": "filming", "film_title": "彼岸花", "film_title_en": "Higanbana (1958)", "year": 1958.0, "location_name": "箱根町役場箱根出張所の屋上 （1） 箱根町役場箱根出張所：神奈川県足柄下郡箱根町箱根1 神奈川県足柄下郡箱根町", "prefecture": "神奈川県"}}, {"type": "Feature", "geometry": {"type": "Point", "coordinates": [139.642508, 35.447737]}, "properties": {"category": "ozu", "location_type": "filming", "film_title": "彼岸花", "film_title_en": "Higanbana (1958)", "year": 1958.0, "location_name": "箱根町役場箱根出張所の屋上 （2） 神奈川県足柄下郡箱根町", "prefecture": "神奈川県"}}, {"type": "Feature", "geometry": {"type": "Point", "coordinates": [139.642508, 35.447737]}, "properties": {"category": "ozu", "location_type": "filming", "film_title": "彼岸花", "film_title_en": "Higanbana (1958)", "year": 1958.0, "location_name": "芦ノ湖 神奈川県足柄下郡箱根町", "prefecture": "神奈川県"}}, {"type": "Feature", "geometry": {"type": "Point", "coordinates": [137.231647, 34.810972]}, "properties": {"category": "ozu", "location_type": "filming", "film_title": "彼岸花", "film_title_en": "Higanbana (1958)", "year": 1958.0, "location_name": "竹島と灯籠 愛知県蒲郡市竹島町 愛知県蒲郡市", "prefecture": "愛知県"}}, {"type": "Feature", "geometry": {"type": "Point", "coordinates": [136.906739, 35.180226]}, "properties": {"category": "ozu", "location_type": "filming", "film_title": "彼岸花", "film_title_en": "Higanbana (1958)", "year": 1958.0, "location_name": "竹島橋 蒲郡市竹島町 愛知県蒲郡市", "prefecture": "愛知県"}}, {"type": "Feature", "geometry": {"type": "Point", "coordinates": [137.23269, 34.788956]}, "properties": {"category": "ozu", "location_type": "filming", "film_title": "彼岸花", "film_title_en": "Higanbana (1958)", "year": 1958.0, "location_name": "三河大島と小島 蒲郡市 愛知県蒲郡市", "prefecture": "愛知県"}}, {"type": "Feature", "geometry": {"type": "Point", "coordinates": [137.235943, 34.815829]}, "properties": {"category": "ozu", "location_type": "filming", "film_title": "彼岸花", "film_title_en": "Higanbana (1958)", "year": 1958.0, "location_name": "蒲郡プリンスホテル 蒲郡市竹島町15-1 愛知県蒲郡市", "prefecture": "愛知県"}}, {"type": "Feature", "geometry": {"type": "Point", "coordinates": [135.748706, 34.979892]}, "properties": {"category": "ozu", "location_type": "filming", "film_title": "彼岸花", "film_title_en": "Higanbana (1958)", "year": 1958.0, "location_name": "東寺の五重塔 京都府京都市南区九条町1番地 京都府京都市", "prefecture": "京都府"}}, {"type": "Feature", "geometry": {"type": "Point", "coordinates": [139.691716, 35.689456]}, "properties": {"category": "ozu", "location_type": "filming", "film_title": "東京物語", "film_title_en": "Tokyo Story", "year": 1953.0, "location_name": "荒川土手と物干し 東京都足立区", "prefecture": "東京都"}}, {"type": "Feature", "geometry": {"type": "Point", "coordinates": [139.81263, 35.745744]}, "properties": {"category": "ozu", "location_type": "filming", "film_title": "東京物語", "film_title_en": "Tokyo Story", "year": 1953.0, "location_name": "東京都足立区柳原一丁目 東京都足立区", "prefecture": "東京都"}}, {"type": "Feature", "geometry": {"type": "Point", "coordinates": [139.735551, 35.634051]}, "properties": {"category": "ozu", "location_type": "filming", "film_title": "秋日和", "film_title_en": "Late Autumn", "year": 1960.0, "location_name": "東禅寺 東京都港区高輪3-16-16 東京都港区", "prefecture": "東京都"}}, {"type": "Feature", "geometry": {"type": "Point", "coordinates": [139.791895, 35.682444]}, "properties": {"category": "ozu", "location_type": "filming", "film_title": "秋日和", "film_title_en": "Late Autumn", "year": 1960.0, "location_name": "清洲橋 東京都中央区日本橋中洲-江東区清澄二丁目 東京都中央区・江東区", "prefecture": "東京都"}}, {"type": "Feature", "geometry": {"type": "Point", "coordinates": [139.764946, 35.678545]}, "properties": {"category": "ozu", "location_type": "filming", "film_title": "秋日和", "film_title_en": "Late Autumn", "year": 1960.0, "location_name": "東京ビル 東京都千代田区丸の内2-7-2 東京都千代田区", "prefecture": "東京都"}}, {"type": "Feature", "geometry": {"type": "Point", "coordinates": [139.691716, 35.689456]}, "properties": {"category": "ozu", "location_type": "filming", "film_title": "秋日和", "film_title_en": "Late Autumn", "year": 1960.0, "location_name": "東京中央郵便局の駐車場 東京都千代田区", "prefecture": "東京都"}}, {"type": "Feature", "geometry": {"type": "Point", "coordinates": [139.691716, 35.689456]}, "properties": {"category": "ozu", "location_type": "filming", "film_title": "秋日和", "film_title_en": "Late Autumn", "year": 1960.0, "location_name": "東京中央郵便局 東京都千代田区", "prefecture": "東京都"}}, {"type": "Feature", "geometry": {"type": "Point", "coordinates": [139.81263, 35.745744]}, "properties": {"category": "ozu", "location_type": "filming", "film_title": "東京物語", "film_title_en": "Tokyo Story", "year": 1953.0, "location_name": "東京都足立区柳原一丁目", "prefecture": "東京都"}}, {"type": "Feature", "geometry": {"type": "Point", "coordinates": [135.747596, 34.981118]}, "properties": {"category": "ozu", "location_type": "filming", "film_title": "小早川家の秋", "film_title_en": "The End of Summer", "year": 1961.0, "location_name": "東寺の五重塔 東寺：京都府京都市南区九条町1 京都府京都市", "prefecture": "京都府"}}, {"type": "Feature", "geometry": {"type": "Point", "coordinates": [135.677758, 35.01288]}, "properties": {"category": "ozu", "location_type": "filming", "film_title": "小早川家の秋", "film_title_en": "The End of Summer", "year": 1961.0, "location_name": "渡月橋 京都市右京区 京都府京都市", "prefecture": "京都府"}}, {"type": "Feature", "geometry": {"type": "Point", "coordinates": [135.715205, 35.006987]}, "properties": {"category": "ozu", "location_type": "filming", "film_title": "小早川家の秋", "film_title_en": "The End of Summer", "year": 1961.0, "location_name": "保津川べりの街灯 京都市右京区 京都府京都", "prefecture": "京都府"}}, {"type": "Feature", "geometry": {"type": "Point", "coordinates": [139.097452, 35.035385]}, "properties": {"category": "ozu", "location_type": "filming", "film_title": "東京物語", "film_title_en": "Tokyo Story", "year": 1953.0, "location_name": "八幡山の眺め 静岡県熱海市 静岡県熱海市", "prefecture": "静岡県"}}, {"type": "Feature", "geometry": {"type": "Point", "coordinates": [139.071705, 35.096276]}, "properties": {"category": "ozu", "location_type": "filming", "film_title": "東京物語", "film_title_en": "Tokyo Story", "year": 1953.0, "location_name": "静岡県熱海市 静岡県熱海市", "prefecture": "静岡県"}}, {"type": "Feature", "geometry": {"type": "Point", "coordinates": [139.076949, 35.096147]}, "properties": {"category": "ozu", "location_type": "filming", "film_title": "東京物語", "film_title_en": "Tokyo Story", "year": 1953.0, "location_name": "静岡県熱海市", "prefecture": "静岡県"}}, {"type": "Feature", "geometry": {"type": "Point", "coordinates": [135.520017, 34.686339]}, "properties": {"category": "ozu", "location_type": "filming", "film_title": "東京物語", "film_title_en": "Tokyo Story", "year": 1953.0, "location_name": "大阪城天守閣 大阪府大阪市中央区大阪城1-1 大阪府大阪市中央区", "prefecture": "大阪府"}}, {"type": "Feature", "geometry": {"type": "Point", "coordinates": [133.210207, 34.411866]}, "properties": {"category": "ozu", "location_type": "filming", "film_title": "東京物語", "film_title_en": "Tokyo Story", "year": 1953.0, "location_name": "浄土寺の石塔 浄土寺境内 広島県尾道市", "prefecture": "広島県"}}, {"type": "Feature", "geometry": {"type": "Point", "coordinates": [132.459619, 34.396576]}, "properties": {"category": "ozu", "location_type": "filming", "film_title": "東京物語", "film_title_en": "Tokyo Story", "year": 1953.0, "location_name": "尾道水道と向島の眺め （1） 広島県尾道市 広島県尾道市", "prefecture": "広島県"}}, {"type": "Feature", "geometry": {"type": "Point", "coordinates": [133.202469, 34.407723]}, "properties": {"category": "ozu", "location_type": "filming", "film_title": "東京物語", "film_title_en": "Tokyo Story", "year": 1953.0, "location_name": "中央桟橋 広島県尾道市土堂2丁目 広島県尾道市", "prefecture": "広島県"}}, {"type": "Feature", "geometry": {"type": "Point", "coordinates": [133.210207, 34.411866]}, "properties": {"category": "ozu", "location_type": "filming", "film_title": "東京物語", "film_title_en": "Tokyo Story", "year": 1953.0, "location_name": "広島県尾道市東久保町20-28", "prefecture": "広島県"}}, {"type": "Feature", "geometry": {"type": "Point", "coordinates": [132.459619, 34.396576]}, "properties": {"category": "ozu", "location_type": "filming", "film_title": "東京物語", "film_title_en": "Tokyo Story", "year": 1953.0, "location_name": "福善寺墓地 （1） 広島県尾道市", "prefecture": "広島県"}}, {"type": "Feature", "geometry": {"type": "Point", "coordinates": [133.202958, 34.411986]}, "properties": {"category": "ozu", "location_type": "filming", "film_title": "東京物語", "film_title_en": "Tokyo Story", "year": 1953.0, "location_name": "福善寺 広島県尾道市長江1丁目9-1 広島県尾道市", "prefecture": "広島県"}}, {"type": "Feature", "geometry": {"type": "Point", "coordinates": [133.209807, 34.412922]}, "properties": {"category": "ozu", "location_type": "filming", "film_title": "東京物語", "film_title_en": "Tokyo Story", "year": 1953.0, "location_name": "広島県尾道市東久保町20-14 広島県尾道市", "prefecture": "広島県"}}, {"type": "Feature", "geometry": {"type": "Point", "coordinates": [132.459619, 34.396576]}, "properties": {"category": "ozu", "location_type": "filming", "film_title": "東京物語", "film_title_en": "Tokyo Story", "year": 1953.0, "location_name": "浄土寺多宝塔 広島県尾道市", "prefecture": "広島県"}}, {"type": "Feature", "geometry": {"type": "Point", "coordinates": [132.459619, 34.396576]}, "properties": {"category": "ozu", "location_type": "filming", "film_title": "東京物語", "film_title_en": "Tokyo Story", "year": 1953.0, "location_name": "尾道市立筒湯小学校 広島県尾道市", "prefecture": "広島県"}}, {"type": "Feature", "geometry": {"type": "Point", "coordinates": [132.459619, 34.396576]}, "properties": {"category": "ozu", "location_type": "filming", "film_title": "東京物語", "film_title_en": "Tokyo Story", "year": 1953.0, "location_name": "山陽本線 広島県尾道市", "prefecture": "広島県"}}, {"type": "Feature", "geometry": {"type": "Point", "coordinates": [133.204889, 34.408876]}, "properties": {"category": "ozu", "location_type": "filming", "film_title": "東京物語", "film_title_en": "Tokyo Story", "year": 1953.0, "location_name": "広島県尾道", "prefecture": "広島県"}}, {"type": "Feature", "geometry": {"type": "Point", "coordinates": [139.691706, 35.689487]}, "properties": {"category": "ozu", "location_type": "filming", "film_title": "秋刀魚の味", "film_title_en": "An Autumn Afternoon", "year": 1962.0, "location_name": "東京都", "prefecture": "東京都"}}, {"type": "Feature", "geometry": {"type": "Point", "coordinates": [139.691706, 35.689487]}, "properties": {"category": "ozu", "location_type": "filming", "film_title": "お早よう", "film_title_en": "Good Morning", "year": 1959.0, "location_name": "東京都", "prefecture": "東京都"}}, {"type": "Feature", "geometry": {"type": "Point", "coordinates": [139.771861, 35.670651]}, "properties": {"category": "ozu", "location_type": "filming", "film_title": "彼岸花", "film_title_en": "Higanbana (1958)", "year": 1958.0, "location_name": "中央区、 東京都", "prefecture": "東京都"}}, {"type": "Feature", "geometry": {"type": "Point", "coordinates": [139.753595, 35.694003]}, "properties": {"category": "ozu", "location_type": "filming", "film_title": "東京暮色", "film_title_en": "Tokyo Twilight", "year": 1957.0, "location_name": "千代田区、東京都", "prefecture": "東京都"}}, {"type": "Feature", "geometry": {"type": "Point", "coordinates": [139.804479, 35.775664]}, "properties": {"category": "ozu", "location_type": "filming", "film_title": "東京物語", "film_title_en": "Tokyo Story", "year": 1953.0, "location_name": "足立区、 東京都", "prefecture": "東京都"}}, {"type": "Feature", "geometry": {"type": "Point", "coordinates": [139.691706, 35.689487]}, "properties": {"category": "ozu", "location_type": "filming", "film_title": "お茶漬の味", "film_title_en": "Ochazuke no aji (1952)", "year": 1952.0, "location_name": "東京都", "prefecture": "東京都"}}, {"type": "Feature", "geometry": {"type": "Point", "coordinates": [139.691706, 35.689487]}, "properties": {"category": "ozu", "location_type": "filming", "film_title": "宗方姉妹", "film_title_en": "The Munekata Sisters", "year": 1950.0, "location_name": "東京都", "prefecture": "東京都"}}, {"type": "Feature", "geometry": {"type": "Point", "coordinates": [139.771861, 35.670651]}, "properties": {"category": "ozu", "location_type": "filming", "film_title": "晩春", "film_title_en": "Banshun (1949)", "year": 1949.0, "location_name": "中央区 東京都", "prefecture": "東京都"}}, {"type": "Feature", "geometry": {"type": "Point", "coordinates": [139.691706, 35.689487]}, "properties": {"category": "ozu", "location_type": "filming", "film_title": "長屋紳士録", "film_title_en": "Nagaya shinshiroku (1947)", "year": 1947.0, "location_name": "東京都", "prefecture": "東京都"}}, {"type": "Feature", "geometry": {"type": "Point", "coordinates": [139.753595, 35.694003]}, "properties": {"category": "ozu", "location_type": "filming", "film_title": "秋日和", "film_title_en": "Late Autumn", "year": 1960.0, "location_name": "千代田区、東京都", "prefecture": "東京都"}}, {"type": "Feature", "geometry": {"type": "Point", "coordinates": [139.751599, 35.658068]}, "properties": {"category": "ozu", "location_type": "filming", "film_title": "秋日和", "film_title_en": "Late Autumn", "year": 1960.0, "location_name": "港区、東京都", "prefecture": "東京都"}}, {"type": "Feature", "geometry": {"type": "Point", "coordinates": [139.771861, 35.670651]}, "properties": {"category": "ozu", "location_type": "filming", "film_title": "秋日和", "film_title_en": "Late Autumn", "year": 1960.0, "location_name": "中央区、東京都", "prefecture": "東京都"}}, {"type": "Feature", "geometry": {"type": "Point", "coordinates": [139.81741, 35.672854]}, "properties": {"category": "ozu", "location_type": "filming", "film_title": "秋日和", "film_title_en": "Late Autumn", "year": 1960.0, "location_name": "江東区、東京都", "prefecture": "東京都"}}, {"type": "Feature", "geometry": {"type": "Point", "coordinates": [139.776166, 35.694345]}, "properties": {"category": "ozu", "location_type": "filming", "film_title": "麥秋", "film_title_en": "Early Summer", "year": 1951.0, "location_name": "原節子 千代田区、中央区、台東区 東京都", "prefecture": "東京都"}}, {"type": "Feature", "geometry": {"type": "Point", "coordinates": [139.106937, 35.232355]}, "properties": {"category": "ozu", "location_type": "filming", "film_title": "彼岸花", "film_title_en": "Higanbana (1958)", "year": 1958.0, "location_name": "箱根町 神奈川県", "prefecture": "神奈川県"}}, {"type": "Feature", "geometry": {"type": "Point", "coordinates": [139.642345, 35.447507]}, "properties": {"category": "ozu", "location_type": "filming", "film_title": "早春", "film_title_en": "Early Spring", "year": 1956.0, "location_name": "神奈川県", "prefecture": "神奈川県"}}, {"type": "Feature", "geometry": {"type": "Point", "coordinates": [139.311314, 35.30685]}, "properties": {"category": "ozu", "location_type": "filming", "film_title": "お茶漬の味", "film_title_en": "Ochazuke no aji (1952)", "year": 1952.0, "location_name": "中郡大磯町 神奈川県", "prefecture": "神奈川県"}}, {"type": "Feature", "geometry": {"type": "Point", "coordinates": [139.403639, 35.333843]}, "properties": {"category": "ozu", "location_type": "filming", "film_title": "麥秋", "film_title_en": "Early Summer", "year": 1951.0, "location_name": "茅ヶ崎市 神奈川県", "prefecture": "神奈川県"}}, {"type": "Feature", "geometry": {"type": "Point", "coordinates": [139.642345, 35.447507]}, "properties": {"category": "ozu", "location_type": "filming", "film_title": "晩春", "film_title_en": "Banshun (1949)", "year": 1949.0, "location_name": "神奈川県", "prefecture": "神奈川県"}}, {"type": "Feature", "geometry": {"type": "Point", "coordinates": [139.403639, 35.333843]}, "properties": {"category": "ozu", "location_type": "filming", "film_title": "長屋紳士録", "film_title_en": "Nagaya shinshiroku (1947)", "year": 1947.0, "location_name": "茅ヶ崎市 神奈川県", "prefecture": "神奈川県"}}, {"type": "Feature", "geometry": {"type": "Point", "coordinates": [139.106937, 35.232355]}, "properties": {"category": "ozu", "location_type": "filming", "film_title": "父ありき", "film_title_en": "There Was a Father", "year": 1942.0, "location_name": "箱根町 神奈川県", "prefecture": "神奈川県"}}, {"type": "Feature", "geometry": {"type": "Point", "coordinates": [139.496637, 35.310505]}, "properties": {"category": "ozu", "location_type": "filming", "film_title": "麥秋", "film_title_en": "Early Summer", "year": 1951.0, "location_name": "鎌倉市", "prefecture": "神奈川県"}}, {"type": "Feature", "geometry": {"type": "Point", "coordinates": [139.496637, 35.310505]}, "properties": {"category": "ozu", "location_type": "filming", "film_title": "晩春", "film_title_en": "Banshun (1949)", "year": 1949.0, "location_name": "鎌倉市", "prefecture": "神奈川県"}}, {"type": "Feature", "geometry": {"type": "Point", "coordinates": [139.496637, 35.310505]}, "properties": {"category": "ozu", "location_type": "filming", "film_title": "父ありき", "film_title_en": "There Was a Father", "year": 1942.0, "location_name": "鎌倉市", "prefecture": "神奈川県"}}, {"type": "Feature", "geometry": {"type": "Point", "coordinates": [139.496637, 35.310505]}, "properties": {"category": "ozu", "location_type": "filming", "film_title": "朗かに歩め", "film_title_en": "Hogaraka ni ayume (1930)", "year": 1930.0, "location_name": "鎌倉市", "prefecture": "神奈川県"}}, {"type": "Feature", "geometry": {"type": "Point", "coordinates": [135.832742, 34.685335]}, "properties": {"category": "ozu", "location_type": "filming", "film_title": "麥秋", "film_title_en": "Early Summer", "year": 1951.0, "location_name": "奈良県", "prefecture": "奈良県"}}, {"type": "Feature", "geometry": {"type": "Point", "coordinates": [135.832742, 34.685335]}, "properties": {"category": "ozu", "location_type": "filming", "film_title": "宗方姉妹", "film_title_en": "The Munekata Sisters", "year": 1950.0, "location_name": "奈良県", "prefecture": "奈良県"}}, {"type": "Feature", "geometry": {"type": "Point", "coordinates": [135.755597, 35.021247]}, "properties": {"category": "ozu", "location_type": "filming", "film_title": "小早川家の秋", "film_title_en": "The End of Summer", "year": 1961.0, "location_name": "京都府", "prefecture": "京都府"}}, {"type": "Feature", "geometry": {"type": "Point", "coordinates": [135.755597, 35.021247]}, "properties": {"category": "ozu", "location_type": "filming", "film_title": "彼岸花", "film_title_en": "Higanbana (1958)", "year": 1958.0, "location_name": "京都府", "prefecture": "京都府"}}, {"type": "Feature", "geometry": {"type": "Point", "coordinates": [135.755597, 35.021247]}, "properties": {"category": "ozu", "location_type": "filming", "film_title": "宗方姉妹", "film_title_en": "The Munekata Sisters", "year": 1950.0, "location_name": "京都府", "prefecture": "京都府"}}, {"type": "Feature", "geometry": {"type": "Point", "coordinates": [135.755597, 35.021247]}, "properties": {"category": "ozu", "location_type": "filming", "film_title": "晩春", "film_title_en": "Banshun (1949)", "year": 1949.0, "location_name": "京都府", "prefecture": "京都府"}}, {"type": "Feature", "geometry": {"type": "Point", "coordinates": [139.071705, 35.096276]}, "properties": {"category": "ozu", "location_type": "filming", "film_title": "東京物語", "film_title_en": "Tokyo Story", "year": 1953.0, "location_name": "熱海市 静岡県", "prefecture": "静岡県"}}, {"type": "Feature", "geometry": {"type": "Point", "coordinates": [138.946704, 34.976586]}, "properties": {"category": "ozu", "location_type": "filming", "film_title": "お茶漬の味", "film_title_en": "Ochazuke no aji (1952)", "year": 1952.0, "location_name": "伊豆市 静岡県", "prefecture": "静岡県"}}, {"type": "Feature", "geometry": {"type": "Point", "coordinates": [137.219516, 34.8265]}, "properties": {"category": "ozu", "location_type": "filming", "film_title": "彼岸花", "film_title_en": "Higanbana (1958)", "year": 1958.0, "location_name": "蒲郡市 愛知県", "prefecture": "愛知県"}}, {"type": "Feature", "geometry": {"type": "Point", "coordinates": [135.509801, 34.681261]}, "properties": {"category": "ozu", "location_type": "filming", "film_title": "東京物語", "film_title_en": "Tokyo Story", "year": 1953.0, "location_name": "大阪市中央区", "prefecture": "広島県"}}, {"type": "Feature", "geometry": {"type": "Point", "coordinates": [133.204889, 34.408876]}, "properties": {"category": "ozu", "location_type": "filming", "film_title": "東京物語", "film_title_en": "Tokyo Story", "year": 1953.0, "location_name": "尾道市 広島県", "prefecture": "広島県"}}, {"type": "Feature", "geometry": {"type": "Point", "coordinates": [139.550456, 35.318999]}, "properties": {"category": "ozu", "location_type": "filming", "film_title": "晩春", "film_title_en": "Banshun (1949)", "year": 1949.0, "location_name": "Kitakamakura Station, Kamakura, Kanagawa, Japan", "prefecture": "神奈川県"}}, {"type": "Feature", "geometry": {"type": "Point", "coordinates": [139.403602, 35.333852]}, "properties": {"category": "ozu", "location_type": "filming", "film_title": "晩春", "film_title_en": "Banshun (1949)", "year": 1949.0, "location_name": "Chigasaki, Kanagawa, Japan", "prefecture": "神奈川県"}}, {"type": "Feature", "geometry": {"type": "Point", "coordinates": [139.54505, 35.337566]}, "properties": {"category": "ozu", "location_type": "filming", "film_title": "晩春", "film_title_en": "Banshun (1949)", "year": 1949.0, "location_name": "Kita-Kamakura, Kanagawa, Japan", "prefecture": "神奈川県"}}, {"type": "Feature", "geometry": {"type": "Point", "coordinates": [135.755597, 35.021247]}, "properties": {"category": "ozu", "location_type": "filming", "film_title": "晩春", "film_title_en": "Banshun (1949)", "year": 1949.0, "location_name": "Kyoto", "prefecture": "京都府"}}, {"type": "Feature", "geometry": {"type": "Point", "coordinates": [139.544001, 35.346435]}, "properties": {"category": "ozu", "location_type": "filming", "film_title": "晩春", "film_title_en": "Banshun (1949)", "year": 1949.0, "location_name": "Ofuna, Kanagawa, Japan", "prefecture": "神奈川県"}}, {"type": "Feature", "geometry": {"type": "Point", "coordinates": [139.533535, 35.400036]}, "properties": {"category": "ozu", "location_type": "filming", "film_title": "晩春", "film_title_en": "Banshun (1949)", "year": 1949.0, "location_name": "Totsuka, Kanagawa, Japan", "prefecture": "神奈川県"}}, {"type": "Feature", "geometry": {"type": "Point", "coordinates": [139.77394, 35.70841]}, "properties": {"category": "ozu", "location_type": "filming", "film_title": "晩春", "film_title_en": "Banshun (1949)", "year": 1949.0, "location_name": "Ueno Station, Ueno, Tokyo, Japan", "prefecture": "東京都"}}, {"type": "Feature", "geometry": {"type": "Point", "coordinates": [139.638026, 35.443708]}, "properties": {"category": "ozu", "location_type": "filming", "film_title": "晩春", "film_title_en": "Banshun (1949)", "year": 1949.0, "location_name": "Yokohama, Kanagawa, Japan", "prefecture": "神奈川県"}}, {"type": "Feature", "geometry": {"type": "Point", "coordinates": [139.766647, 35.67087]}, "properties": {"category": "ozu", "location_type": "filming", "film_title": "麥秋", "film_title_en": "Early Summer", "year": 1951.0, "location_name": "Ginza, Chuo-ku, Tokyo, Japan", "prefecture": "東京都"}}, {"type": "Feature", "geometry": {"type": "Point", "coordinates": [139.54505, 35.337566]}, "properties": {"category": "ozu", "location_type": "filming", "film_title": "麥秋", "film_title_en": "Early Summer", "year": 1951.0, "location_name": "Kita-Kamakura, Kanagawa, Japan", "prefecture": "神奈川県"}}, {"type": "Feature", "geometry": {"type": "Point", "coordinates": [139.544001, 35.346435]}, "properties": {"category": "ozu", "location_type": "filming", "film_title": "麥秋", "film_title_en": "Early Summer", "year": 1951.0, "location_name": "Shochiku-Ofuna, Ofuna, Kanagawa, Japan", "prefecture": "神奈川県"}}, {"type": "Feature", "geometry": {"type": "Point", "coordinates": [139.745438, 35.658578]}, "properties": {"category": "ozu", "location_type": "filming", "film_title": "秋日和", "film_title_en": "Late Autumn", "year": 1960.0, "location_name": "Tokyo Tower, Tokyo, Japan", "prefecture": "東京都"}}, {"type": "Feature", "geometry": {"type": "Point", "coordinates": [139.716, 35.5629]}, "properties": {"category": "ozu", "location_type": "filming", "film_title": "美人哀愁", "film_title_en": "Beauty's Sorrows", "year": 1931.0, "location_name": "Shochiku-Kamata Studios, Japan", "prefecture": "東京都"}}, {"type": "Feature", "geometry": {"type": "Point", "coordinates": [139.766647, 35.67087]}, "properties": {"category": "ozu", "location_type": "filming", "film_title": "彼岸花", "film_title_en": "Higanbana (1958)", "year": 1958.0, "location_name": "Ginza, Chuo-ku, Tokyo, Japan", "prefecture": "東京都"}}, {"type": "Feature", "geometry": {"type": "Point", "coordinates": [139.716, 35.5629]}, "properties": {"category": "ozu", "location_type": "filming", "film_title": "引越し夫婦", "film_title_en": "Couple on the Move", "year": 1928.0, "location_name": "Shochiku-Kamata Studios, Japan", "prefecture": "東京都"}}, {"type": "Feature", "geometry": {"type": "Point", "coordinates": [139.716, 35.5629]}, "properties": {"category": "ozu", "location_type": "filming", "film_title": "学生ロマンス 若き日", "film_title_en": "Student Romance: Days of Youth", "year": 1929.0, "location_name": "Shochiku-Kamata Studios, Japan", "prefecture": "東京都"}}, {"type": "Feature", "geometry": {"type": "Point", "coordinates": [139.766647, 35.67087]}, "properties": {"category": "ozu", "location_type": "filming", "film_title": "お茶漬の味", "film_title_en": "Ochazuke no aji (1952)", "year": 1952.0, "location_name": "Ginza, Chuo-ku, Tokyo, Japan", "prefecture": "東京都"}}, {"type": "Feature", "geometry": {"type": "Point", "coordinates": [139.316344, 35.315039]}, "properties": {"category": "ozu", "location_type": "filming", "film_title": "お茶漬の味", "film_title_en": "Ochazuke no aji (1952)", "year": 1952.0, "location_name": "Oiso, Kanagawa, Japan", "prefecture": "神奈川県"}}, {"type": "Feature", "geometry": {"type": "Point", "coordinates": [137.633047, 34.765908]}, "properties": {"category": "ozu", "location_type": "filming", "film_title": "お茶漬の味", "film_title_en": "Ochazuke no aji (1952)", "year": 1952.0, "location_name": "Hamamatsu City, Shizuoka, Japan", "prefecture": "静岡県"}}, {"type": "Feature", "geometry": {"type": "Point", "coordinates": [139.716, 35.5629]}, "properties": {"category": "ozu", "location_type": "filming", "film_title": "肉体美", "film_title_en": "Nikutaibi (1928)", "year": 1928.0, "location_name": "Shochiku-Kamata Studios, Tokyo, Japan", "prefecture": "東京都"}}, {"type": "Feature", "geometry": {"type": "Point", "coordinates": [139.544001, 35.346435]}, "properties": {"category": "ozu", "location_type": "filming", "film_title": "秋刀魚の味", "film_title_en": "An Autumn Afternoon", "year": 1962.0, "location_name": "Shochiku-Ofuna, Ofuna, Kanagawa, Japan", "prefecture": "神奈川県"}}, {"type": "Feature", "geometry": {"type": "Point", "coordinates": [139.482933, 35.301416]}, "properties": {"category": "ozu", "location_type": "filming", "film_title": "早春", "film_title_en": "Early Spring", "year": 1956.0, "location_name": "Enoshima, Kanagawa, Japan", "prefecture": "神奈川県"}}, {"type": "Feature", "geometry": {"type": "Point", "coordinates": [139.723727, 35.563927]}, "properties": {"category": "ozu", "location_type": "filming", "film_title": "早春", "film_title_en": "Early Spring", "year": 1956.0, "location_name": "Kamata, Ota-ku, Tokyo, Japan", "prefecture": "東京都"}}, {"type": "Feature", "geometry": {"type": "Point", "coordinates": [139.702438, 35.529942]}, "properties": {"category": "ozu", "location_type": "filming", "film_title": "早春", "film_title_en": "Early Spring", "year": 1956.0, "location_name": "Kawasaki, Kanagawa, Japan", "prefecture": "神奈川県"}}, {"type": "Feature", "geometry": {"type": "Point", "coordinates": [134.276111, 34.801965]}, "properties": {"category": "ozu", "location_type": "filming", "film_title": "早春", "film_title_en": "Early Spring", "year": 1956.0, "location_name": "Mitsuishi, Okayama, Japan", "prefecture": "岡山県"}}, {"type": "Feature", "geometry": {"type": "Point", "coordinates": [135.909649, 34.963476]}, "properties": {"category": "ozu", "location_type": "filming", "film_title": "早春", "film_title_en": "Early Spring", "year": 1956.0, "location_name": "Seta Bridge, Lake Biwa, Shiga, Japan", "prefecture": "滋賀県"}}, {"type": "Feature", "geometry": {"type": "Point", "coordinates": [139.691706, 35.689488]}, "properties": {"category": "ozu", "location_type": "filming", "film_title": "早春", "film_title_en": "Early Spring", "year": 1956.0, "location_name": "Tokyo", "prefecture": "東京都"}}, {"type": "Feature", "geometry": {"type": "Point", "coordinates": [139.544001, 35.346435]}, "properties": {"category": "ozu", "location_type": "filming", "film_title": "戸田家の兄妹", "film_title_en": "The Brothers and Sisters of the Toda Family", "year": 1941.0, "location_name": "Shochiku-Ofuna, Ofuna, Kanagawa, Japan", "prefecture": "神奈川県"}}, {"type": "Feature", "geometry": {"type": "Point", "coordinates": [139.071729, 35.096358]}, "properties": {"category": "ozu", "location_type": "filming", "film_title": "遠い雲", "film_title_en": "Tokyo Story", "year": 1953.0, "location_name": "Atami, Shizuoka, Japan", "prefecture": "静岡県"}}, {"type": "Feature", "geometry": {"type": "Point", "coordinates": [133.204854, 34.408864]}, "properties": {"category": "ozu", "location_type": "filming", "film_title": "遠い雲", "film_title_en": "Tokyo Story", "year": 1953.0, "location_name": "Onomichi, Hiroshima, Japan", "prefecture": "広島県"}}, {"type": "Feature", "geometry": {"type": "Point", "coordinates": [139.691706, 35.689488]}, "properties": {"category": "ozu", "location_type": "filming", "film_title": "遠い雲", "film_title_en": "Tokyo Story", "year": 1953.0, "location_name": "Tokyo", "prefecture": "東京都"}}, {"type": "Feature", "geometry": {"type": "Point", "coordinates": [139.716, 35.5629]}, "properties": {"category": "ozu", "location_type": "filming", "film_title": "若人の夢", "film_title_en": "Dreams of Youth", "year": 1928.0, "location_name": "Shochiku-Kamata Studios, Tokyo, Japan", "prefecture": "東京都"}}, {"type": "Feature", "geometry": {"type": "Point", "coordinates": [139.271495, 36.655227]}, "properties": {"category": "ozu", "location_type": "filming", "film_title": "遠い雲", "film_title_en": "Tokyo Story", "year": 1953.0, "location_name": "Japan", "prefecture": "群馬県"}}, {"type": "Feature", "geometry": {"type": "Point", "coordinates": [139.780071, 35.712581]}, "properties": {"category": "ozu", "location_type": "filming", "film_title": "東京物語", "film_title_en": "Tokyo Story", "year": 1953.0, "location_name": "東京都 ⦿ 台東区 ⦿ 寛永寺旧本坊表門動", "prefecture": "東京都"}}, {"type": "Feature", "geometry": {"type": "Point", "coordinates": [139.804516, 35.774603]}, "properties": {"category": "ozu", "location_type": "filming", "film_title": "東京物語", "film_title_en": "Tokyo Story", "year": 1953.0, "location_name": "東京都 ⦿ 足立区 ⦿ 東武伊勢崎線堀切駅«", "prefecture": "東京都"}}, {"type": "Feature", "geometry": {"type": "Point", "coordinates": [133.171708, 34.303919]}, "properties": {"category": "ozu", "location_type": "filming", "film_title": "東京物語", "film_title_en": "Tokyo Story", "year": 1953.0, "location_name": "広島県 ⦿ 尾道市 ⦿ 浄土寺", "prefecture": "広島県"}}, {"type": "Feature", "geometry": {"type": "Point", "coordinates": [133.205155, 34.408852]}, "properties": {"category": "ozu", "location_type": "filming", "film_title": "東京物語", "film_title_en": "Tokyo Story", "year": 1953.0, "location_name": "広島県 ⦿ 尾道市 ⦿ 住吉神社の大灯籠", "prefecture": "広島県"}}, {"type": "Feature", "geometry": {"type": "Point", "coordinates": [133.205155, 34.408852]}, "properties": {"category": "ozu", "location_type": "filming", "film_title": "東京物語", "film_title_en": "Tokyo Story", "year": 1953.0, "location_name": "広島県 ⦿ 尾道市 ⦿ 竹村屋G", "prefecture": "広島県"}}, {"type": "Feature", "geometry": {"type": "Point", "coordinates": [133.194886, 34.38303]}, "properties": {"category": "ozu", "location_type": "filming", "film_title": "東京物語", "film_title_en": "Tokyo Story", "year": 1953.0, "location_name": "広島県 ⦿ 尾道市 ⦿ 筒湯小学校跡", "prefecture": "広島県"}}, {"type": "Feature", "geometry": {"type": "Point", "coordinates": [137.419095, 34.753628]}, "properties": {"category": "ozu", "location_type": "filming", "film_title": "一人息子", "film_title_en": "Hitori musuko (1936)", "year": 1936.0, "location_name": "西塩田", "prefecture": "愛知県"}}, {"type": "Feature", "geometry": {"type": "Point", "coordinates": [139.535219, 36.225762]}, "properties": {"category": "ozu", "location_type": "filming", "film_title": "一人息子", "film_title_en": "Hitori musuko (1936)", "year": 1936.0, "location_name": "笠原工業", "prefecture": "群馬県"}}, {"type": "Feature", "geometry": {"type": "Point", "coordinates": [135.785046, 34.994856]}, "properties": {"category": "ozu", "location_type": "filming", "film_title": "竜馬がゆく", "film_title_en": "Ryûma ga yuku", "year": 1982.0, "location_name": "清水寺", "prefecture": "京都府"}}, {"type": "Feature", "geometry": {"type": "Point", "coordinates": [135.748537, 35.014008]}, "properties": {"category": "ozu", "location_type": "filming", "film_title": "竜馬がゆく", "film_title_en": "Ryûma ga yuku", "year": 1982.0, "location_name": "二条城", "prefecture": "京都府"}}, {"type": "Feature", "geometry": {"type": "Point", "coordinates": [135.664512, 35.026772]}, "properties": {"category": "ozu", "location_type": "filming", "film_title": "竜馬がゆく", "film_title_en": "Ryûma ga yuku", "year": 1982.0, "location_name": "化野念仏寺", "prefecture": "京都府"}}, {"type": "Feature", "geometry": {"type": "Point", "coordinates": [129.8683, 32.7337]}, "properties": {"category": "ozu", "location_type": "filming", "film_title": "竜馬がゆく", "film_title_en": "Ryûma ga yuku", "year": 1982.0, "location_name": "旧グラバー住宅〔グラバー園〕", "prefecture": "長崎県"}}, {"type": "Feature", "geometry": {"type": "Point", "coordinates": [139.691772, 35.689629]}, "properties": {"category": "ozu", "location_type": "filming", "film_title": "お嬢さん", "film_title_en": "Young Lady", "year": 1930.0, "location_name": "東京", "prefecture": "東京都"}}, {"type": "Feature", "geometry": {"type": "Point", "coordinates": [139.691772, 35.689629]}, "properties": {"category": "ozu", "location_type": "filming", "film_title": "お茶漬の味", "film_title_en": "Ochazuke no aji (1952)", "year": 1952.0, "location_name": "東京", "prefecture": "東京都"}}, {"type": "Feature", "geometry": {"type": "Point", "coordinates": [139.691772, 35.689629]}, "properties": {"category": "ozu", "location_type": "filming", "film_title": "めぞん一刻 完結篇", "film_title_en": "Maison Ikkoku: The Final Chapter", "year": 1988.0, "location_name": "東京", "prefecture": "東京都"}}, {"type": "Feature", "geometry": {"type": "Point", "coordinates": [139.691772, 35.689629]}, "properties": {"category": "ozu", "location_type": "filming", "film_title": "一人息子", "film_title_en": "Hitori musuko (1936)", "year": 1936.0, "location_name": "東京", "prefecture": "東京都"}}, {"type": "Feature", "geometry": {"type": "Point", "coordinates": [137.50061, 35.487492]}, "properties": {"category": "ozu", "location_type": "filming", "film_title": "一人息子", "film_title_en": "Hitori musuko (1936)", "year": 1936.0, "location_name": "長野県", "prefecture": "岐阜県"}}, {"type": "Feature", "geometry": {"type": "Point", "coordinates": [139.691772, 35.689629]}, "properties": {"category": "ozu", "location_type": "filming", "film_title": "和製喧嘩友達", "film_title_en": "Wasei kenka tomodachi (1929)", "year": 1929.0, "location_name": "東京", "prefecture": "東京都"}}, {"type": "Feature", "geometry": {"type": "Point", "coordinates": [139.691772, 35.689629]}, "properties": {"category": "ozu", "location_type": "filming", "film_title": "大学は出たけれど", "film_title_en": "Daigaku wa detakeredo (1929)", "year": 1929.0, "location_name": "東京", "prefecture": "東京都"}}, {"type": "Feature", "geometry": {"type": "Point", "coordinates": [139.703632, 35.693763]}, "properties": {"category": "ozu", "location_type": "filming", "film_title": "学生ロマンス 若き日", "film_title_en": "Student Romance: Days of Youth", "year": 1929.0, "location_name": "新宿区", "prefecture": "東京都"}}, {"type": "Feature", "geometry": {"type": "Point", "coordinates": [139.023346, 37.902458]}, "properties": {"category": "ozu", "location_type": "filming", "film_title": "学生ロマンス 若き日", "film_title_en": "Student Romance: Days of Youth", "year": 1929.0, "location_name": "新潟県", "prefecture": "新潟県"}}, {"type": "Feature", "geometry": {"type": "Point", "coordinates": [135.773741, 35.000257]}, "properties": {"category": "ozu", "location_type": "filming", "film_title": "小早川家の秋", "film_title_en": "The End of Summer", "year": 1961.0, "location_name": "京都市", "prefecture": "京都府"}}, {"type": "Feature", "geometry": {"type": "Point", "coordinates": [135.502165, 34.693738]}, "properties": {"category": "ozu", "location_type": "filming", "film_title": "小早川家の秋", "film_title_en": "The End of Summer", "year": 1961.0, "location_name": "大阪市", "prefecture": "大阪府"}}, {"type": "Feature", "geometry": {"type": "Point", "coordinates": [139.691772, 35.689629]}, "properties": {"category": "ozu", "location_type": "filming", "film_title": "彼岸花", "film_title_en": "Higanbana (1958)", "year": 1958.0, "location_name": "東京", "prefecture": "東京都"}}, {"type": "Feature", "geometry": {"type": "Point", "coordinates": [139.753216, 35.69381]}, "properties": {"category": "ozu", "location_type": "filming", "film_title": "戸田家の兄妹", "film_title_en": "The Brothers and Sisters of the Toda Family", "year": 1941.0, "location_name": "千代田区", "prefecture": "東京都"}}, {"type": "Feature", "geometry": {"type": "Point", "coordinates": [139.4875, 35.3103]}, "properties": {"category": "ozu", "location_type": "filming", "film_title": "戸田家の兄妹", "film_title_en": "The Brothers and Sisters of the Toda Family", "year": 1941.0, "location_name": "湘南", "prefecture": "神奈川県"}}, {"type": "Feature", "geometry": {"type": "Point", "coordinates": [139.691772, 35.689629]}, "properties": {"category": "ozu", "location_type": "filming", "film_title": "東京の合唱", "film_title_en": "Tôkyô no kôrasu (1931)", "year": 1931.0, "location_name": "東京", "prefecture": "東京都"}}, {"type": "Feature", "geometry": {"type": "Point", "coordinates": [139.691772, 35.689629]}, "properties": {"category": "ozu", "location_type": "filming", "film_title": "東京暮色", "film_title_en": "Tokyo Twilight", "year": 1957.0, "location_name": "東京", "prefecture": "東京都"}}, {"type": "Feature", "geometry": {"type": "Point", "coordinates": [139.691772, 35.689629]}, "properties": {"category": "ozu", "location_type": "filming", "film_title": "淑女は何を忘れたか", "film_title_en": "Shukujo wa nani o wasureta ka (1937)", "year": 1937.0, "location_name": "東京", "prefecture": "東京都"}}, {"type": "Feature", "geometry": {"type": "Point", "coordinates": [139.839008, 36.441505]}, "properties": {"category": "ozu", "location_type": "filming", "film_title": "父ありき", "film_title_en": "There Was a Father", "year": 1942.0, "location_name": "上田市", "prefecture": "長野県"}}, {"type": "Feature", "geometry": {"type": "Point", "coordinates": [139.691706, 35.689487]}, "properties": {"category": "ozu", "location_type": "filming", "film_title": "父ありき", "film_title_en": "There Was a Father", "year": 1942.0, "location_name": "東京都", "prefecture": "東京都"}}, {"type": "Feature", "geometry": {"type": "Point", "coordinates": [137.50061, 35.487492]}, "properties": {"category": "ozu", "location_type": "filming", "film_title": "父ありき", "film_title_en": "There Was a Father", "year": 1942.0, "location_name": "長野県", "prefecture": "岐阜県"}}, {"type": "Feature", "geometry": {"type": "Point", "coordinates": [139.691772, 35.689629]}, "properties": {"category": "ozu", "location_type": "filming", "film_title": "足に触った幸運", "film_title_en": "The Luck Which Touched the Leg", "year": 1930.0, "location_name": "東京", "prefecture": "東京都"}}, {"type": "Feature", "geometry": {"type": "Point", "coordinates": [139.691772, 35.689629]}, "properties": {"category": "ozu", "location_type": "filming", "film_title": "長屋紳士録", "film_title_en": "Nagaya shinshiroku (1947)", "year": 1947.0, "location_name": "東京", "prefecture": "東京都"}}, {"type": "Feature", "geometry": {"type": "Point", "coordinates": [139.691772, 35.689629]}, "properties": {"category": "ozu", "location_type": "filming", "film_title": "非常線の女", "film_title_en": "Dragnet Girl", "year": 1933.0, "location_name": "東京", "prefecture": "東京都"}}, {"type": "Feature", "geometry": {"type": "Point", "coordinates": [139.772003, 35.670586]}, "properties": {"category": "ozu", "location_type": "filming", "film_title": "風の中の牝鶏", "film_title_en": "Kaze no naka no mendori (1948)", "year": 1948.0, "location_name": "東京都中央区", "prefecture": "東京都"}}, {"type": "Feature", "geometry": {"type": "Point", "coordinates": [139.691772, 35.689629]}, "properties": {"category": "ozu", "location_type": "filming", "film_title": "BanG Dream! FILM LIVE", "film_title_en": "BanG Dream! FILM LIVE", "year": 2019.0, "location_name": "東京", "prefecture": "東京都"}}, {"type": "Feature", "geometry": {"type": "Point", "coordinates": [139.691772, 35.689629]}, "properties": {"category": "ozu", "location_type": "filming", "film_title": "BanG Dream! FILM LIVE 2nd Stage", "film_title_en": "BanG Dream! FILM LIVE 2nd Stage", "year": 2019.0, "location_name": "東京", "prefecture": "東京都"}}, {"type": "Feature", "geometry": {"type": "Point", "coordinates": [139.691706, 35.689487]}, "properties": {"category": "ozu", "location_type": "filming", "film_title": "お早よう", "film_title_en": "Good Morning", "year": 1959.0, "location_name": "東京都", "prefecture": "東京都"}}, {"type": "Feature", "geometry": {"type": "Point", "coordinates": [135.502165, 34.693738]}, "properties": {"category": "ozu", "location_type": "filming", "film_title": "女囚やくざ", "film_title_en": "Woman Mobsters", "year": 1974.0, "location_name": "大阪市", "prefecture": "大阪府"}}, {"type": "Feature", "geometry": {"type": "Point", "coordinates": [139.691772, 35.689629]}, "properties": {"category": "ozu", "location_type": "filming", "film_title": "早春", "film_title_en": "Early Spring", "year": 1956.0, "location_name": "東京", "prefecture": "東京都"}}, {"type": "Feature", "geometry": {"type": "Point", "coordinates": [135.773741, 35.000257]}, "properties": {"category": "ozu", "location_type": "filming", "film_title": "晩春", "film_title_en": "Banshun (1949)", "year": 1949.0, "location_name": "京都市", "prefecture": "京都府"}}, {"type": "Feature", "geometry": {"type": "Point", "coordinates": [135.502165, 34.693738]}, "properties": {"category": "ozu", "location_type": "filming", "film_title": "東京物語", "film_title_en": "Tokyo Story", "year": 1953.0, "location_name": "大阪市", "prefecture": "大阪府"}}, {"type": "Feature", "geometry": {"type": "Point", "coordinates": [133.205155, 34.408852]}, "properties": {"category": "ozu", "location_type": "filming", "film_title": "東京物語", "film_title_en": "Tokyo Story", "year": 1953.0, "location_name": "尾道市", "prefecture": "広島県"}}, {"type": "Feature", "geometry": {"type": "Point", "coordinates": [139.691772, 35.689629]}, "properties": {"category": "ozu", "location_type": "filming", "film_title": "東京物語", "film_title_en": "Tokyo Story", "year": 1953.0, "location_name": "東京", "prefecture": "東京都"}}, {"type": "Feature", "geometry": {"type": "Point", "coordinates": [139.071787, 35.096471]}, "properties": {"category": "ozu", "location_type": "filming", "film_title": "東京物語", "film_title_en": "Tokyo Story", "year": 1953.0, "location_name": "熱海市", "prefecture": "静岡県"}}, {"type": "Feature", "geometry": {"type": "Point", "coordinates": [136.508896, 34.730572]}, "properties": {"category": "ozu", "location_type": "filming", "film_title": "浮草", "film_title_en": "Ukikusa (1959)", "year": 1959.0, "location_name": "三重県", "prefecture": "三重県"}}, {"type": "Feature", "geometry": {"type": "Point", "coordinates": [139.691772, 35.689629]}, "properties": {"category": "ozu", "location_type": "filming", "film_title": "秋日和", "film_title_en": "Late Autumn", "year": 1960.0, "location_name": "東京", "prefecture": "東京都"}}, {"type": "Feature", "geometry": {"type": "Point", "coordinates": [139.750818, 35.67135]}, "properties": {"category": "ozu", "location_type": "filming", "film_title": "秋日和", "film_title_en": "Late Autumn", "year": 1960.0, "location_name": "千代田区、港区、", "prefecture": "東京都"}}, {"type": "Feature", "geometry": {"type": "Point", "coordinates": [139.814087, 35.666539]}, "properties": {"category": "ozu", "location_type": "filming", "film_title": "秋日和", "film_title_en": "Late Autumn", "year": 1960.0, "location_name": "中央区、江東区", "prefecture": "東京都"}}, {"type": "Feature", "geometry": {"type": "Point", "coordinates": [139.781425, 35.69551]}, "properties": {"category": "ozu", "location_type": "filming", "film_title": "彼岸花", "film_title_en": "Higanbana (1958)", "year": 1958.0, "location_name": "千代田区、中央区", "prefecture": "東京都"}}, {"type": "Feature", "geometry": {"type": "Point", "coordinates": [139.804516, 35.774603]}, "properties": {"category": "ozu", "location_type": "filming", "film_title": "東京物語", "film_title_en": "Tokyo Story", "year": 1953.0, "location_name": "足立区", "prefecture": "東京都"}}, {"type": "Feature", "geometry": {"type": "Point", "coordinates": [139.781425, 35.69551]}, "properties": {"category": "ozu", "location_type": "filming", "film_title": "麥秋", "film_title_en": "Early Summer", "year": 1951.0, "location_name": "千代田区、中央区、", "prefecture": "東京都"}}, {"type": "Feature", "geometry": {"type": "Point", "coordinates": [139.780071, 35.712581]}, "properties": {"category": "ozu", "location_type": "filming", "film_title": "麥秋", "film_title_en": "Early Summer", "year": 1951.0, "location_name": "台東区", "prefecture": "東京都"}}, {"type": "Feature", "geometry": {"type": "Point", "coordinates": [139.691716, 35.689456]}, "properties": {"category": "ozu", "location_type": "filming", "film_title": "晩春", "film_title_en": "Banshun (1949)", "year": 1949.0, "location_name": "中央区", "prefecture": "東京都"}}, {"type": "Feature", "geometry": {"type": "Point", "coordinates": [139.106885, 35.232366]}, "properties": {"category": "ozu", "location_type": "filming", "film_title": "父ありき", "film_title_en": "There Was a Father", "year": 1942.0, "location_name": "箱根町", "prefecture": "神奈川県"}}, {"type": "Feature", "geometry": {"type": "Point", "coordinates": [135.868597, 35.004533]}, "properties": {"category": "ozu", "location_type": "filming", "film_title": "早春", "film_title_en": "Early Spring", "year": 1956.0, "location_name": "（瀬田唐橋畔）", "prefecture": "滋賀県"}}, {"type": "Feature", "geometry": {"type": "Point", "coordinates": [136.876165, 34.283171]}, "properties": {"category": "ozu", "location_type": "filming", "film_title": "浮草", "film_title_en": "Ukikusa (1959)", "year": 1959.0, "location_name": "大王町波切", "prefecture": "三重県"}}, {"type": "Feature", "geometry": {"type": "Point", "coordinates": [134.295262, 34.786395]}, "properties": {"category": "ozu", "location_type": "filming", "film_title": "早春", "film_title_en": "Early Spring", "year": 1956.0, "location_name": "三石", "prefecture": "岡山県"}}, {"type": "Feature", "geometry": {"type": "Point", "coordinates": [135.805369, 34.514996]}, "properties": {"category": "ozu", "location_type": "filming", "film_title": "麥秋", "film_title_en": "Early Summer", "year": 1951.0, "location_name": "木原町耳成山山麓", "prefecture": "奈良県"}}, {"type": "Feature", "geometry": {"type": "Point", "coordinates": [137.235943, 34.815829]}, "properties": {"category": "ozu", "location_type": "filming", "film_title": "東京の英雄", "film_title_en": "A Hero of Tokyo", "year": 1935.0, "location_name": "蒲郡プリンスホテル 蒲郡市竹島町15-1 愛知県蒲郡市", "prefecture": "愛知県"}}, {"type": "Feature", "geometry": {"type": "Point", "coordinates": [135.772106, 34.940732]}, "properties": {"category": "ozu", "location_type": "filming", "film_title": "一人息子", "film_title_en": "Hitori musuko (1936)", "year": 1936.0, "location_name": "旧西塩田小学校", "prefecture": "京都府"}}, {"type": "Feature", "geometry": {"type": "Point", "coordinates": [139.691706, 35.689488]}, "properties": {"category": "ozu", "location_type": "filming", "film_title": "エロ神の怨霊（エロがみのおんりょう）", "film_title_en": "The Revengeful Spirit of Eros", "year": 1930.0, "location_name": "Tokyo", "prefecture": "東京都"}}, {"type": "Feature", "geometry": {"type": "Point", "coordinates": [135.5259, 34.6873]}, "properties": {"category": "ozu", "location_type": "filming", "film_title": "一人息子", "film_title_en": "Hitori musuko (1936)", "year": 1936.0, "location_name": "Eitai Bridge, Tokyo 永代橋", "prefecture": "東京都"}}, {"type": "Feature", "geometry": {"type": "Point", "coordinates": [139.691706, 35.689488]}, "properties": {"category": "ozu", "location_type": "filming", "film_title": "一人息子", "film_title_en": "Hitori musuko (1936)", "year": 1936.0, "location_name": "Tokyo", "prefecture": "東京都"}}, {"type": "Feature", "geometry": {"type": "Point", "coordinates": [138.180956, 36.651299]}, "properties": {"category": "ozu", "location_type": "filming", "film_title": "一人息子", "film_title_en": "Hitori musuko (1936)", "year": 1936.0, "location_name": "Nagano, Japan", "prefecture": "長野県"}}, {"type": "Feature", "geometry": {"type": "Point", "coordinates": [139.271495, 36.655227]}, "properties": {"category": "ozu", "location_type": "filming", "film_title": "大人の見る繪本　生れてはみたけれど’", "film_title_en": "I Was Born, But…", "year": 1932.0, "location_name": "Japan", "prefecture": "群馬県"}}, {"type": "Feature", "geometry": {"type": "Point", "coordinates": [139.271495, 36.655227]}, "properties": {"category": "ozu", "location_type": "filming", "film_title": "秋刀魚の味", "film_title_en": "An Autumn Afternoon", "year": 1962.0, "location_name": "Japan", "prefecture": "群馬県"}}, {"type": "Feature", "geometry": {"type": "Point", "coordinates": [139.691706, 35.689488]}, "properties": {"category": "ozu", "location_type": "filming", "film_title": "大人の見る繪本 生れてはみたけれど", "film_title_en": "Otona no miru ehon - Umarete wa mita keredo (1932)", "year": 1932.0, "location_name": "Tokyo", "prefecture": "東京都"}}, {"type": "Feature", "geometry": {"type": "Point", "coordinates": [139.642508, 35.447737]}, "properties": {"category": "ozu", "location_type": "filming", "film_title": "父ありき", "film_title_en": "There Was a Father", "year": 1942.0, "location_name": "大仏前 （2） 神奈川県鎌倉市", "prefecture": "神奈川県"}}, {"type": "Feature", "geometry": {"type": "Point", "coordinates": [139.038503, 35.21679]}, "properties": {"category": "ozu", "location_type": "filming", "film_title": "父ありき", "film_title_en": "There Was a Father", "year": 1942.0, "location_name": "曾我兄弟の墓 神奈川県足柄下郡箱根町 神奈川県足柄下郡箱根町", "prefecture": "神奈川県"}}, {"type": "Feature", "geometry": {"type": "Point", "coordinates": [139.030242, 35.203402]}, "properties": {"category": "ozu", "location_type": "filming", "film_title": "父ありき", "film_title_en": "There Was a Father", "year": 1942.0, "location_name": "宮ノ下と元箱根の間の国道1号。", "prefecture": "神奈川県"}}, {"type": "Feature", "geometry": {"type": "Point", "coordinates": [139.031121, 35.20006]}, "properties": {"category": "ozu", "location_type": "filming", "film_title": "父ありき", "film_title_en": "There Was a Father", "year": 1942.0, "location_name": "芦ノ湖と富士山 神奈川県足柄下郡箱根町 神奈川県足柄下郡箱根町", "prefecture": "神奈川県"}}, {"type": "Feature", "geometry": {"type": "Point", "coordinates": [139.642508, 35.447737]}, "properties": {"category": "ozu", "location_type": "filming", "film_title": "父ありき", "film_title_en": "There Was a Father", "year": 1942.0, "location_name": "箱根町", "prefecture": "神奈川県"}}, {"type": "Feature", "geometry": {"type": "Point", "coordinates": [139.030808, 35.201457]}, "properties": {"category": "ozu", "location_type": "filming", "film_title": "父ありき", "film_title_en": "There Was a Father", "year": 1942.0, "location_name": "賽ノ河原 箱根町元箱根 神奈川県足柄下郡箱根", "prefecture": "神奈川県"}}, {"type": "Feature", "geometry": {"type": "Point", "coordinates": [138.935801, 34.969655]}, "properties": {"category": "ozu", "location_type": "filming", "film_title": "お茶漬の味", "film_title_en": "Ochazuke no aji (1952)", "year": 1952.0, "location_name": "修善寺・嵐山 静岡県伊豆市 静岡県伊豆市", "prefecture": "静岡県"}}, {"type": "Feature", "geometry": {"type": "Point", "coordinates": [138.382939, 34.976794]}, "properties": {"category": "ozu", "location_type": "filming", "film_title": "お茶漬の味", "film_title_en": "Ochazuke no aji (1952)", "year": 1952.0, "location_name": "新井旅館・華の池 静岡県伊豆市", "prefecture": "静岡県"}}, {"type": "Feature", "geometry": {"type": "Point", "coordinates": [139.550456, 35.318999]}, "properties": {"category": "ozu", "location_type": "filming", "film_title": "", "film_title_en": "Banshun", "year": 1949.0, "location_name": "Kitakamakura Station, Kamakura, Kanagawa, Japan", "prefecture": "神奈川県"}}, {"type": "Feature", "geometry": {"type": "Point", "coordinates": [139.403602, 35.333852]}, "properties": {"category": "ozu", "location_type": "filming", "film_title": "", "film_title_en": "Banshun", "year": 1949.0, "location_name": "Chigasaki, Kanagawa, Japan", "prefecture": "神奈川県"}}, {"type": "Feature", "geometry": {"type": "Point", "coordinates": [139.54505, 35.337566]}, "properties": {"category": "ozu", "location_type": "filming", "film_title": "", "film_title_en": "Banshun", "year": 1949.0, "location_name": "Kita-Kamakura, Kanagawa, Japan", "prefecture": "神奈川県"}}, {"type": "Feature", "geometry": {"type": "Point", "coordinates": [135.755597, 35.021247]}, "properties": {"category": "ozu", "location_type": "filming", "film_title": "", "film_title_en": "Banshun", "year": 1949.0, "location_name": "Kyoto", "prefecture": "京都府"}}, {"type": "Feature", "geometry": {"type": "Point", "coordinates": [139.544001, 35.346435]}, "properties": {"category": "ozu", "location_type": "filming", "film_title": "", "film_title_en": "Banshun", "year": 1949.0, "location_name": "Shochiku-Ofuna, Ofuna, Kanagawa, Japan", "prefecture": "神奈川県"}}, {"type": "Feature", "geometry": {"type": "Point", "coordinates": [139.691706, 35.689488]}, "properties": {"category": "ozu", "location_type": "filming", "film_title": "", "film_title_en": "Banshun", "year": 1949.0, "location_name": "Tokyo", "prefecture": "東京都"}}, {"type": "Feature", "geometry": {"type": "Point", "coordinates": [139.533535, 35.400036]}, "properties": {"category": "ozu", "location_type": "filming", "film_title": "", "film_title_en": "Banshun", "year": 1949.0, "location_name": "Totsuka, Kanagawa, Japan", "prefecture": "神奈川県"}}, {"type": "Feature", "geometry": {"type": "Point", "coordinates": [139.77394, 35.70841]}, "properties": {"category": "ozu", "location_type": "filming", "film_title": "", "film_title_en": "Banshun", "year": 1949.0, "location_name": "Ueno Station, Ueno, Tokyo, Japan", "prefecture": "東京都"}}, {"type": "Feature", "geometry": {"type": "Point", "coordinates": [139.638026, 35.443708]}, "properties": {"category": "ozu", "location_type": "filming", "film_title": "", "film_title_en": "Banshun", "year": 1949.0, "location_name": "Yokohama, Kanagawa, Japan", "prefecture": "神奈川県"}}, {"type": "Feature", "geometry": {"type": "Point", "coordinates": [139.691716, 35.689456]}, "properties": {"category": "ozu", "location_type": "filming", "film_title": "", "film_title_en": "Akibiyori", "year": 1960.0, "location_name": "港区（東京タワー・展望台）", "prefecture": "東京都"}}, {"type": "Feature", "geometry": {"type": "Point", "coordinates": [139.271495, 36.655227]}, "properties": {"category": "ozu", "location_type": "filming", "film_title": "", "film_title_en": "Daigaku yoitoko", "year": 1936.0, "location_name": "Japan", "prefecture": "群馬県"}}, {"type": "Feature", "geometry": {"type": "Point", "coordinates": [139.766647, 35.67087]}, "properties": {"category": "ozu", "location_type": "filming", "film_title": "", "film_title_en": "Higanbana", "year": 1958.0, "location_name": "Ginza, Chuo-ku, Tokyo, Japan", "prefecture": "東京都"}}, {"type": "Feature", "geometry": {"type": "Point", "coordinates": [139.716, 35.5629]}, "properties": {"category": "ozu", "location_type": "filming", "film_title": "", "film_title_en": "Nikutaibi", "year": 1928.0, "location_name": "Shochiku-Kamata Studios, Tokyo, Japan", "prefecture": "東京都"}}, {"type": "Feature", "geometry": {"type": "Point", "coordinates": [139.544001, 35.346435]}, "properties": {"category": "ozu", "location_type": "filming", "film_title": "", "film_title_en": "Sanma no aji", "year": 1962.0, "location_name": "Shochiku-Ofuna, Ofuna, Kanagawa, Japan", "prefecture": "神奈川県"}}, {"type": "Feature", "geometry": {"type": "Point", "coordinates": [139.777139, 35.667344]}, "properties": {"category": "ozu", "location_type": "filming", "film_title": "彼岸花", "film_title_en": "Higanbana (1958)", "year": 1958.0, "location_name": "聖路加病院", "prefecture": "東京都"}}, {"type": "Feature", "geometry": {"type": "Point", "coordinates": [139.776188, 35.712364]}, "properties": {"category": "ozu", "location_type": "filming", "film_title": "東京暮色", "film_title_en": "Tokyo Twilight", "year": 1957.0, "location_name": "上野駅", "prefecture": "東京都"}}, {"type": "Feature", "geometry": {"type": "Point", "coordinates": [139.544001, 35.346435]}, "properties": {"category": "ozu", "location_type": "filming", "film_title": "", "film_title_en": "Banshun", "year": 1949.0, "location_name": "Ofuna, Kanagawa, Japan", "prefecture": "神奈川県"}}, {"type": "Feature", "geometry": {"type": "Point", "coordinates": [139.745438, 35.658578]}, "properties": {"category": "ozu", "location_type": "filming", "film_title": "", "film_title_en": "Akibiyori", "year": 1960.0, "location_name": "Tokyo Tower, Tokyo, Japan", "prefecture": "東京都"}}, {"type": "Feature", "geometry": {"type": "Point", "coordinates": [138.180908, 36.651282]}, "properties": {"category": "ozu", "location_type": "filming", "film_title": "一人息子", "film_title_en": "Hitori musuko (1936)", "year": 1936.0, "location_name": "旧西塩田小学校 （Former Nishida elementary school）", "prefecture": "長野県"}}, {"type": "Feature", "geometry": {"type": "Point", "coordinates": [138.180956, 36.651299]}, "properties": {"category": "ozu", "location_type": "filming", "film_title": "一人息子", "film_title_en": "Hitori musuko (1936)", "year": 1936.0, "location_name": "Mt. Okuhotakadade", "prefecture": "長野県"}}, {"type": "Feature", "geometry": {"type": "Point", "coordinates": [139.569959, 35.67354]}, "properties": {"category": "ozu", "location_type": "filming", "film_title": "一人息子", "film_title_en": "Hitori musuko (1936)", "year": 1936.0, "location_name": "Teiko Middle School", "prefecture": "東京都"}}, {"type": "Feature", "geometry": {"type": "Point", "coordinates": [139.691706, 35.689488]}, "properties": {"category": "ozu", "location_type": "filming", "film_title": "エロ神の怨霊", "film_title_en": "The Revengeful Spirit of Eros", "year": 1930.0, "location_name": "Mukojima, Tokyo, Japan", "prefecture": "東京都"}}, {"type": "Feature", "geometry": {"type": "Point", "coordinates": [139.271495, 36.655227]}, "properties": {"category": "ozu", "location_type": "filming", "film_title": "引越し夫婦", "film_title_en": "Couple on the Move", "year": 1928.0, "location_name": "Japan", "prefecture": "群馬県"}}, {"type": "Feature", "geometry": {"type": "Point", "coordinates": [139.691706, 35.689488]}, "properties": {"category": "ozu", "location_type": "filming", "film_title": "東京の宿", "film_title_en": "An Inn in Tokyo", "year": 1935.0, "location_name": "Mukojima, Tokyo, Japan", "prefecture": "東京都"}}, {"type": "Feature", "geometry": {"type": "Point", "coordinates": [139.691706, 35.689488]}, "properties": {"category": "ozu", "location_type": "filming", "film_title": "結婚学入門", "film_title_en": "An Introduction to Marriage", "year": 1930.0, "location_name": "Mukojima, Tokyo, Japan", "prefecture": "東京都"}}, {"type": "Feature", "geometry": {"type": "Point", "coordinates": [139.723727, 35.563927]}, "properties": {"category": "ozu", "location_type": "filming", "film_title": "肉体美", "film_title_en": "Nikutaibi (1928)", "year": 1928.0, "location_name": "Kamata, Ota-ku, Tokyo, Japan", "prefecture": "東京都"}}, {"type": "Feature", "geometry": {"type": "Point", "coordinates": [139.642345, 35.447507]}, "properties": {"category": "ozu", "location_type": "filming", "film_title": "戸田家の兄妹", "film_title_en": "The Brothers and Sisters of the Toda Family", "year": 1941.0, "location_name": "Yokohama, Kanagawa, Honshu, Japan", "prefecture": "神奈川県"}}, {"type": "Feature", "geometry": {"type": "Point", "coordinates": [139.271495, 36.655227]}, "properties": {"category": "ozu", "location_type": "filming", "film_title": "大学よいとこ", "film_title_en": "Daigaku yoitoko (1936)", "year": 1936.0, "location_name": "Japan", "prefecture": "群馬県"}}, {"type": "Feature", "geometry": {"type": "Point", "coordinates": [139.723727, 35.563927]}, "properties": {"category": "ozu", "location_type": "filming", "film_title": "非常線の女", "film_title_en": "Dragnet Girl", "year": 1933.0, "location_name": "Kamata, Ota-ku, Tokyo, Japan", "prefecture": "東京都"}}, {"type": "Feature", "geometry": {"type": "Point", "coordinates": [139.723727, 35.563927]}, "properties": {"category": "ozu", "location_type": "filming", "film_title": "若人の夢", "film_title_en": "Dreams of Youth", "year": 1928.0, "location_name": "Kamata, Ota-ku, Tokyo, Japan", "prefecture": "東京都"}}, {"type": "Feature", "geometry": {"type": "Point", "coordinates": [138.2529, 36.2048]}, "properties": {"category": "ozu", "location_type": "filming", "film_title": "大人の見る繪本 生れてはみたけれど", "film_title_en": "Otona no miru ehon - Umarete wa mita keredo (1932)", "year": 1932.0, "location_name": "日本", "prefecture": "長野県"}}, {"type": "Feature", "geometry": {"type": "Point", "coordinates": [139.710722, 35.563393]}, "properties": {"category": "ozu", "location_type": "filming", "film_title": "大人の見る繪本 生れてはみたけれど", "film_title_en": "Otona no miru ehon - Umarete wa mita keredo (1932)", "year": 1932.0, "location_name": "通学路:御薗神社前 in front of Misono shrine", "prefecture": "東京都"}}, {"type": "Feature", "geometry": {"type": "Point", "coordinates": [139.712729, 35.560344]}, "properties": {"category": "ozu", "location_type": "filming", "film_title": "大人の見る繪本 生れてはみたけれど", "film_title_en": "Otona no miru ehon - Umarete wa mita keredo (1932)", "year": 1932.0, "location_name": "富士通ソリューションスクエア,", "prefecture": "東京都"}},