{"generated": "2025-12-26T17:34:58.232880", "metadata": {"categories": {"godzilla": {"name": "Godzilla", "name_jp": "ゴジラ", "color": "#2ecc71", "film_count": 50, "filming_locations": 537, "represented_locations": 2047, "location_count": 2584}, "torasan": {"name": "Tora-san", "name_jp": "男はつらいよ", "color": "#f1c40f", "film_count": 59, "filming_locations": 1515, "represented_locations": 1620, "location_count": 3135}}}, "locations": [{"type": "Feature", "geometry": {"type": "Point", "coordinates": [139.078682, 35.086406]}, "properties": {"category": "godzilla", "category_name": "Godzilla", "color": "#2ecc71", "location_type": "filming", "film_title": "キングコング対ゴジラ", "english_title": "Kingu Kongu tai Gojira (1962)", "year": 1962.0, "location_name": "Atami, Japan", "prefecture": "静岡県"}}, {"type": "Feature", "geometry": {"type": "Point", "coordinates": [139.763389, 35.665636]}, "properties": {"category": "godzilla", "category_name": "Godzilla", "color": "#2ecc71", "location_type": "filming", "film_title": "ゴジラ×コング 新たなる帝国", "english_title": "Gojira (1954)", "year": 2024.0, "location_name": "Chūō, Tokyo", "prefecture": "東京都"}}, {"type": "Feature", "geometry": {"type": "Point", "coordinates": [-91.3040889997868, 38.2395180000936]}, "properties": {"category": "godzilla", "category_name": "Godzilla", "color": "#2ecc71", "location_type": "filming", "film_title": "ゴジラ", "english_title": "Tokyo Calling (2012)", "year": 2014.0, "location_name": "Janjira, Japan", "prefecture": null}}, {"type": "Feature", "geometry": {"type": "Point", "coordinates": [139.672171901809, 35.2812284532629]}, "properties": {"category": "godzilla", "category_name": "Godzilla", "color": "#2ecc71", "location_type": "filming", "film_title": "メカゴジラの逆襲", "english_title": "Mekagojira no gyakushu (1975)", "year": 1975.0, "location_name": "Yokosuka, Kanagawa, Japan", "prefecture": "神奈川県"}}, {"type": "Feature", "geometry": {"type": "Point", "coordinates": [141.35, 43.0666666666667]}, "properties": {"category": "godzilla", "category_name": "Godzilla", "color": "#2ecc71", "location_type": "filming", "film_title": "ゴジラvsキングギドラ", "english_title": "[T] Godzilla vs King Ghidorah", "year": 1991.0, "location_name": "Sapporo", "prefecture": "北海道"}}, {"type": "Feature", "geometry": {"type": "Point", "coordinates": [139.744735, 35.675862]}, "properties": {"category": "godzilla", "category_name": "Godzilla", "color": "#2ecc71", "location_type": "filming", "film_title": "キングコング対ゴジラ", "english_title": "Kingu Kongu tai Gojira (1962)", "year": 1962.0, "location_name": "National Diet Building, Chiyoda, Tokyo, Japan", "prefecture": "東京都"}}, {"type": "Feature", "geometry": {"type": "Point", "coordinates": [139.691706, 35.689488]}, "properties": {"category": "godzilla", "category_name": "Godzilla", "color": "#2ecc71", "location_type": "filming", "film_title": "シン・ゴジラ", "english_title": "Shin Gojira (2016)", "year": 2016.0, "location_name": "Tokyo", "prefecture": "東京都"}}, {"type": "Feature", "geometry": {"type": "Point", "coordinates": [-155.5828, 19.8968]}, "properties": {"category": "godzilla", "category_name": "Godzilla", "color": "#2ecc71", "location_type": "filming", "film_title": "ゴジラ", "english_title": "Tokyo Calling (2012)", "year": 2014.0, "location_name": "Hawaii", "prefecture": "Overseas"}}, {"type": "Feature", "geometry": {"type": "Point", "coordinates": [136.842138888889, 34.4878888888889]}, "properties": {"category": "godzilla", "category_name": "Godzilla", "color": "#2ecc71", "location_type": "filming", "film_title": "ゴジラ×コング 新たなる帝国", "english_title": "Gojira (1954)", "year": 2024.0, "location_name": "Toba, Mie Prefecture", "prefecture": "三重県"}}, {"type": "Feature", "geometry": {"type": "Point", "coordinates": [139.271494999839, 36.6552269979992]}, "properties": {"category": "godzilla", "category_name": "Godzilla", "color": "#2ecc71", "location_type": "filming", "film_title": "ゴジラ×コング 新たなる帝国", "english_title": "Gojira (1954)", "year": 2024.0, "location_name": "Japan", "prefecture": "群馬県"}}, {"type": "Feature", "geometry": {"type": "Point", "coordinates": [139.7138844, 35.5624794]}, "properties": {"category": "godzilla", "category_name": "Godzilla", "color": "#2ecc71", "location_type": "filming", "film_title": "シン・ゴジラ", "english_title": "Shin Gojira (2016)", "year": 2016.0, "location_name": "Kamata", "prefecture": "東京都"}}, {"type": "Feature", "geometry": {"type": "Point", "coordinates": [139.691706, 35.689488]}, "properties": {"category": "godzilla", "category_name": "Godzilla", "color": "#2ecc71", "location_type": "filming", "film_title": "ゴジラ対メガロ", "english_title": "Godzilla vs Megalon", "year": 1973.0, "location_name": "Tokyo", "prefecture": "東京都"}}, {"type": "Feature", "geometry": {"type": "Point", "coordinates": [135.502161952141, 34.6937259098287]}, "properties": {"category": "godzilla", "category_name": "Godzilla", "color": "#2ecc71", "location_type": "filming", "film_title": "ゴジラvsビオランテ", "english_title": "GODZILLA VS. BIOLLANTE", "year": 1989.0, "location_name": "Osaka, Japan", "prefecture": "大阪府"}}, {"type": "Feature", "geometry": {"type": "Point", "coordinates": [139.271494999839, 36.6552269979992]}, "properties": {"category": "godzilla", "category_name": "Godzilla", "color": "#2ecc71", "location_type": "filming", "film_title": "シン・ゴジラ", "english_title": "Shin Gojira (2016)", "year": 2016.0, "location_name": "Japan", "prefecture": "群馬県"}}, {"type": "Feature", "geometry": {"type": "Point", "coordinates": [136.786305, 34.456484]}, "properties": {"category": "godzilla", "category_name": "Godzilla", "color": "#2ecc71", "location_type": "filming", "film_title": "ゴジラ×コング 新たなる帝国", "english_title": "Gojira (1954)", "year": 2024.0, "location_name": "Odo Island", "prefecture": "三重県"}}, {"type": "Feature", "geometry": {"type": "Point", "coordinates": [139.691706, 35.689488]}, "properties": {"category": "godzilla", "category_name": "Godzilla", "color": "#2ecc71", "location_type": "filming", "film_title": "ゴジラ×コング 新たなる帝国", "english_title": "Gojira (1954)", "year": 2024.0, "location_name": "Tokyo", "prefecture": "東京都"}}, {"type": "Feature", "geometry": {"type": "Point", "coordinates": [2.34139999961038, 48.8571699999716]}, "properties": {"category": "godzilla", "category_name": "Godzilla", "color": "#2ecc71", "location_type": "filming", "film_title": "ゴジラ FINAL WARS", "english_title": "GODZILLA: FINAL WARS", "year": 2004.0, "location_name": "Paris, France", "prefecture": "Overseas"}}, {"type": "Feature", "geometry": {"type": "Point", "coordinates": [139.691706, 35.689488]}, "properties": {"category": "godzilla", "category_name": "Godzilla", "color": "#2ecc71", "location_type": "filming", "film_title": "ゴジラ キング・オブ・モンスターズ", "english_title": "Bringing Godzilla Down to Size: The Art of Japanese Special Effects", "year": 2008.0, "location_name": "Tokyo", "prefecture": "東京都"}}, {"type": "Feature", "geometry": {"type": "Point", "coordinates": [139.29410948794, 35.7289413413629]}, "properties": {"category": "godzilla", "category_name": "Godzilla", "color": "#2ecc71", "location_type": "filming", "film_title": "ゴジラ", "english_title": "Tokyo Calling (2012)", "year": 2014.0, "location_name": "Akiruno, Tokyo, Japan", "prefecture": "東京都"}}, {"type": "Feature", "geometry": {"type": "Point", "coordinates": [139.691706, 35.689488]}, "properties": {"category": "godzilla", "category_name": "Godzilla", "color": "#2ecc71", "location_type": "filming", "film_title": "ゴジラ", "english_title": "Tokyo Calling (2012)", "year": 2014.0, "location_name": "Tokyo", "prefecture": "東京都"}}, {"type": "Feature", "geometry": {"type": "Point", "coordinates": [139.271494999839, 36.6552269979992]}, "properties": {"category": "godzilla", "category_name": "Godzilla", "color": "#2ecc71", "location_type": "filming", "film_title": "ゴジラ２０００ ミレニアム", "english_title": "Gojira ni-sen mireniamu (1999)", "year": 1999.0, "location_name": "Japan", "prefecture": "群馬県"}}, {"type": "Feature", "geometry": {"type": "Point", "coordinates": [127.680946924156, 26.2122811471297]}, "properties": {"category": "godzilla", "category_name": "Godzilla", "color": "#2ecc71", "location_type": "filming", "film_title": "ゴジラ対メカゴジラ", "english_title": "Gojira tai Mekagojira (1974)", "year": 1974.0, "location_name": "Okinawa, Japan", "prefecture": "沖縄県"}}, {"type": "Feature", "geometry": {"type": "Point", "coordinates": [127.680946924156, 26.2122811471297]}, "properties": {"category": "godzilla", "category_name": "Godzilla", "color": "#2ecc71", "location_type": "filming", "film_title": "ゴジラ対メカゴジラ", "english_title": "Gojira tai Mekagojira (1974)", "year": 1974.0, "location_name": "Gyokusen Cave, Okinawa, Japan", "prefecture": "沖縄県"}}, {"type": "Feature", "geometry": {"type": "Point", "coordinates": [139.749600556384, 35.6602487552462]}, "properties": {"category": "godzilla", "category_name": "Godzilla", "color": "#2ecc71", "location_type": "filming", "film_title": "ゴジラ×モスラ×メカゴジラ 東京SOS", "english_title": "GODZILLA: TOKYO SOS", "year": 2003.0, "location_name": "Shiba Park, Minato-ku, Tokyo, Japan", "prefecture": "東京都"}}, {"type": "Feature", "geometry": {"type": "Point", "coordinates": [130.999999999831, 33.000000000046]}, "properties": {"category": "godzilla", "category_name": "Godzilla", "color": "#2ecc71", "location_type": "filming", "film_title": "ゴジラvsキングギドラ", "english_title": "[T] Godzilla vs King Ghidorah", "year": 1991.0, "location_name": "Kyushu, Japan", "prefecture": "熊本県"}}, {"type": "Feature", "geometry": {"type": "Point", "coordinates": [141.354368790832, 43.0620372440522]}, "properties": {"category": "godzilla", "category_name": "Godzilla", "color": "#2ecc71", "location_type": "filming", "film_title": "ゴジラvsキングギドラ", "english_title": "[T] Godzilla vs King Ghidorah", "year": 1991.0, "location_name": "Sapporo, Hokkaido, Japan", "prefecture": "北海道"}}, {"type": "Feature", "geometry": {"type": "Point", "coordinates": [139.691706, 35.689488]}, "properties": {"category": "godzilla", "category_name": "Godzilla", "color": "#2ecc71", "location_type": "filming", "film_title": "ゴジラvsキングギドラ", "english_title": "[T] Godzilla vs King Ghidorah", "year": 1991.0, "location_name": "Tokyo", "prefecture": "東京都"}}, {"type": "Feature", "geometry": {"type": "Point", "coordinates": [139.5534, 35.6553]}, "properties": {"category": "godzilla", "category_name": "Godzilla", "color": "#2ecc71", "location_type": "filming", "film_title": "ゴジラ・モスラ・キングギドラ 大怪獣総攻撃", "english_title": "Godzilla Must Be Killed", "year": 2001.0, "location_name": "Studio 1, Toho Studios, Tokyo, Japan", "prefecture": "東京都"}}, {"type": "Feature", "geometry": {"type": "Point", "coordinates": [139.5534, 35.6553]}, "properties": {"category": "godzilla", "category_name": "Godzilla", "color": "#2ecc71", "location_type": "filming", "film_title": "ゴジラ・モスラ・キングギドラ 大怪獣総攻撃", "english_title": "Godzilla Must Be Killed", "year": 2001.0, "location_name": "Studio 8, Toho Studios, Tokyo, Japan", "prefecture": "東京都"}}, {"type": "Feature", "geometry": {"type": "Point", "coordinates": [139.5534, 35.6553]}, "properties": {"category": "godzilla", "category_name": "Godzilla", "color": "#2ecc71", "location_type": "filming", "film_title": "ゴジラ・モスラ・キングギドラ 大怪獣総攻撃", "english_title": "Godzilla Must Be Killed", "year": 2001.0, "location_name": "Studio 9, Toho Studios, Tokyo, Japan", "prefecture": "東京都"}}, {"type": "Feature", "geometry": {"type": "Point", "coordinates": [139.638026, 35.443708]}, "properties": {"category": "godzilla", "category_name": "Godzilla", "color": "#2ecc71", "location_type": "filming", "film_title": "ゴジラ・モスラ・キングギドラ 大怪獣総攻撃", "english_title": "Godzilla Must Be Killed", "year": 2001.0, "location_name": "Yokohama, Kanagawa, Japan", "prefecture": "神奈川県"}}, {"type": "Feature", "geometry": {"type": "Point", "coordinates": [139.271494999839, 36.6552269979992]}, "properties": {"category": "godzilla", "category_name": "Godzilla", "color": "#2ecc71", "location_type": "filming", "film_title": "ゴジラ FINAL WARS", "english_title": "GODZILLA: FINAL WARS", "year": 2004.0, "location_name": "Japan", "prefecture": "群馬県"}}, {"type": "Feature", "geometry": {"type": "Point", "coordinates": [139.691706, 35.689488]}, "properties": {"category": "godzilla", "category_name": "Godzilla", "color": "#2ecc71", "location_type": "filming", "film_title": "ゴジラ FINAL WARS", "english_title": "GODZILLA: FINAL WARS", "year": 2004.0, "location_name": "Tokyo", "prefecture": "東京都"}}, {"type": "Feature", "geometry": {"type": "Point", "coordinates": [139.691706, 35.689488]}, "properties": {"category": "godzilla", "category_name": "Godzilla", "color": "#2ecc71", "location_type": "filming", "film_title": "怪獣王ゴジラ", "english_title": "Godzilla, King of the Monsters", "year": 1998.0, "location_name": "Tokyo", "prefecture": "東京都"}}, {"type": "Feature", "geometry": {"type": "Point", "coordinates": [136.843432827852, 34.4813341351391]}, "properties": {"category": "godzilla", "category_name": "Godzilla", "color": "#2ecc71", "location_type": "filming", "film_title": "ゴジラ×コング 新たなる帝国", "english_title": "Gojira (1954)", "year": 2024.0, "location_name": "Toba, Mie, Japan", "prefecture": "三重県"}}, {"type": "Feature", "geometry": {"type": "Point", "coordinates": [139.5534, 35.6553]}, "properties": {"category": "godzilla", "category_name": "Godzilla", "color": "#2ecc71", "location_type": "filming", "film_title": "ゴジラ×コング 新たなる帝国", "english_title": "Gojira (1954)", "year": 2024.0, "location_name": "Toho Studios, Tokyo, Japan", "prefecture": "東京都"}}, {"type": "Feature", "geometry": {"type": "Point", "coordinates": [139.5534, 35.6553]}, "properties": {"category": "godzilla", "category_name": "Godzilla", "color": "#2ecc71", "location_type": "filming", "film_title": "ゴジラ×メカゴジラ", "english_title": "Gojira X Mekagojira (2002)", "year": 2002.0, "location_name": "Studio 9, Toho Studios, Tokyo, Japan", "prefecture": "東京都"}}, {"type": "Feature", "geometry": {"type": "Point", "coordinates": [139.691706, 35.689488]}, "properties": {"category": "godzilla", "category_name": "Godzilla", "color": "#2ecc71", "location_type": "filming", "film_title": "ゴジラ", "english_title": "Tokyo Calling (2012)", "year": 2014.0, "location_name": "Tokyo", "prefecture": "東京都"}}, {"type": "Feature", "geometry": {"type": "Point", "coordinates": [139.271494999839, 36.6552269979992]}, "properties": {"category": "godzilla", "category_name": "Godzilla", "color": "#2ecc71", "location_type": "filming", "film_title": "キングコング対ゴジラ", "english_title": "Kingu Kongu tai Gojira (1962)", "year": 1962.0, "location_name": "Japan", "prefecture": "群馬県"}}, {"type": "Feature", "geometry": {"type": "Point", "coordinates": [139.271494999839, 36.6552269979992]}, "properties": {"category": "godzilla", "category_name": "Godzilla", "color": "#2ecc71", "location_type": "filming", "film_title": "ゴジラvsキングギドラ", "english_title": "[T] Godzilla vs King Ghidorah", "year": 1991.0, "location_name": "Japan", "prefecture": "群馬県"}}, {"type": "Feature", "geometry": {"type": "Point", "coordinates": [139.271494999839, 36.6552269979992]}, "properties": {"category": "godzilla", "category_name": "Godzilla", "color": "#2ecc71", "location_type": "filming", "film_title": "ゴジラ対メガロ", "english_title": "Godzilla vs Megalon", "year": 1973.0, "location_name": "Japan", "prefecture": "群馬県"}}, {"type": "Feature", "geometry": {"type": "Point", "coordinates": [139.271494999839, 36.6552269979992]}, "properties": {"category": "godzilla", "category_name": "Godzilla", "color": "#2ecc71", "location_type": "filming", "film_title": "ゴジラvsビオランテ", "english_title": "GODZILLA VS. BIOLLANTE", "year": 1989.0, "location_name": "Japan", "prefecture": "群馬県"}}, {"type": "Feature", "geometry": {"type": "Point", "coordinates": [139.271494999839, 36.6552269979992]}, "properties": {"category": "godzilla", "category_name": "Godzilla", "color": "#2ecc71", "location_type": "filming", "film_title": "ゴジラ・モスラ・キングギドラ 大怪獣総攻撃", "english_title": "Godzilla Must Be Killed", "year": 2001.0, "location_name": "Japan", "prefecture": "群馬県"}}, {"type": "Feature", "geometry": {"type": "Point", "coordinates": [-74.006, 40.7128]}, "properties": {"category": "godzilla", "category_name": "Godzilla", "color": "#2ecc71", "location_type": "filming", "film_title": "ゴジラ FINAL WARS", "english_title": "GODZILLA: FINAL WARS", "year": 2004.0, "location_name": "New York City", "prefecture": "Overseas"}}, {"type": "Feature", "geometry": {"type": "Point", "coordinates": [2.3522219, 48.856614]}, "properties": {"category": "godzilla", "category_name": "Godzilla", "color": "#2ecc71", "location_type": "filming", "film_title": "ゴジラ FINAL WARS", "english_title": "GODZILLA: FINAL WARS", "year": 2004.0, "location_name": "Paris", "prefecture": "Overseas"}}, {"type": "Feature", "geometry": {"type": "Point", "coordinates": [-111.0937, 34.0489]}, "properties": {"category": "godzilla", "category_name": "Godzilla", "color": "#2ecc71", "location_type": "filming", "film_title": "ゴジラ FINAL WARS", "english_title": "GODZILLA: FINAL WARS", "year": 2004.0, "location_name": "Arizona", "prefecture": "Overseas"}}, {"type": "Feature", "geometry": {"type": "Point", "coordinates": [139.271494999839, 36.6552269979992]}, "properties": {"category": "godzilla", "category_name": "Godzilla", "color": "#2ecc71", "location_type": "filming", "film_title": "ゴジラ対メカゴジラ", "english_title": "Gojira tai Mekagojira (1974)", "year": 1974.0, "location_name": "Japan", "prefecture": "群馬県"}}, {"type": "Feature", "geometry": {"type": "Point", "coordinates": [139.271494999839, 36.6552269979992]}, "properties": {"category": "godzilla", "category_name": "Godzilla", "color": "#2ecc71", "location_type": "filming", "film_title": "ゴジラ×モスラ×メカゴジラ 東京SOS", "english_title": "GODZILLA: TOKYO SOS", "year": 2003.0, "location_name": "Japan", "prefecture": "群馬県"}}, {"type": "Feature", "geometry": {"type": "Point", "coordinates": [139.271494999839, 36.6552269979992]}, "properties": {"category": "godzilla", "category_name": "Godzilla", "color": "#2ecc71", "location_type": "filming", "film_title": "ゴジラvsキングギドラ", "english_title": "[T] Godzilla vs King Ghidorah", "year": 1991.0, "location_name": "Japan", "prefecture": "群馬県"}}, {"type": "Feature", "geometry": {"type": "Point", "coordinates": [139.271494999839, 36.6552269979992]}, "properties": {"category": "godzilla", "category_name": "Godzilla", "color": "#2ecc71", "location_type": "filming", "film_title": "ゴジラ×メカゴジラ", "english_title": "Gojira X Mekagojira (2002)", "year": 2002.0, "location_name": "Japan", "prefecture": "群馬県"}}, {"type": "Feature", "geometry": {"type": "Point", "coordinates": [139.271494999839, 36.6552269979992]}, "properties": {"category": "godzilla", "category_name": "Godzilla", "color": "#2ecc71", "location_type": "filming", "film_title": "ゴジラvsスペースゴジラ", "english_title": "GODZILLA VS. SPACE GODZILLA", "year": 1994.0, "location_name": "Japan", "prefecture": "群馬県"}}, {"type": "Feature", "geometry": {"type": "Point", "coordinates": [139.271494999839, 36.6552269979992]}, "properties": {"category": "godzilla", "category_name": "Godzilla", "color": "#2ecc71", "location_type": "filming", "film_title": "ゴジラ・エビラ・モスラ 南海の大決闘", "english_title": "Ebirah,Horror of the Deep", "year": 1966.0, "location_name": "Japan", "prefecture": "群馬県"}}, {"type": "Feature", "geometry": {"type": "Point", "coordinates": [139.271494999839, 36.6552269979992]}, "properties": {"category": "godzilla", "category_name": "Godzilla", "color": "#2ecc71", "location_type": "filming", "film_title": "怪獣島の決戦 ゴジラの息子", "english_title": "SON OF GODZILLA", "year": 1967.0, "location_name": "Japan", "prefecture": "群馬県"}}, {"type": "Feature", "geometry": {"type": "Point", "coordinates": [139.271494999839, 36.6552269979992]}, "properties": {"category": "godzilla", "category_name": "Godzilla", "color": "#2ecc71", "location_type": "filming", "film_title": "ゴジラ・ミニラ・ガバラ オール怪獣大進撃", "english_title": "ALL MONSTERS ATTACK", "year": 1969.0, "location_name": "Japan", "prefecture": "群馬県"}}, {"type": "Feature", "geometry": {"type": "Point", "coordinates": [139.271494999839, 36.6552269979992]}, "properties": {"category": "godzilla", "category_name": "Godzilla", "color": "#2ecc71", "location_type": "filming", "film_title": "地球攻撃命令 ゴジラ対ガイガン", "english_title": "Godzilla vs.Gigan", "year": 1972.0, "location_name": "Japan", "prefecture": "群馬県"}}, {"type": "Feature", "geometry": {"type": "Point", "coordinates": [139.271494999839, 36.6552269979992]}, "properties": {"category": "godzilla", "category_name": "Godzilla", "color": "#2ecc71", "location_type": "filming", "film_title": "メカゴジラの逆襲", "english_title": "Mekagojira no gyakushu (1975)", "year": 1975.0, "location_name": "Japan", "prefecture": "群馬県"}}, {"type": "Feature", "geometry": {"type": "Point", "coordinates": [136.899086111111, 35.1854916666667]}, "properties": {"category": "godzilla", "category_name": "Godzilla", "color": "#2ecc71", "location_type": "filming", "film_title": "ゴジラvsモスラ", "english_title": "GODZILLA VS. MOTHRA", "year": 1992.0, "location_name": "Nagoya", "prefecture": "愛知県"}}, {"type": "Feature", "geometry": {"type": "Point", "coordinates": [139.271494999839, 36.6552269979992]}, "properties": {"category": "godzilla", "category_name": "Godzilla", "color": "#2ecc71", "location_type": "filming", "film_title": "ゴジラvsモスラ", "english_title": "GODZILLA VS. MOTHRA", "year": 1992.0, "location_name": "Japan", "prefecture": "群馬県"}}, {"type": "Feature", "geometry": {"type": "Point", "coordinates": [139.271494999839, 36.6552269979992]}, "properties": {"category": "godzilla", "category_name": "Godzilla", "color": "#2ecc71", "location_type": "filming", "film_title": "ゴジラ (1984)", "english_title": "Godzilla 1984", "year": 1984.0, "location_name": "Japan", "prefecture": "群馬県"}}, {"type": "Feature", "geometry": {"type": "Point", "coordinates": [139.271494999839, 36.6552269979992]}, "properties": {"category": "godzilla", "category_name": "Godzilla", "color": "#2ecc71", "location_type": "filming", "film_title": "ゴジラvsメカゴジラ", "english_title": "GODZILLA VS. MECHAGODZILLA", "year": 1993.0, "location_name": "Japan", "prefecture": "群馬県"}}, {"type": "Feature", "geometry": {"type": "Point", "coordinates": [139.271494999839, 36.6552269979992]}, "properties": {"category": "godzilla", "category_name": "Godzilla", "color": "#2ecc71", "location_type": "filming", "film_title": "ゴジラ×メガギラス Ｇ消滅作戦", "english_title": "Godzilla vs. Megaguirus", "year": 2000.0, "location_name": "Japan", "prefecture": "群馬県"}}, {"type": "Feature", "geometry": {"type": "Point", "coordinates": [139.271494999839, 36.6552269979992]}, "properties": {"category": "godzilla", "category_name": "Godzilla", "color": "#2ecc71", "location_type": "filming", "film_title": "ゴジラ対ヘドラ", "english_title": "GODZILLA VS HEDORAH", "year": 1971.0, "location_name": "Japan", "prefecture": "群馬県"}}, {"type": "Feature", "geometry": {"type": "Point", "coordinates": [139.271494999839, 36.6552269979992]}, "properties": {"category": "godzilla", "category_name": "Godzilla", "color": "#2ecc71", "location_type": "filming", "film_title": "モスラ対ゴジラ", "english_title": "MOTHRA VS. GODZILLA", "year": 1964.0, "location_name": "Japan", "prefecture": "群馬県"}}, {"type": "Feature", "geometry": {"type": "Point", "coordinates": [139.291234, 34.472635]}, "properties": {"category": "godzilla", "category_name": "Godzilla", "color": "#2ecc71", "location_type": "filming", "film_title": "メカゴジラの逆襲", "english_title": "Mekagojira no gyakushu (1975)", "year": 1975.0, "location_name": "鵜渡根島<br>（開始5分55秒）", "prefecture": "東京都"}}, {"type": "Feature", "geometry": {"type": "Point", "coordinates": [135.52652, 34.685864]}, "properties": {"category": "godzilla", "category_name": "Godzilla", "color": "#2ecc71", "location_type": "filming", "film_title": "メカゴジラの逆襲", "english_title": "Mekagojira no gyakushu (1975)", "year": 1975.0, "location_name": "大阪市警察本部（旧陸軍第四師団司令部庁舎）<br>大阪城天守閣からパン<br>（開始10分19秒）", "prefecture": "大阪府"}}, {"type": "Feature", "geometry": {"type": "Point", "coordinates": [135.526373, 34.685875]}, "properties": {"category": "godzilla", "category_name": "Godzilla", "color": "#2ecc71", "location_type": "filming", "film_title": "メカゴジラの逆襲", "english_title": "Mekagojira no gyakushu (1975)", "year": 1975.0, "location_name": "大阪市警察本部正面玄関<br>（開始10分21秒）", "prefecture": "大阪府"}}, {"type": "Feature", "geometry": {"type": "Point", "coordinates": [135.495586, 34.701789]}, "properties": {"category": "godzilla", "category_name": "Godzilla", "color": "#2ecc71", "location_type": "filming", "film_title": "メカゴジラの逆襲", "english_title": "Mekagojira no gyakushu (1975)", "year": 1975.0, "location_name": "国鉄大阪駅<br>（開始24分34秒）", "prefecture": "大阪府"}}, {"type": "Feature", "geometry": {"type": "Point", "coordinates": [135.524896, 34.6785828]}, "properties": {"category": "godzilla", "category_name": "Godzilla", "color": "#2ecc71", "location_type": "filming", "film_title": "メカゴジラの逆襲", "english_title": "Mekagojira no gyakushu (1975)", "year": 1975.0, "location_name": "法円坂住宅から大阪城を臨む<br>（開始24分37秒）", "prefecture": "大阪府"}}, {"type": "Feature", "geometry": {"type": "Point", "coordinates": [135.500374, 34.6648161]}, "properties": {"category": "godzilla", "category_name": "Godzilla", "color": "#2ecc71", "location_type": "filming", "film_title": "メカゴジラの逆襲", "english_title": "Mekagojira no gyakushu (1975)", "year": 1975.0, "location_name": "難波から御堂筋を臨む<br>（開始24分38秒）", "prefecture": "大阪府"}}, {"type": "Feature", "geometry": {"type": "Point", "coordinates": [135.501313, 34.6689684]}, "properties": {"category": "godzilla", "category_name": "Godzilla", "color": "#2ecc71", "location_type": "filming", "film_title": "メカゴジラの逆襲", "english_title": "Mekagojira no gyakushu (1975)", "year": 1975.0, "location_name": "道頓堀橋から戎橋方面<br>（開始24分40秒）", "prefecture": "大阪府"}}, {"type": "Feature", "geometry": {"type": "Point", "coordinates": [135.495532, 34.6934533]}, "properties": {"category": "godzilla", "category_name": "Godzilla", "color": "#2ecc71", "location_type": "filming", "film_title": "メカゴジラの逆襲", "english_title": "Mekagojira no gyakushu (1975)", "year": 1975.0, "location_name": "朝日新聞大阪本社<br>（開始24分43秒）<br>https://www.google.co.jp/maps/@34.694005,135.495914,3a,75y,221.22h,110.25t/data=!3m7!1e1!3m5!1szM77U1XlDP2aGhye6NNxOg!2e0!6s%2F%2Fgeo3.ggpht.com%2Fcbk%3Fpanoid%3DzM77U1XlDP2aGhye6NNxOg%26output%3Dthumbnail%26cb_client%3Dmaps_sv.tactile.gps%26thumb%3D2%26w%3D203%26h%3D100%26yaw%3D276.1525%26pitch%3D0%26thumbfov%3D100!7i13312!8i6656", "prefecture": "大阪府"}}, {"type": "Feature", "geometry": {"type": "Point", "coordinates": [135.491241, 34.69378]}, "properties": {"category": "godzilla", "category_name": "Godzilla", "color": "#2ecc71", "location_type": "filming", "film_title": "メカゴジラの逆襲", "english_title": "Mekagojira no gyakushu (1975)", "year": 1975.0, "location_name": "渡辺橋から西方向を望む<br>（開始24分43秒）", "prefecture": "大阪府"}}, {"type": "Feature", "geometry": {"type": "Point", "coordinates": [135.494063, 34.693802]}, "properties": {"category": "godzilla", "category_name": "Godzilla", "color": "#2ecc71", "location_type": "filming", "film_title": "メカゴジラの逆襲", "english_title": "Mekagojira no gyakushu (1975)", "year": 1975.0, "location_name": "大阪中央電信局を望む<br>（開始24分53秒）", "prefecture": "大阪府"}}, {"type": "Feature", "geometry": {"type": "Point", "coordinates": [135.427426, 34.651674]}, "properties": {"category": "godzilla", "category_name": "Godzilla", "color": "#2ecc71", "location_type": "filming", "film_title": "メカゴジラの逆襲", "english_title": "Mekagojira no gyakushu (1975)", "year": 1975.0, "location_name": "大阪港中央突堤<br>（開始25分08秒／35分39秒／37分05秒／38分28秒）", "prefecture": "大阪府"}}, {"type": "Feature", "geometry": {"type": "Point", "coordinates": [135.429097, 34.652611]}, "properties": {"category": "godzilla", "category_name": "Godzilla", "color": "#2ecc71", "location_type": "filming", "film_title": "メカゴジラの逆襲", "english_title": "Mekagojira no gyakushu (1975)", "year": 1975.0, "location_name": "現大阪水上警察署<br>（開始25分19秒）", "prefecture": "大阪府"}}, {"type": "Feature", "geometry": {"type": "Point", "coordinates": [135.500017, 34.693758]}, "properties": {"category": "godzilla", "category_name": "Godzilla", "color": "#2ecc71", "location_type": "filming", "film_title": "メカゴジラの逆襲", "english_title": "Mekagojira no gyakushu (1975)", "year": 1975.0, "location_name": "日本銀行大阪支店旧館<br>（開始41分41秒）<br>https://www.google.co.jp/maps/@34.6925265,135.4991073,3a,15y,56h,92.8t/data=!3m7!1e1!3m5!1s-GzgYlpVl5dm-60snkJ4qg!2e0!6s%2F%2Fgeo1.ggpht.com%2Fcbk%3Fpanoid%3D-GzgYlpVl5dm-60snkJ4qg%26output%3Dthumbnail%26cb_client%3Dmaps_sv.tactile.gps%26thumb%3D2%26w%3D203%26h%3D100%26yaw%3D288.5011%26pitch%3D0%26thumbfov%3D100!7i13312!8i6656", "prefecture": "大阪府"}}, {"type": "Feature", "geometry": {"type": "Point", "coordinates": [135.502981, 34.694298]}, "properties": {"category": "godzilla", "category_name": "Godzilla", "color": "#2ecc71", "location_type": "filming", "film_title": "メカゴジラの逆襲", "english_title": "Mekagojira no gyakushu (1975)", "year": 1975.0, "location_name": "水晶橋<br>（開始41分49秒）", "prefecture": "大阪府"}}, {"type": "Feature", "geometry": {"type": "Point", "coordinates": [135.501128, 34.692827]}, "properties": {"category": "godzilla", "category_name": "Godzilla", "color": "#2ecc71", "location_type": "filming", "film_title": "メカゴジラの逆襲", "english_title": "Mekagojira no gyakushu (1975)", "year": 1975.0, "location_name": "淀屋橋<br>（開始42分15秒）", "prefecture": "大阪府"}}, {"type": "Feature", "geometry": {"type": "Point", "coordinates": [135.501023, 34.692258]}, "properties": {"category": "godzilla", "category_name": "Godzilla", "color": "#2ecc71", "location_type": "filming", "film_title": "メカゴジラの逆襲", "english_title": "Mekagojira no gyakushu (1975)", "year": 1975.0, "location_name": "地下鉄淀屋橋駅市役所側階段<br>（開始42分44秒）", "prefecture": "大阪府"}}, {"type": "Feature", "geometry": {"type": "Point", "coordinates": [135.501149, 34.692694]}, "properties": {"category": "godzilla", "category_name": "Godzilla", "color": "#2ecc71", "location_type": "filming", "film_title": "メカゴジラの逆襲", "english_title": "Mekagojira no gyakushu (1975)", "year": 1975.0, "location_name": "地下鉄淀屋橋駅入り口<br>（開始42分30秒-32秒）", "prefecture": "大阪府"}}, {"type": "Feature", "geometry": {"type": "Point", "coordinates": [135.501021, 34.692403]}, "properties": {"category": "godzilla", "category_name": "Godzilla", "color": "#2ecc71", "location_type": "filming", "film_title": "メカゴジラの逆襲", "english_title": "Mekagojira no gyakushu (1975)", "year": 1975.0, "location_name": "地下鉄淀屋橋駅市役所側改札<br>（開始42分40秒）", "prefecture": "大阪府"}}, {"type": "Feature", "geometry": {"type": "Point", "coordinates": [135.500606, 34.692465]}, "properties": {"category": "godzilla", "category_name": "Godzilla", "color": "#2ecc71", "location_type": "filming", "film_title": "メカゴジラの逆襲", "english_title": "Mekagojira no gyakushu (1975)", "year": 1975.0, "location_name": "石原ビルディング（淀屋橋中央ビルディング）・白洋舎ビル<br>（開始43分00秒）", "prefecture": "大阪府"}}, {"type": "Feature", "geometry": {"type": "Point", "coordinates": [135.501002, 34.692055]}, "properties": {"category": "godzilla", "category_name": "Godzilla", "color": "#2ecc71", "location_type": "filming", "film_title": "メカゴジラの逆襲", "english_title": "Mekagojira no gyakushu (1975)", "year": 1975.0, "location_name": "地下鉄淀屋橋駅ホーム<br>（開始43分17秒）", "prefecture": "大阪府"}}, {"type": "Feature", "geometry": {"type": "Point", "coordinates": [135.522902, 34.685214]}, "properties": {"category": "godzilla", "category_name": "Godzilla", "color": "#2ecc71", "location_type": "filming", "film_title": "メカゴジラの逆襲", "english_title": "Mekagojira no gyakushu (1975)", "year": 1975.0, "location_name": "大手門前<br>（開始43分34秒）", "prefecture": "大阪府"}}, {"type": "Feature", "geometry": {"type": "Point", "coordinates": [135.526314, 34.685609]}, "properties": {"category": "godzilla", "category_name": "Godzilla", "color": "#2ecc71", "location_type": "filming", "film_title": "メカゴジラの逆襲", "english_title": "Mekagojira no gyakushu (1975)", "year": 1975.0, "location_name": "旧陸軍第四師団司令部庁舎<br>（開始43分43秒）", "prefecture": "大阪府"}}, {"type": "Feature", "geometry": {"type": "Point", "coordinates": [135.526145, 34.685643]}, "properties": {"category": "godzilla", "category_name": "Godzilla", "color": "#2ecc71", "location_type": "filming", "film_title": "メカゴジラの逆襲", "english_title": "Mekagojira no gyakushu (1975)", "year": 1975.0, "location_name": "旧陸軍第四師団司令部庁舎前<br>（開始43分54秒）", "prefecture": "大阪府"}}, {"type": "Feature", "geometry": {"type": "Point", "coordinates": [135.525682, 34.685066]}, "properties": {"category": "godzilla", "category_name": "Godzilla", "color": "#2ecc71", "location_type": "filming", "film_title": "メカゴジラの逆襲", "english_title": "Mekagojira no gyakushu (1975)", "year": 1975.0, "location_name": "桜門<br>（開始43分57秒）", "prefecture": "大阪府"}}, {"type": "Feature", "geometry": {"type": "Point", "coordinates": [135.526121, 34.686599]}, "properties": {"category": "godzilla", "category_name": "Godzilla", "color": "#2ecc71", "location_type": "filming", "film_title": "メカゴジラの逆襲", "english_title": "Mekagojira no gyakushu (1975)", "year": 1975.0, "location_name": "天守閣前<br>（開始44分02秒）", "prefecture": "大阪府"}}, {"type": "Feature", "geometry": {"type": "Point", "coordinates": [135.522124, 34.684609]}, "properties": {"category": "godzilla", "category_name": "Godzilla", "color": "#2ecc71", "location_type": "filming", "film_title": "メカゴジラの逆襲", "english_title": "Mekagojira no gyakushu (1975)", "year": 1975.0, "location_name": "大手前広場<br>（開始44分27秒）", "prefecture": "大阪府"}}, {"type": "Feature", "geometry": {"type": "Point", "coordinates": [135.524383, 34.687419]}, "properties": {"category": "godzilla", "category_name": "Godzilla", "color": "#2ecc71", "location_type": "filming", "film_title": "メカゴジラの逆襲", "english_title": "Mekagojira no gyakushu (1975)", "year": 1975.0, "location_name": "西の丸公園内濠沿いから望む<br>（開始45分26秒）", "prefecture": "大阪府"}}, {"type": "Feature", "geometry": {"type": "Point", "coordinates": [135.52449, 34.688354]}, "properties": {"category": "godzilla", "category_name": "Godzilla", "color": "#2ecc71", "location_type": "filming", "film_title": "メカゴジラの逆襲", "english_title": "Mekagojira no gyakushu (1975)", "year": 1975.0, "location_name": "天守閣の北西側<br>（開始44分49秒）", "prefecture": "大阪府"}}, {"type": "Feature", "geometry": {"type": "Point", "coordinates": [135.525874, 34.689369]}, "properties": {"category": "godzilla", "category_name": "Godzilla", "color": "#2ecc71", "location_type": "filming", "film_title": "メカゴジラの逆襲", "english_title": "Mekagojira no gyakushu (1975)", "year": 1975.0, "location_name": "天守閣北側<br>（開始45分28秒）", "prefecture": "大阪府"}}, {"type": "Feature", "geometry": {"type": "Point", "coordinates": [135.525852, 34.68741]}, "properties": {"category": "godzilla", "category_name": "Godzilla", "color": "#2ecc71", "location_type": "filming", "film_title": "メカゴジラの逆襲", "english_title": "Mekagojira no gyakushu (1975)", "year": 1975.0, "location_name": "大阪城天守閣<br>（開始10分12秒）", "prefecture": "大阪府"}}, {"type": "Feature", "geometry": {"type": "Point", "coordinates": [135.500592, 34.6690544]}, "properties": {"category": "godzilla", "category_name": "Godzilla", "color": "#2ecc71", "location_type": "filming", "film_title": "メカゴジラの逆襲", "english_title": "Mekagojira no gyakushu (1975)", "year": 1975.0, "location_name": "道頓堀戎橋周辺を望む。<br>（開始22分16秒）", "prefecture": "大阪府"}}, {"type": "Feature", "geometry": {"type": "Point", "coordinates": [135.501388, 34.668679]}, "properties": {"category": "godzilla", "category_name": "Godzilla", "color": "#2ecc71", "location_type": "filming", "film_title": "メカゴジラの逆襲", "english_title": "Mekagojira no gyakushu (1975)", "year": 1975.0, "location_name": "現TSUTAYA戎橋店<br>（開始22分19秒）", "prefecture": "大阪府"}}, {"type": "Feature", "geometry": {"type": "Point", "coordinates": [135.501101, 34.668692]}, "properties": {"category": "godzilla", "category_name": "Godzilla", "color": "#2ecc71", "location_type": "filming", "film_title": "メカゴジラの逆襲", "english_title": "Mekagojira no gyakushu (1975)", "year": 1975.0, "location_name": "戎橋付近<br>（開始22分27秒）", "prefecture": "大阪府"}}, {"type": "Feature", "geometry": {"type": "Point", "coordinates": [135.492175, 34.694759]}, "properties": {"category": "godzilla", "category_name": "Godzilla", "color": "#2ecc71", "location_type": "filming", "film_title": "メカゴジラの逆襲", "english_title": "Mekagojira no gyakushu (1975)", "year": 1975.0, "location_name": "現NTTテレパーク堂島第2ビル<br>（開始41分13秒）", "prefecture": "大阪府"}}, {"type": "Feature", "geometry": {"type": "Point", "coordinates": [135.520017369785, 34.6863391500134]}, "properties": {"category": "godzilla", "category_name": "Godzilla", "color": "#2ecc71", "location_type": "filming", "film_title": "メカゴジラの逆襲", "english_title": "Mekagojira no gyakushu (1975)", "year": 1975.0, "location_name": "開始44分25秒", "prefecture": "大阪府"}}, {"type": "Feature", "geometry": {"type": "Point", "coordinates": [135.522408, 34.684115]}, "properties": {"category": "godzilla", "category_name": "Godzilla", "color": "#2ecc71", "location_type": "filming", "film_title": "メカゴジラの逆襲", "english_title": "Mekagojira no gyakushu (1975)", "year": 1975.0, "location_name": "大手前広場から大手門方向を望む<br>（開始44分31秒）", "prefecture": "大阪府"}}, {"type": "Feature", "geometry": {"type": "Point", "coordinates": [135.524379, 34.685057]}, "properties": {"category": "godzilla", "category_name": "Godzilla", "color": "#2ecc71", "location_type": "filming", "film_title": "メカゴジラの逆襲", "english_title": "Mekagojira no gyakushu (1975)", "year": 1975.0, "location_name": "桜門内側<br>（開始44分51秒）", "prefecture": "大阪府"}}, {"type": "Feature", "geometry": {"type": "Point", "coordinates": [140.607247, 35.9601539]}, "properties": {"category": "godzilla", "category_name": "Godzilla", "color": "#2ecc71", "location_type": "filming", "film_title": "モスラ対ゴジラ", "english_title": "MOTHRA VS. GODZILLA", "year": 1964.0, "location_name": "旧神宮橋（現存せず）", "prefecture": "茨城県"}}, {"type": "Feature", "geometry": {"type": "Point", "coordinates": [136.906738800146, 35.1802259801786]}, "properties": {"category": "godzilla", "category_name": "Godzilla", "color": "#2ecc71", "location_type": "filming", "film_title": "モスラ対ゴジラ", "english_title": "MOTHRA VS. GODZILLA", "year": 1964.0, "location_name": "名古屋市役所 （Nagoya city hall）", "prefecture": "愛知県"}}, {"type": "Feature", "geometry": {"type": "Point", "coordinates": [136.8998438, 35.1851045]}, "properties": {"category": "godzilla", "category_name": "Godzilla", "color": "#2ecc71", "location_type": "filming", "film_title": "モスラ対ゴジラ", "english_title": "MOTHRA VS. GODZILLA", "year": 1964.0, "location_name": "愛知県庁", "prefecture": "愛知県"}}, {"type": "Feature", "geometry": {"type": "Point", "coordinates": [136.897566, 35.18313]}, "properties": {"category": "godzilla", "category_name": "Godzilla", "color": "#2ecc71", "location_type": "filming", "film_title": "モスラ対ゴジラ", "english_title": "MOTHRA VS. GODZILLA", "year": 1964.0, "location_name": "名古屋城本丸前", "prefecture": "愛知県"}}, {"type": "Feature", "geometry": {"type": "Point", "coordinates": [136.898639, 35.183928]}, "properties": {"category": "godzilla", "category_name": "Godzilla", "color": "#2ecc71", "location_type": "filming", "film_title": "モスラ対ゴジラ", "english_title": "MOTHRA VS. GODZILLA", "year": 1964.0, "location_name": "名古屋城構内", "prefecture": "愛知県"}}, {"type": "Feature", "geometry": {"type": "Point", "coordinates": [136.897561, 35.183566]}, "properties": {"category": "godzilla", "category_name": "Godzilla", "color": "#2ecc71", "location_type": "filming", "film_title": "モスラ対ゴジラ", "english_title": "MOTHRA VS. GODZILLA", "year": 1964.0, "location_name": "名古屋城正門前", "prefecture": "愛知県"}}, {"type": "Feature", "geometry": {"type": "Point", "coordinates": [136.908331, 35.172343]}, "properties": {"category": "godzilla", "category_name": "Godzilla", "color": "#2ecc71", "location_type": "filming", "film_title": "モスラ対ゴジラ", "english_title": "MOTHRA VS. GODZILLA", "year": 1964.0, "location_name": "名古屋テレビ塔周辺", "prefecture": "愛知県"}}, {"type": "Feature", "geometry": {"type": "Point", "coordinates": [136.908427, 35.172337]}, "properties": {"category": "godzilla", "category_name": "Godzilla", "color": "#2ecc71", "location_type": "filming", "film_title": "モスラ対ゴジラ", "english_title": "MOTHRA VS. GODZILLA", "year": 1964.0, "location_name": "名古屋テレビ塔下", "prefecture": "愛知県"}}, {"type": "Feature", "geometry": {"type": "Point", "coordinates": [136.904242, 35.1778861]}, "properties": {"category": "godzilla", "category_name": "Godzilla", "color": "#2ecc71", "location_type": "filming", "film_title": "モスラ対ゴジラ", "english_title": "MOTHRA VS. GODZILLA", "year": 1964.0, "location_name": "名古屋市役所から名古屋城へパン<br>（名城小学校のビル屋上からの撮影と思われる）", "prefecture": "愛知県"}}, {"type": "Feature", "geometry": {"type": "Point", "coordinates": [136.637607, 34.9672971]}, "properties": {"category": "godzilla", "category_name": "Godzilla", "color": "#2ecc71", "location_type": "filming", "film_title": "モスラ対ゴジラ", "english_title": "MOTHRA VS. GODZILLA", "year": 1964.0, "location_name": "コスモ石油四日市製油所", "prefecture": "三重県"}}, {"type": "Feature", "geometry": {"type": "Point", "coordinates": [136.899079, 35.185559]}, "properties": {"category": "godzilla", "category_name": "Godzilla", "color": "#2ecc71", "location_type": "filming", "film_title": "モスラ対ゴジラ", "english_title": "MOTHRA VS. GODZILLA", "year": 1964.0, "location_name": "名古屋城天守閣周辺", "prefecture": "愛知県"}}, {"type": "Feature", "geometry": {"type": "Point", "coordinates": [138.884233, 35.051739]}, "properties": {"category": "godzilla", "category_name": "Godzilla", "color": "#2ecc71", "location_type": "filming", "film_title": "モスラ対ゴジラ", "english_title": "MOTHRA VS. GODZILLA", "year": 1964.0, "location_name": "獅子浜", "prefecture": "静岡県"}}, {"type": "Feature", "geometry": {"type": "Point", "coordinates": [138.882878, 35.056186]}, "properties": {"category": "godzilla", "category_name": "Godzilla", "color": "#2ecc71", "location_type": "filming", "film_title": "モスラ対ゴジラ", "english_title": "MOTHRA VS. GODZILLA", "year": 1964.0, "location_name": "静浦港", "prefecture": "静岡県"}}, {"type": "Feature", "geometry": {"type": "Point", "coordinates": [138.922203, 34.655083]}, "properties": {"category": "godzilla", "category_name": "Godzilla", "color": "#2ecc71", "location_type": "filming", "film_title": "モスラ対ゴジラ", "english_title": "MOTHRA VS. GODZILLA", "year": 1964.0, "location_name": "舞磯浜", "prefecture": "静岡県"}}, {"type": "Feature", "geometry": {"type": "Point", "coordinates": [138.766889, 34.9692658]}, "properties": {"category": "godzilla", "category_name": "Godzilla", "color": "#2ecc71", "location_type": "filming", "film_title": "モスラ対ゴジラ", "english_title": "MOTHRA VS. GODZILLA", "year": 1964.0, "location_name": "https://www.google.co.jp/maps/@34.9692865,138.7666437,3a,28y,65.64h,91.36t/data=!3m6!1e1!3m4!1s9DRPXMrcEMhvM1MdhjenLw!2e0!7i16384!8i8192?hl=ja", "prefecture": "静岡県"}}, {"type": "Feature", "geometry": {"type": "Point", "coordinates": [139.692712, 35.285254]}, "properties": {"category": "godzilla", "category_name": "Godzilla", "color": "#2ecc71", "location_type": "filming", "film_title": "ゴジラ・エビラ・モスラ 南海の大決闘", "english_title": "Ebirah,Horror of the Deep", "year": 1966.0, "location_name": "猿島船着き場", "prefecture": "Ocean"}}, {"type": "Feature", "geometry": {"type": "Point", "coordinates": [139.5534, 35.6553]}, "properties": {"category": "godzilla", "category_name": "Godzilla", "color": "#2ecc71", "location_type": "filming", "film_title": "ゴジラ・エビラ・モスラ 南海の大決闘", "english_title": "Ebirah,Horror of the Deep", "year": 1966.0, "location_name": "東宝スタジオ旧社屋", "prefecture": "東京都"}}, {"type": "Feature", "geometry": {"type": "Point", "coordinates": [139.752574, 35.677091]}, "properties": {"category": "godzilla", "category_name": "Godzilla", "color": "#2ecc71", "location_type": "filming", "film_title": "ゴジラ・エビラ・モスラ 南海の大決闘", "english_title": "Ebirah,Horror of the Deep", "year": 1966.0, "location_name": "警視庁本部旧庁舎", "prefecture": "東京都"}}, {"type": "Feature", "geometry": {"type": "Point", "coordinates": [139.482937, 35.30574]}, "properties": {"category": "godzilla", "category_name": "Godzilla", "color": "#2ecc71", "location_type": "filming", "film_title": "ゴジラ・エビラ・モスラ 南海の大決闘", "english_title": "Ebirah,Horror of the Deep", "year": 1966.0, "location_name": "江ノ島", "prefecture": "神奈川県"}}, {"type": "Feature", "geometry": {"type": "Point", "coordinates": [139.792481, 35.677172]}, "properties": {"category": "godzilla", "category_name": "Godzilla", "color": "#2ecc71", "location_type": "filming", "film_title": "メカゴジラの逆襲", "english_title": "Mekagojira no gyakushu (1975)", "year": 1975.0, "location_name": "緑橋", "prefecture": "東京都"}}, {"type": "Feature", "geometry": {"type": "Point", "coordinates": [139.720436, 35.513898]}, "properties": {"category": "godzilla", "category_name": "Godzilla", "color": "#2ecc71", "location_type": "filming", "film_title": "ゴジラ・ミニラ・ガバラ オール怪獣大進撃", "english_title": "ALL MONSTERS ATTACK", "year": 1969.0, "location_name": "浜町歩道橋", "prefecture": "神奈川県"}}, {"type": "Feature", "geometry": {"type": "Point", "coordinates": [139.719306, 35.516933]}, "properties": {"category": "godzilla", "category_name": "Godzilla", "color": "#2ecc71", "location_type": "filming", "film_title": "ゴジラ・ミニラ・ガバラ オール怪獣大進撃", "english_title": "ALL MONSTERS ATTACK", "year": 1969.0, "location_name": "県道101号線", "prefecture": "神奈川県"}}, {"type": "Feature", "geometry": {"type": "Point", "coordinates": [139.749248, 35.52945]}, "properties": {"category": "godzilla", "category_name": "Godzilla", "color": "#2ecc71", "location_type": "filming", "film_title": "ゴジラ・ミニラ・ガバラ オール怪獣大進撃", "english_title": "ALL MONSTERS ATTACK", "year": 1969.0, "location_name": "ＪＲ貨物川崎車輌所周辺", "prefecture": "神奈川県"}}, {"type": "Feature", "geometry": {"type": "Point", "coordinates": [139.747242, 35.526589]}, "properties": {"category": "godzilla", "category_name": "Godzilla", "color": "#2ecc71", "location_type": "filming", "film_title": "ゴジラ・ミニラ・ガバラ オール怪獣大進撃", "english_title": "ALL MONSTERS ATTACK", "year": 1969.0, "location_name": "神奈川臨海鉄道", "prefecture": "神奈川県"}}, {"type": "Feature", "geometry": {"type": "Point", "coordinates": [139.763552, 35.5342824]}, "properties": {"category": "godzilla", "category_name": "Godzilla", "color": "#2ecc71", "location_type": "filming", "film_title": "ゴジラ対ヘドラ", "english_title": "GODZILLA VS HEDORAH", "year": 1971.0, "location_name": "https://www.google.co.jp/maps/@35.53445,139.7636917,3a,38.9y,112.82h,85.83t/data=!3m7!1e1!3m5!1sRiHX3p8l0iAavtxMrhYXFA!2e0!6s%2F%2Fgeo0.ggpht.com%2Fcbk%3Fpanoid%3DRiHX3p8l0iAavtxMrhYXFA%26output%3Dthumbnail%26cb_client%3Dmaps_sv.tactile.gps%26thumb%3D2%26w%3D203%26h%3D100%26yaw%3D254.44281%26pitch%3D0%26thumbfov%3D100!7i13312!8i6656?hl=ja", "prefecture": "神奈川県"}}, {"type": "Feature", "geometry": {"type": "Point", "coordinates": [139.763142, 35.5339899]}, "properties": {"category": "godzilla", "category_name": "Godzilla", "color": "#2ecc71", "location_type": "filming", "film_title": "ゴジラ対ヘドラ", "english_title": "GODZILLA VS HEDORAH", "year": 1971.0, "location_name": "多摩運河<br>https://www.google.co.jp/maps/@35.53445,139.7636917,3a,75y,165.74h,80.3t/data=!3m7!1e1!3m5!1sRiHX3p8l0iAavtxMrhYXFA!2e0!6s%2F%2Fgeo0.ggpht.com%2Fcbk%3Fpanoid%3DRiHX3p8l0iAavtxMrhYXFA%26output%3Dthumbnail%26cb_client%3Dmaps_sv.tactile.gps%26thumb%3D2%26w%3D203%26h%3D100%26yaw%3D341.55344%26pitch%3D0%26thumbfov%3D100!7i13312!8i6656?hl=ja", "prefecture": "神奈川県"}}, {"type": "Feature", "geometry": {"type": "Point", "coordinates": [139.5534, 35.6553]}, "properties": {"category": "godzilla", "category_name": "Godzilla", "color": "#2ecc71", "location_type": "filming", "film_title": "ゴジラ対ヘドラ", "english_title": "GODZILLA VS HEDORAH", "year": 1971.0, "location_name": "東宝撮影所変電所前", "prefecture": "東京都"}}, {"type": "Feature", "geometry": {"type": "Point", "coordinates": [139.761651, 35.672672]}, "properties": {"category": "godzilla", "category_name": "Godzilla", "color": "#2ecc71", "location_type": "filming", "film_title": "地球攻撃命令 ゴジラ対ガイガン", "english_title": "Godzilla vs.Gigan", "year": 1972.0, "location_name": "東京高速道路ニユー・トーキヨー本店付近", "prefecture": "東京都"}}, {"type": "Feature", "geometry": {"type": "Point", "coordinates": [139.7454329, 35.6585805]}, "properties": {"category": "godzilla", "category_name": "Godzilla", "color": "#2ecc71", "location_type": "filming", "film_title": "地球攻撃命令 ゴジラ対ガイガン", "english_title": "Godzilla vs.Gigan", "year": 1972.0, "location_name": "東京タワー", "prefecture": "東京都"}}, {"type": "Feature", "geometry": {"type": "Point", "coordinates": [139.615211, 35.6437178]}, "properties": {"category": "godzilla", "category_name": "Godzilla", "color": "#2ecc71", "location_type": "filming", "film_title": "地球攻撃命令 ゴジラ対ガイガン", "english_title": "Godzilla vs.Gigan", "year": 1972.0, "location_name": "富士見公園", "prefecture": "東京都"}}, {"type": "Feature", "geometry": {"type": "Point", "coordinates": [139.75659, 35.6911148]}, "properties": {"category": "godzilla", "category_name": "Godzilla", "color": "#2ecc71", "location_type": "filming", "film_title": "地球攻撃命令 ゴジラ対ガイガン", "english_title": "Godzilla vs.Gigan", "year": 1972.0, "location_name": "毎日新聞社", "prefecture": "東京都"}}, {"type": "Feature", "geometry": {"type": "Point", "coordinates": [139.762856, 35.6800211]}, "properties": {"category": "godzilla", "category_name": "Godzilla", "color": "#2ecc71", "location_type": "filming", "film_title": "地球攻撃命令 ゴジラ対ガイガン", "english_title": "Godzilla vs.Gigan", "year": 1972.0, "location_name": "仲通り", "prefecture": "東京都"}}, {"type": "Feature", "geometry": {"type": "Point", "coordinates": [139.762976, 35.672746]}, "properties": {"category": "godzilla", "category_name": "Godzilla", "color": "#2ecc71", "location_type": "filming", "film_title": "ゴジラ (1984)", "english_title": "Godzilla 1984", "year": 1984.0, "location_name": "数寄屋橋交差点", "prefecture": "東京都"}}, {"type": "Feature", "geometry": {"type": "Point", "coordinates": [139.762273, 35.673435]}, "properties": {"category": "godzilla", "category_name": "Godzilla", "color": "#2ecc71", "location_type": "filming", "film_title": "ゴジラ (1984)", "english_title": "Godzilla 1984", "year": 1984.0, "location_name": "マリオン", "prefecture": "東京都"}}, {"type": "Feature", "geometry": {"type": "Point", "coordinates": [139.761538, 35.673627]}, "properties": {"category": "godzilla", "category_name": "Godzilla", "color": "#2ecc71", "location_type": "filming", "film_title": "ゴジラ (1984)", "english_title": "Godzilla 1984", "year": 1984.0, "location_name": "有楽町駅付近高架", "prefecture": "東京都"}}, {"type": "Feature", "geometry": {"type": "Point", "coordinates": [139.748572, 35.647018]}, "properties": {"category": "godzilla", "category_name": "Godzilla", "color": "#2ecc71", "location_type": "filming", "film_title": "ゴジラ (1984)", "english_title": "Godzilla 1984", "year": 1984.0, "location_name": "第一田町ビル", "prefecture": "東京都"}}, {"type": "Feature", "geometry": {"type": "Point", "coordinates": [139.759538, 35.666214]}, "properties": {"category": "godzilla", "category_name": "Godzilla", "color": "#2ecc71", "location_type": "filming", "film_title": "ゴジラ (1984)", "english_title": "Godzilla 1984", "year": 1984.0, "location_name": "新橋駅前ビル１号館", "prefecture": "東京都"}}, {"type": "Feature", "geometry": {"type": "Point", "coordinates": [139.701121, 35.69248]}, "properties": {"category": "godzilla", "category_name": "Godzilla", "color": "#2ecc71", "location_type": "filming", "film_title": "ゴジラ (1984)", "english_title": "Godzilla 1984", "year": 1984.0, "location_name": "スタジオアルタ前", "prefecture": "東京都"}}, {"type": "Feature", "geometry": {"type": "Point", "coordinates": [139.702044, 35.692154]}, "properties": {"category": "godzilla", "category_name": "Godzilla", "color": "#2ecc71", "location_type": "filming", "film_title": "ゴジラ (1984)", "english_title": "Godzilla 1984", "year": 1984.0, "location_name": "新宿通り", "prefecture": "東京都"}}, {"type": "Feature", "geometry": {"type": "Point", "coordinates": [139.701692, 35.693574]}, "properties": {"category": "godzilla", "category_name": "Godzilla", "color": "#2ecc71", "location_type": "filming", "film_title": "ゴジラ (1984)", "english_title": "Godzilla 1984", "year": 1984.0, "location_name": "歌舞伎町交差点付近", "prefecture": "東京都"}}, {"type": "Feature", "geometry": {"type": "Point", "coordinates": [139.698855, 35.69133]}, "properties": {"category": "godzilla", "category_name": "Godzilla", "color": "#2ecc71", "location_type": "filming", "film_title": "ゴジラ (1984)", "english_title": "Godzilla 1984", "year": 1984.0, "location_name": "新宿駅西口", "prefecture": "東京都"}}, {"type": "Feature", "geometry": {"type": "Point", "coordinates": [139.690374, 35.687884]}, "properties": {"category": "godzilla", "category_name": "Godzilla", "color": "#2ecc71", "location_type": "filming", "film_title": "ゴジラ (1984)", "english_title": "Godzilla 1984", "year": 1984.0, "location_name": "新宿中央公園・公園小橋", "prefecture": "東京都"}}, {"type": "Feature", "geometry": {"type": "Point", "coordinates": [139.692589, 35.687226]}, "properties": {"category": "godzilla", "category_name": "Godzilla", "color": "#2ecc71", "location_type": "filming", "film_title": "ゴジラ (1984)", "english_title": "Godzilla 1984", "year": 1984.0, "location_name": "新宿ワシントンホテル本館前", "prefecture": "東京都"}}, {"type": "Feature", "geometry": {"type": "Point", "coordinates": [139.689773, 35.689978]}, "properties": {"category": "godzilla", "category_name": "Godzilla", "color": "#2ecc71", "location_type": "filming", "film_title": "ゴジラ (1984)", "english_title": "Godzilla 1984", "year": 1984.0, "location_name": "新宿中央公園", "prefecture": "東京都"}}, {"type": "Feature", "geometry": {"type": "Point", "coordinates": [139.691409, 35.688655]}, "properties": {"category": "godzilla", "category_name": "Godzilla", "color": "#2ecc71", "location_type": "filming", "film_title": "ゴジラ (1984)", "english_title": "Godzilla 1984", "year": 1984.0, "location_name": "新宿中央公園南付近", "prefecture": "東京都"}}, {"type": "Feature", "geometry": {"type": "Point", "coordinates": [139.691768, 35.689649]}, "properties": {"category": "godzilla", "category_name": "Godzilla", "color": "#2ecc71", "location_type": "filming", "film_title": "ゴジラ (1984)", "english_title": "Godzilla 1984", "year": 1984.0, "location_name": "都庁予定地", "prefecture": "東京都"}}, {"type": "Feature", "geometry": {"type": "Point", "coordinates": [139.691138, 35.690668]}, "properties": {"category": "godzilla", "category_name": "Godzilla", "color": "#2ecc71", "location_type": "filming", "film_title": "ゴジラ (1984)", "english_title": "Godzilla 1984", "year": 1984.0, "location_name": "ホテルセンチュリーハイアット（現 ハイアットリージェンシー東京）付近", "prefecture": "東京都"}}, {"type": "Feature", "geometry": {"type": "Point", "coordinates": [139.692605, 35.691278]}, "properties": {"category": "godzilla", "category_name": "Godzilla", "color": "#2ecc71", "location_type": "filming", "film_title": "ゴジラ (1984)", "english_title": "Godzilla 1984", "year": 1984.0, "location_name": "新宿住友ビルディング", "prefecture": "東京都"}}, {"type": "Feature", "geometry": {"type": "Point", "coordinates": [139.694021, 35.690193]}, "properties": {"category": "godzilla", "category_name": "Godzilla", "color": "#2ecc71", "location_type": "filming", "film_title": "ゴジラ (1984)", "english_title": "Godzilla 1984", "year": 1984.0, "location_name": "京王プラザホテル", "prefecture": "東京都"}}, {"type": "Feature", "geometry": {"type": "Point", "coordinates": [139.693705, 35.689988]}, "properties": {"category": "godzilla", "category_name": "Godzilla", "color": "#2ecc71", "location_type": "filming", "film_title": "ゴジラ (1984)", "english_title": "Godzilla 1984", "year": 1984.0, "location_name": "京王プラザホテル前。", "prefecture": "東京都"}}, {"type": "Feature", "geometry": {"type": "Point", "coordinates": [139.694252, 35.690851]}, "properties": {"category": "godzilla", "category_name": "Godzilla", "color": "#2ecc71", "location_type": "filming", "film_title": "ゴジラ (1984)", "english_title": "Godzilla 1984", "year": 1984.0, "location_name": "新宿三井ビルディング前", "prefecture": "東京都"}}, {"type": "Feature", "geometry": {"type": "Point", "coordinates": [139.618584, 35.465601]}, "properties": {"category": "godzilla", "category_name": "Godzilla", "color": "#2ecc71", "location_type": "filming", "film_title": "ゴジラvsモスラ", "english_title": "GODZILLA VS. MOTHRA", "year": 1992.0, "location_name": "内海橋付近", "prefecture": "神奈川県"}}, {"type": "Feature", "geometry": {"type": "Point", "coordinates": [139.61848, 35.461867]}, "properties": {"category": "godzilla", "category_name": "Godzilla", "color": "#2ecc71", "location_type": "filming", "film_title": "ゴジラvsモスラ", "english_title": "GODZILLA VS. MOTHRA", "year": 1992.0, "location_name": "平沼橋", "prefecture": "神奈川県"}}, {"type": "Feature", "geometry": {"type": "Point", "coordinates": [139.736272, 35.678991]}, "properties": {"category": "godzilla", "category_name": "Godzilla", "color": "#2ecc71", "location_type": "filming", "film_title": "ゴジラvsモスラ", "english_title": "GODZILLA VS. MOTHRA", "year": 1992.0, "location_name": "弁慶橋", "prefecture": "東京都"}}, {"type": "Feature", "geometry": {"type": "Point", "coordinates": [139.631515, 35.453596]}, "properties": {"category": "godzilla", "category_name": "Godzilla", "color": "#2ecc71", "location_type": "filming", "film_title": "ゴジラvsモスラ", "english_title": "GODZILLA VS. MOTHRA", "year": 1992.0, "location_name": "動く歩道", "prefecture": "神奈川県"}}, {"type": "Feature", "geometry": {"type": "Point", "coordinates": [139.631467, 35.454622]}, "properties": {"category": "godzilla", "category_name": "Godzilla", "color": "#2ecc71", "location_type": "filming", "film_title": "ゴジラvsモスラ", "english_title": "GODZILLA VS. MOTHRA", "year": 1992.0, "location_name": "横浜ランドマークタワー", "prefecture": "神奈川県"}}, {"type": "Feature", "geometry": {"type": "Point", "coordinates": [139.756748, 35.656067]}, "properties": {"category": "godzilla", "category_name": "Godzilla", "color": "#2ecc71", "location_type": "filming", "film_title": "ゴジラvsモスラ", "english_title": "GODZILLA VS. MOTHRA", "year": 1992.0, "location_name": "世界貿易センタービルディング、シーサイドトップから東側を望む。", "prefecture": "東京都"}}, {"type": "Feature", "geometry": {"type": "Point", "coordinates": [136.908329, 35.172342]}, "properties": {"category": "godzilla", "category_name": "Godzilla", "color": "#2ecc71", "location_type": "filming", "film_title": "ゴジラvsモスラ", "english_title": "GODZILLA VS. MOTHRA", "year": 1992.0, "location_name": "名古屋テレビ塔", "prefecture": "愛知県"}}, {"type": "Feature", "geometry": {"type": "Point", "coordinates": [136.906738800146, 35.1802259801786]}, "properties": {"category": "godzilla", "category_name": "Godzilla", "color": "#2ecc71", "location_type": "filming", "film_title": "ゴジラvsモスラ", "english_title": "GODZILLA VS. MOTHRA", "year": 1992.0, "location_name": "名古屋城 （Nagoya Castle）", "prefecture": "愛知県"}}, {"type": "Feature", "geometry": {"type": "Point", "coordinates": [136.897566, 35.183437]}, "properties": {"category": "godzilla", "category_name": "Godzilla", "color": "#2ecc71", "location_type": "filming", "film_title": "ゴジラvsモスラ", "english_title": "GODZILLA VS. MOTHRA", "year": 1992.0, "location_name": "名古屋城大手門", "prefecture": "愛知県"}}, {"type": "Feature", "geometry": {"type": "Point", "coordinates": [136.908869, 35.170283]}, "properties": {"category": "godzilla", "category_name": "Godzilla", "color": "#2ecc71", "location_type": "filming", "film_title": "ゴジラvsモスラ", "english_title": "GODZILLA VS. MOTHRA", "year": 1992.0, "location_name": "錦通久屋交差点付近", "prefecture": "愛知県"}}, {"type": "Feature", "geometry": {"type": "Point", "coordinates": [136.909304, 35.16859]}, "properties": {"category": "godzilla", "category_name": "Godzilla", "color": "#2ecc71", "location_type": "filming", "film_title": "ゴジラvsモスラ", "english_title": "GODZILLA VS. MOTHRA", "year": 1992.0, "location_name": "名古屋地下鉄栄駅の13番出入口付近", "prefecture": "愛知県"}}, {"type": "Feature", "geometry": {"type": "Point", "coordinates": [136.89166, 35.167726]}, "properties": {"category": "godzilla", "category_name": "Godzilla", "color": "#2ecc71", "location_type": "filming", "film_title": "ゴジラvsモスラ", "english_title": "GODZILLA VS. MOTHRA", "year": 1992.0, "location_name": "納屋橋", "prefecture": "愛知県"}}, {"type": "Feature", "geometry": {"type": "Point", "coordinates": [135.759323, 34.98757]}, "properties": {"category": "godzilla", "category_name": "Godzilla", "color": "#2ecc71", "location_type": "filming", "film_title": "ゴジラvsメカゴジラ", "english_title": "GODZILLA VS. MECHAGODZILLA", "year": 1993.0, "location_name": "京都タワー<br>（合成カットはホテル京阪 京都から撮影？）", "prefecture": "京都府"}}, {"type": "Feature", "geometry": {"type": "Point", "coordinates": [135.7717948, 35.0090528]}, "properties": {"category": "godzilla", "category_name": "Godzilla", "color": "#2ecc71", "location_type": "filming", "film_title": "ゴジラvsメカゴジラ", "english_title": "GODZILLA VS. MECHAGODZILLA", "year": 1993.0, "location_name": "三条大橋", "prefecture": "京都府"}}, {"type": "Feature", "geometry": {"type": "Point", "coordinates": [135.7850463, 34.9948561]}, "properties": {"category": "godzilla", "category_name": "Godzilla", "color": "#2ecc71", "location_type": "filming", "film_title": "ゴジラvsメカゴジラ", "english_title": "GODZILLA VS. MECHAGODZILLA", "year": 1993.0, "location_name": "清水寺", "prefecture": "京都府"}}, {"type": "Feature", "geometry": {"type": "Point", "coordinates": [135.780834, 34.998346]}, "properties": {"category": "godzilla", "category_name": "Godzilla", "color": "#2ecc71", "location_type": "filming", "film_title": "ゴジラvsメカゴジラ", "english_title": "GODZILLA VS. MECHAGODZILLA", "year": 1993.0, "location_name": "二年坂", "prefecture": "京都府"}}, {"type": "Feature", "geometry": {"type": "Point", "coordinates": [135.766138, 35.037997]}, "properties": {"category": "godzilla", "category_name": "Godzilla", "color": "#2ecc71", "location_type": "filming", "film_title": "ゴジラvsメカゴジラ", "english_title": "GODZILLA VS. MECHAGODZILLA", "year": 1993.0, "location_name": "出雲路橋付近", "prefecture": "京都府"}}, {"type": "Feature", "geometry": {"type": "Point", "coordinates": [130.351464, 33.593305]}, "properties": {"category": "godzilla", "category_name": "Godzilla", "color": "#2ecc71", "location_type": "filming", "film_title": "ゴジラvsスペースゴジラ", "english_title": "GODZILLA VS. SPACE GODZILLA", "year": 1994.0, "location_name": "福岡タワー", "prefecture": "福岡県"}}, {"type": "Feature", "geometry": {"type": "Point", "coordinates": [130.353599, 33.595166]}, "properties": {"category": "godzilla", "category_name": "Godzilla", "color": "#2ecc71", "location_type": "filming", "film_title": "ゴジラvsスペースゴジラ", "english_title": "GODZILLA VS. SPACE GODZILLA", "year": 1994.0, "location_name": "シーサイドももち", "prefecture": "福岡県"}}, {"type": "Feature", "geometry": {"type": "Point", "coordinates": [130.402442, 33.590863]}, "properties": {"category": "godzilla", "category_name": "Godzilla", "color": "#2ecc71", "location_type": "filming", "film_title": "ゴジラvsスペースゴジラ", "english_title": "GODZILLA VS. SPACE GODZILLA", "year": 1994.0, "location_name": "天神中央公園", "prefecture": "福岡県"}}, {"type": "Feature", "geometry": {"type": "Point", "coordinates": [130.401567, 33.591046]}, "properties": {"category": "godzilla", "category_name": "Godzilla", "color": "#2ecc71", "location_type": "filming", "film_title": "ゴジラvsスペースゴジラ", "english_title": "GODZILLA VS. SPACE GODZILLA", "year": 1994.0, "location_name": "ベスト電器福岡本店", "prefecture": "福岡県"}}, {"type": "Feature", "geometry": {"type": "Point", "coordinates": [130.396173, 33.591352]}, "properties": {"category": "godzilla", "category_name": "Godzilla", "color": "#2ecc71", "location_type": "filming", "film_title": "ゴジラvsスペースゴジラ", "english_title": "GODZILLA VS. SPACE GODZILLA", "year": 1994.0, "location_name": "昭和通り福岡天神センタービル前", "prefecture": "福岡県"}}, {"type": "Feature", "geometry": {"type": "Point", "coordinates": [139.740515, 35.626448]}, "properties": {"category": "godzilla", "category_name": "Godzilla", "color": "#2ecc71", "location_type": "filming", "film_title": "ゴジラ", "english_title": "Godzilla", "year": 1954.0, "location_name": "東海道新幹線車両基地（現品川グランドコモンズ）", "prefecture": "東京都"}}, {"type": "Feature", "geometry": {"type": "Point", "coordinates": [139.737693, 35.628995]}, "properties": {"category": "godzilla", "category_name": "Godzilla", "color": "#2ecc71", "location_type": "filming", "film_title": "ゴジラ", "english_title": "Godzilla", "year": 1954.0, "location_name": "品川駅高輪口", "prefecture": "東京都"}}, {"type": "Feature", "geometry": {"type": "Point", "coordinates": [139.765221, 35.671419]}, "properties": {"category": "godzilla", "category_name": "Godzilla", "color": "#2ecc71", "location_type": "filming", "film_title": "ゴジラ", "english_title": "Godzilla", "year": 1954.0, "location_name": "銀座4丁目交差点", "prefecture": "東京都"}}, {"type": "Feature", "geometry": {"type": "Point", "coordinates": [139.762659, 35.6503918]}, "properties": {"category": "godzilla", "category_name": "Godzilla", "color": "#2ecc71", "location_type": "filming", "film_title": "ゴジラvsモスラ", "english_title": "GODZILLA VS. MOTHRA", "year": 1992.0, "location_name": "カメラは世界貿易センタービルディング", "prefecture": null}}, {"type": "Feature", "geometry": {"type": "Point", "coordinates": [139.73721, 35.6776498]}, "properties": {"category": "godzilla", "category_name": "Godzilla", "color": "#2ecc71", "location_type": "filming", "film_title": "ゴジラvsモスラ", "english_title": "GODZILLA VS. MOTHRA", "year": 1992.0, "location_name": "東急プラザ赤坂", "prefecture": "東京都"}}, {"type": "Feature", "geometry": {"type": "Point", "coordinates": [140.040327, 35.6461242]}, "properties": {"category": "godzilla", "category_name": "Godzilla", "color": "#2ecc71", "location_type": "filming", "film_title": "ゴジラvsモスラ", "english_title": "GODZILLA VS. MOTHRA", "year": 1992.0, "location_name": "ホテルグリーンタワー幕張", "prefecture": "千葉県"}}, {"type": "Feature", "geometry": {"type": "Point", "coordinates": [139.647849, 35.443987]}, "properties": {"category": "godzilla", "category_name": "Godzilla", "color": "#2ecc71", "location_type": "filming", "film_title": "ゴジラvsモスラ", "english_title": "GODZILLA VS. MOTHRA", "year": 1992.0, "location_name": "中華街東門（朝陽門）", "prefecture": "神奈川県"}}, {"type": "Feature", "geometry": {"type": "Point", "coordinates": [139.650252, 35.4446502]}, "properties": {"category": "godzilla", "category_name": "Godzilla", "color": "#2ecc71", "location_type": "filming", "film_title": "ゴジラvsモスラ", "english_title": "GODZILLA VS. MOTHRA", "year": 1992.0, "location_name": "スターホテル横浜屋上", "prefecture": "神奈川県"}}, {"type": "Feature", "geometry": {"type": "Point", "coordinates": [139.650886, 35.4439531]}, "properties": {"category": "godzilla", "category_name": "Godzilla", "color": "#2ecc71", "location_type": "filming", "film_title": "ゴジラvsモスラ", "english_title": "GODZILLA VS. MOTHRA", "year": 1992.0, "location_name": "マリンタワー周辺", "prefecture": "神奈川県"}}, {"type": "Feature", "geometry": {"type": "Point", "coordinates": [139.674296, 35.4551818]}, "properties": {"category": "godzilla", "category_name": "Godzilla", "color": "#2ecc71", "location_type": "filming", "film_title": "ゴジラvsモスラ", "english_title": "GODZILLA VS. MOTHRA", "year": 1992.0, "location_name": "ベイブリッジ", "prefecture": null}}, {"type": "Feature", "geometry": {"type": "Point", "coordinates": [139.636481, 35.4577282]}, "properties": {"category": "godzilla", "category_name": "Godzilla", "color": "#2ecc71", "location_type": "filming", "film_title": "ゴジラvsモスラ", "english_title": "GODZILLA VS. MOTHRA", "year": 1992.0, "location_name": "パシフィコ横浜", "prefecture": "神奈川県"}}, {"type": "Feature", "geometry": {"type": "Point", "coordinates": [139.630335, 35.4569777]}, "properties": {"category": "godzilla", "category_name": "Godzilla", "color": "#2ecc71", "location_type": "filming", "film_title": "ゴジラvsモスラ", "english_title": "GODZILLA VS. MOTHRA", "year": 1992.0, "location_name": "横浜美術館", "prefecture": "神奈川県"}}, {"type": "Feature", "geometry": {"type": "Point", "coordinates": [139.637232, 35.457809]}, "properties": {"category": "godzilla", "category_name": "Godzilla", "color": "#2ecc71", "location_type": "filming", "film_title": "ゴジラvsモスラ", "english_title": "GODZILLA VS. MOTHRA", "year": 1992.0, "location_name": "ヨコハマ グランド インターコンチネンタルホテル", "prefecture": "神奈川県"}}, {"type": "Feature", "geometry": {"type": "Point", "coordinates": [135.746837, 34.9790773]}, "properties": {"category": "godzilla", "category_name": "Godzilla", "color": "#2ecc71", "location_type": "filming", "film_title": "ゴジラvsメカゴジラ", "english_title": "GODZILLA VS. MECHAGODZILLA", "year": 1993.0, "location_name": "マリネットA-ワン屋上から東寺", "prefecture": "京都府"}}, {"type": "Feature", "geometry": {"type": "Point", "coordinates": [135.74616, 34.9792608]}, "properties": {"category": "godzilla", "category_name": "Godzilla", "color": "#2ecc71", "location_type": "filming", "film_title": "ゴジラvsメカゴジラ", "english_title": "GODZILLA VS. MECHAGODZILLA", "year": 1993.0, "location_name": "京阪国道口交差点", "prefecture": "京都府"}}, {"type": "Feature", "geometry": {"type": "Point", "coordinates": [135.499304, 34.7092286]}, "properties": {"category": "godzilla", "category_name": "Godzilla", "color": "#2ecc71", "location_type": "filming", "film_title": "ゴジラvsメカゴジラ", "english_title": "GODZILLA VS. MECHAGODZILLA", "year": 1993.0, "location_name": "梅田・茶屋町付近", "prefecture": "大阪府"}}, {"type": "Feature", "geometry": {"type": "Point", "coordinates": [135.499773, 34.7084525]}, "properties": {"category": "godzilla", "category_name": "Godzilla", "color": "#2ecc71", "location_type": "filming", "film_title": "ゴジラvsメカゴジラ", "english_title": "GODZILLA VS. MECHAGODZILLA", "year": 1993.0, "location_name": "毎日放送（MBS）本社", "prefecture": "大阪府"}}, {"type": "Feature", "geometry": {"type": "Point", "coordinates": [135.498687, 34.7085363]}, "properties": {"category": "godzilla", "category_name": "Godzilla", "color": "#2ecc71", "location_type": "filming", "film_title": "ゴジラvsメカゴジラ", "english_title": "GODZILLA VS. MECHAGODZILLA", "year": 1993.0, "location_name": "ホテル阪急インターナショナル", "prefecture": "大阪府"}}, {"type": "Feature", "geometry": {"type": "Point", "coordinates": [139.768254, 35.6505967]}, "properties": {"category": "godzilla", "category_name": "Godzilla", "color": "#2ecc71", "location_type": "filming", "film_title": "ゴジラvsメカゴジラ", "english_title": "GODZILLA VS. MECHAGODZILLA", "year": 1993.0, "location_name": "月島埠頭", "prefecture": null}}, {"type": "Feature", "geometry": {"type": "Point", "coordinates": [139.75369, 35.6368427]}, "properties": {"category": "godzilla", "category_name": "Godzilla", "color": "#2ecc71", "location_type": "filming", "film_title": "ゴジラvsメカゴジラ", "english_title": "GODZILLA VS. MECHAGODZILLA", "year": 1993.0, "location_name": "レインボーブリッジ", "prefecture": "東京都"}}, {"type": "Feature", "geometry": {"type": "Point", "coordinates": [140.882036, 38.2604532]}, "properties": {"category": "godzilla", "category_name": "Godzilla", "color": "#2ecc71", "location_type": "filming", "film_title": "ゴジラvsメカゴジラ", "english_title": "GODZILLA VS. MECHAGODZILLA", "year": 1993.0, "location_name": "仙台駅付近", "prefecture": "宮城県"}}, {"type": "Feature", "geometry": {"type": "Point", "coordinates": [140.881175, 38.26178]}, "properties": {"category": "godzilla", "category_name": "Godzilla", "color": "#2ecc71", "location_type": "filming", "film_title": "ゴジラvsメカゴジラ", "english_title": "GODZILLA VS. MECHAGODZILLA", "year": 1993.0, "location_name": "仙台駅前", "prefecture": "宮城県"}}, {"type": "Feature", "geometry": {"type": "Point", "coordinates": [140.88092, 38.2600952]}, "properties": {"category": "godzilla", "category_name": "Godzilla", "color": "#2ecc71", "location_type": "filming", "film_title": "ゴジラvsメカゴジラ", "english_title": "GODZILLA VS. MECHAGODZILLA", "year": 1993.0, "location_name": "仙台ロフト前", "prefecture": "宮城県"}}, {"type": "Feature", "geometry": {"type": "Point", "coordinates": [140.856923, 38.2533786]}, "properties": {"category": "godzilla", "category_name": "Godzilla", "color": "#2ecc71", "location_type": "filming", "film_title": "ゴジラvsメカゴジラ", "english_title": "GODZILLA VS. MECHAGODZILLA", "year": 1993.0, "location_name": "青葉城址から仙台市外を望む。", "prefecture": "宮城県"}}, {"type": "Feature", "geometry": {"type": "Point", "coordinates": [140.855445, 38.2572066]}, "properties": {"category": "godzilla", "category_name": "Godzilla", "color": "#2ecc71", "location_type": "filming", "film_title": "ゴジラvsメカゴジラ", "english_title": "GODZILLA VS. MECHAGODZILLA", "year": 1993.0, "location_name": "大手門脇櫓", "prefecture": "宮城県"}}, {"type": "Feature", "geometry": {"type": "Point", "coordinates": [140.875024, 38.2598587]}, "properties": {"category": "godzilla", "category_name": "Godzilla", "color": "#2ecc71", "location_type": "filming", "film_title": "ゴジラvsメカゴジラ", "english_title": "GODZILLA VS. MECHAGODZILLA", "year": 1993.0, "location_name": "未確定", "prefecture": "宮城県"}}, {"type": "Feature", "geometry": {"type": "Point", "coordinates": [135.485877, 34.689614]}, "properties": {"category": "godzilla", "category_name": "Godzilla", "color": "#2ecc71", "location_type": "filming", "film_title": "ゴジラ×メガギラス Ｇ消滅作戦", "english_title": "Godzilla vs. Megaguirus", "year": 2000.0, "location_name": "阪国際会議場（グランキューブ大阪）", "prefecture": "大阪府"}}, {"type": "Feature", "geometry": {"type": "Point", "coordinates": [139.740901, 35.628367]}, "properties": {"category": "godzilla", "category_name": "Godzilla", "color": "#2ecc71", "location_type": "filming", "film_title": "ゴジラ×メカゴジラ", "english_title": "Gojira X Mekagojira (2002)", "year": 2002.0, "location_name": "品川駅港南口", "prefecture": "東京都"}}, {"type": "Feature", "geometry": {"type": "Point", "coordinates": [139.742242, 35.625314]}, "properties": {"category": "godzilla", "category_name": "Godzilla", "color": "#2ecc71", "location_type": "filming", "film_title": "ゴジラ×メカゴジラ", "english_title": "Gojira X Mekagojira (2002)", "year": 2002.0, "location_name": "品川インターシティ（東八ツ山公園付近からアオリ）", "prefecture": "東京都"}}, {"type": "Feature", "geometry": {"type": "Point", "coordinates": [139.745032, 35.625227]}, "properties": {"category": "godzilla", "category_name": "Godzilla", "color": "#2ecc71", "location_type": "filming", "film_title": "ゴジラ×メカゴジラ", "english_title": "Gojira X Mekagojira (2002)", "year": 2002.0, "location_name": "旧海岸通り", "prefecture": "東京都"}}, {"type": "Feature", "geometry": {"type": "Point", "coordinates": [139.746019, 35.625131]}, "properties": {"category": "godzilla", "category_name": "Godzilla", "color": "#2ecc71", "location_type": "filming", "film_title": "ゴジラ×メカゴジラ", "english_title": "Gojira X Mekagojira (2002)", "year": 2002.0, "location_name": "高浜運河", "prefecture": "東京都"}}, {"type": "Feature", "geometry": {"type": "Point", "coordinates": [139.545652, 35.604637]}, "properties": {"category": "godzilla", "category_name": "Godzilla", "color": "#2ecc71", "location_type": "filming", "film_title": "ゴジラ×モスラ×メカゴジラ 東京SOS", "english_title": "GODZILLA: TOKYO SOS", "year": 2003.0, "location_name": "川崎市上下水道局長沢浄水場", "prefecture": "神奈川県"}}, {"type": "Feature", "geometry": {"type": "Point", "coordinates": [139.744858, 35.675888]}, "properties": {"category": "godzilla", "category_name": "Godzilla", "color": "#2ecc71", "location_type": "filming", "film_title": "ゴジラ×モスラ×メカゴジラ 東京SOS", "english_title": "GODZILLA: TOKYO SOS", "year": 2003.0, "location_name": "国会議事堂", "prefecture": "東京都"}}, {"type": "Feature", "geometry": {"type": "Point", "coordinates": [139.730537, 35.691182]}, "properties": {"category": "godzilla", "category_name": "Godzilla", "color": "#2ecc71", "location_type": "filming", "film_title": "ゴジラ×モスラ×メカゴジラ 東京SOS", "english_title": "GODZILLA: TOKYO SOS", "year": 2003.0, "location_name": "現防衛省正門前", "prefecture": "東京都"}}, {"type": "Feature", "geometry": {"type": "Point", "coordinates": [139.749184, 35.657305]}, "properties": {"category": "godzilla", "category_name": "Godzilla", "color": "#2ecc71", "location_type": "filming", "film_title": "ゴジラ×モスラ×メカゴジラ 東京SOS", "english_title": "GODZILLA: TOKYO SOS", "year": 2003.0, "location_name": "増上寺", "prefecture": "東京都"}}, {"type": "Feature", "geometry": {"type": "Point", "coordinates": [139.7454329, 35.6585805]}, "properties": {"category": "godzilla", "category_name": "Godzilla", "color": "#2ecc71", "location_type": "filming", "film_title": "ゴジラ×モスラ×メカゴジラ 東京SOS", "english_title": "GODZILLA: TOKYO SOS", "year": 2003.0, "location_name": "東京タワー", "prefecture": "東京都"}}, {"type": "Feature", "geometry": {"type": "Point", "coordinates": [139.759131, 35.631881]}, "properties": {"category": "godzilla", "category_name": "Godzilla", "color": "#2ecc71", "location_type": "filming", "film_title": "ゴジラ×モスラ×メカゴジラ 東京SOS", "english_title": "GODZILLA: TOKYO SOS", "year": 2003.0, "location_name": "品川埠頭", "prefecture": "東京都"}}, {"type": "Feature", "geometry": {"type": "Point", "coordinates": [139.729228, 35.660408]}, "properties": {"category": "godzilla", "category_name": "Godzilla", "color": "#2ecc71", "location_type": "filming", "film_title": "ゴジラ×モスラ×メカゴジラ 東京SOS", "english_title": "GODZILLA: TOKYO SOS", "year": 2003.0, "location_name": "六本木ヒルズ", "prefecture": "東京都"}}, {"type": "Feature", "geometry": {"type": "Point", "coordinates": [139.749967, 35.67021]}, "properties": {"category": "godzilla", "category_name": "Godzilla", "color": "#2ecc71", "location_type": "filming", "film_title": "ゴジラ×モスラ×メカゴジラ 東京SOS", "english_title": "GODZILLA: TOKYO SOS", "year": 2003.0, "location_name": "東京メトロ虎ノ門駅", "prefecture": "東京都"}}, {"type": "Feature", "geometry": {"type": "Point", "coordinates": [139.653064, 35.487937]}, "properties": {"category": "godzilla", "category_name": "Godzilla", "color": "#2ecc71", "location_type": "filming", "film_title": "ゴジラ×モスラ×メカゴジラ 東京SOS", "english_title": "GODZILLA: TOKYO SOS", "year": 2003.0, "location_name": "横浜市立子安小学校（移転済み）", "prefecture": "神奈川県"}}, {"type": "Feature", "geometry": {"type": "Point", "coordinates": [139.899752, 35.75729]}, "properties": {"category": "godzilla", "category_name": "Godzilla", "color": "#2ecc71", "location_type": "filming", "film_title": "ゴジラ×モスラ×メカゴジラ 東京SOS", "english_title": "GODZILLA: TOKYO SOS", "year": 2003.0, "location_name": "矢切駅", "prefecture": "千葉県"}}, {"type": "Feature", "geometry": {"type": "Point", "coordinates": [139.781612, 35.682444]}, "properties": {"category": "godzilla", "category_name": "Godzilla", "color": "#2ecc71", "location_type": "filming", "film_title": "ゴジラ×モスラ×メカゴジラ 東京SOS", "english_title": "GODZILLA: TOKYO SOS", "year": 2003.0, "location_name": "蛎殻町交差点", "prefecture": "東京都"}}, {"type": "Feature", "geometry": {"type": "Point", "coordinates": [139.450045, 35.4572452]}, "properties": {"category": "godzilla", "category_name": "Godzilla", "color": "#2ecc71", "location_type": "filming", "film_title": "ゴジラ×メカゴジラ", "english_title": "Gojira X Mekagojira (2002)", "year": 2002.0, "location_name": "海上自衛隊厚木航空基地", "prefecture": "神奈川県"}}, {"type": "Feature", "geometry": {"type": "Point", "coordinates": [135.7853498, 34.9949426]}, "properties": {"category": "godzilla", "category_name": "Godzilla", "color": "#2ecc71", "location_type": "filming", "film_title": "ゴジラvsメカゴジラ", "english_title": "GODZILLA VS. MECHAGODZILLA", "year": 1993.0, "location_name": "2a", "prefecture": "京都府"}}, {"type": "Feature", "geometry": {"type": "Point", "coordinates": [140.8843054, 38.2574718]}, "properties": {"category": "godzilla", "category_name": "Godzilla", "color": "#2ecc71", "location_type": "filming", "film_title": "ゴジラvsメカゴジラ", "english_title": "GODZILLA VS. MECHAGODZILLA", "year": 1993.0, "location_name": "仙台駅", "prefecture": "宮城県"}}, {"type": "Feature", "geometry": {"type": "Point", "coordinates": [136.9179779, 34.4414355]}, "properties": {"category": "godzilla", "category_name": "Godzilla", "color": "#2ecc71", "location_type": "filming", "film_title": "ゴジラ", "english_title": "Godzilla", "year": 1954.0, "location_name": "石鏡の漁村・漁港", "prefecture": "三重県"}}, {"type": "Feature", "geometry": {"type": "Point", "coordinates": [134.860666, 34.914934]}, "properties": {"category": "godzilla", "category_name": "Godzilla", "color": "#2ecc71", "location_type": "filming", "film_title": "ゴジラ FINAL WARS", "english_title": "GODZILLA: FINAL WARS", "year": 2004.0, "location_name": "スカイブリッジ", "prefecture": "兵庫県"}}, {"type": "Feature", "geometry": {"type": "Point", "coordinates": [135.1943764, 34.6932379]}, "properties": {"category": "godzilla", "category_name": "Godzilla", "color": "#2ecc71", "location_type": "filming", "film_title": "ゴジラ FINAL WARS", "english_title": "GODZILLA: FINAL WARS", "year": 2004.0, "location_name": "神戸市営地下鉄御崎車両基地", "prefecture": "兵庫県"}}, {"type": "Feature", "geometry": {"type": "Point", "coordinates": [140.446790020214, 36.3417263802419]}, "properties": {"category": "godzilla", "category_name": "Godzilla", "color": "#2ecc71", "location_type": "filming", "film_title": "ゴジラ-1.0", "english_title": "GODZILLA MINUS ONE", "year": 2023.0, "location_name": "ヒロサワ運動公園（下館運動場）、野球場、ソフトボール場、テニスコートなどがあります。、茨城県筑西市上平塚 （筑西市, 茨城県筑西市上平塚）", "prefecture": "茨城県"}}, {"type": "Feature", "geometry": {"type": "Point", "coordinates": [140.446790020214, 36.3417263802419]}, "properties": {"category": "godzilla", "category_name": "Godzilla", "color": "#2ecc71", "location_type": "filming", "film_title": "ゴジラ-1.0", "english_title": "GODZILLA MINUS ONE", "year": 2023.0, "location_name": "大山湖畔公園（鹿島海軍航空隊跡）、「鹿島海軍航空隊」の跡地にある公園、茨城県稲敷郡美浦村大山2014-8 （稲敷郡美浦村, 茨城県稲敷郡美浦村大山2014-8）", "prefecture": "茨城県"}}, {"type": "Feature", "geometry": {"type": "Point", "coordinates": [139.691716090204, 35.6894563297106]}, "properties": {"category": "godzilla", "category_name": "Godzilla", "color": "#2ecc71", "location_type": "filming", "film_title": "シン・ゴジラ", "english_title": "Shin Gojira (2016)", "year": 2016.0, "location_name": "東京駅、関東から各地へ旅する出発地、東京都千代田区丸の内 （千代田区, 東京都千代田区丸の内）", "prefecture": "東京都"}}, {"type": "Feature", "geometry": {"type": "Point", "coordinates": [140.1231231689453, 35.6042785644531]}, "properties": {"category": "godzilla", "category_name": "Godzilla", "color": "#2ecc71", "location_type": "filming", "film_title": "キングコング対ゴジラ", "english_title": "Kingu Kongu tai Gojira (1962)", "year": 1962.0, "location_name": "千葉県", "prefecture": "千葉県"}}, {"type": "Feature", "geometry": {"type": "Point", "coordinates": [140.8717803955078, 38.2685012817383]}, "properties": {"category": "godzilla", "category_name": "Godzilla", "color": "#2ecc71", "location_type": "filming", "film_title": "キングコング対ゴジラ", "english_title": "Kingu Kongu tai Gojira (1962)", "year": 1962.0, "location_name": "宮城県", "prefecture": "宮城県"}}, {"type": "Feature", "geometry": {"type": "Point", "coordinates": [139.6917724609375, 35.6896286010742]}, "properties": {"category": "godzilla", "category_name": "Godzilla", "color": "#2ecc71", "location_type": "filming", "film_title": "キングコング対ゴジラ", "english_title": "Kingu Kongu tai Gojira (1962)", "year": 1962.0, "location_name": "東京", "prefecture": "東京都"}}, {"type": "Feature", "geometry": {"type": "Point", "coordinates": [139.88351440429688, 36.5661315917969]}, "properties": {"category": "godzilla", "category_name": "Godzilla", "color": "#2ecc71", "location_type": "filming", "film_title": "キングコング対ゴジラ", "english_title": "Kingu Kongu tai Gojira (1962)", "year": 1962.0, "location_name": "栃木県", "prefecture": "栃木県"}}, {"type": "Feature", "geometry": {"type": "Point", "coordinates": [139.0717866, 35.096471]}, "properties": {"category": "godzilla", "category_name": "Godzilla", "color": "#2ecc71", "location_type": "filming", "film_title": "キングコング対ゴジラ", "english_title": "Kingu Kongu tai Gojira (1962)", "year": 1962.0, "location_name": "熱海市", "prefecture": "静岡県"}}, {"type": "Feature", "geometry": {"type": "Point", "coordinates": [139.06072998046875, 36.3908805847168]}, "properties": {"category": "godzilla", "category_name": "Godzilla", "color": "#2ecc71", "location_type": "filming", "film_title": "キングコング対ゴジラ", "english_title": "Kingu Kongu tai Gojira (1962)", "year": 1962.0, "location_name": "群馬県", "prefecture": "群馬県"}}, {"type": "Feature", "geometry": {"type": "Point", "coordinates": [139.6917724609375, 35.6896286010742]}, "properties": {"category": "godzilla", "category_name": "Godzilla", "color": "#2ecc71", "location_type": "filming", "film_title": "ゴジラ", "english_title": "Godzilla", "year": 1954.0, "location_name": "東京", "prefecture": "東京都"}}, {"type": "Feature", "geometry": {"type": "Point", "coordinates": [141.02430725097656, 38.7339324951172]}, "properties": {"category": "godzilla", "category_name": "Godzilla", "color": "#2ecc71", "location_type": "filming", "film_title": "ゴジラ", "english_title": "Godzilla", "year": 1954.0, "location_name": "伊豆諸島", "prefecture": "宮城県"}}, {"type": "Feature", "geometry": {"type": "Point", "coordinates": [139.68408203125, 35.8924598693848]}, "properties": {"category": "godzilla", "category_name": "Godzilla", "color": "#2ecc71", "location_type": "filming", "film_title": "ゴジラ", "english_title": "Godzilla", "year": 1954.0, "location_name": "新宿", "prefecture": "埼玉県"}}, {"type": "Feature", "geometry": {"type": "Point", "coordinates": [138.38131713867188, 34.9770011901855]}, "properties": {"category": "godzilla", "category_name": "Godzilla", "color": "#2ecc71", "location_type": "filming", "film_title": "ゴジラ", "english_title": "Godzilla", "year": 1954.0, "location_name": "静岡県", "prefecture": "静岡県"}}, {"type": "Feature", "geometry": {"type": "Point", "coordinates": [138.56906127929688, 35.6648788452148]}, "properties": {"category": "godzilla", "category_name": "Godzilla", "color": "#2ecc71", "location_type": "filming", "film_title": "ゴジラ FINAL WARS", "english_title": "GODZILLA: FINAL WARS", "year": 2004.0, "location_name": "山梨県", "prefecture": "山梨県"}}, {"type": "Feature", "geometry": {"type": "Point", "coordinates": [139.6917724609375, 35.6896286010742]}, "properties": {"category": "godzilla", "category_name": "Godzilla", "color": "#2ecc71", "location_type": "filming", "film_title": "ゴジラ FINAL WARS", "english_title": "GODZILLA: FINAL WARS", "year": 2004.0, "location_name": "東京", "prefecture": "東京都"}}, {"type": "Feature", "geometry": {"type": "Point", "coordinates": [139.6423446, 35.4475073]}, "properties": {"category": "godzilla", "category_name": "Godzilla", "color": "#2ecc71", "location_type": "filming", "film_title": "ゴジラ FINAL WARS", "english_title": "GODZILLA: FINAL WARS", "year": 2004.0, "location_name": "神奈川県", "prefecture": "神奈川県"}}, {"type": "Feature", "geometry": {"type": "Point", "coordinates": [138.38131713867188, 34.9770011901855]}, "properties": {"category": "godzilla", "category_name": "Godzilla", "color": "#2ecc71", "location_type": "filming", "film_title": "ゴジラ FINAL WARS", "english_title": "GODZILLA: FINAL WARS", "year": 2004.0, "location_name": "静岡県", "prefecture": "静岡県"}}, {"type": "Feature", "geometry": {"type": "Point", "coordinates": [139.6917064, 35.6894875]}, "properties": {"category": "godzilla", "category_name": "Godzilla", "color": "#2ecc71", "location_type": "filming", "film_title": "ゴジラ-1.0", "english_title": "GODZILLA MINUS ONE", "year": 2023.0, "location_name": "東京都", "prefecture": "東京都"}}, {"type": "Feature", "geometry": {"type": "Point", "coordinates": [141.346923828125, 43.0640106201172]}, "properties": {"category": "godzilla", "category_name": "Godzilla", "color": "#2ecc71", "location_type": "filming", "film_title": "ゴジラ２０００ ミレニアム", "english_title": "Gojira ni-sen mireniamu (1999)", "year": 1999.0, "location_name": "北海道", "prefecture": "北海道"}}, {"type": "Feature", "geometry": {"type": "Point", "coordinates": [140.1231231689453, 35.6042785644531]}, "properties": {"category": "godzilla", "category_name": "Godzilla", "color": "#2ecc71", "location_type": "filming", "film_title": "ゴジラ２０００ ミレニアム", "english_title": "Gojira ni-sen mireniamu (1999)", "year": 1999.0, "location_name": "千葉県", "prefecture": "千葉県"}}, {"type": "Feature", "geometry": {"type": "Point", "coordinates": [139.68408203125, 35.8924598693848]}, "properties": {"category": "godzilla", "category_name": "Godzilla", "color": "#2ecc71", "location_type": "filming", "film_title": "ゴジラ２０００ ミレニアム", "english_title": "Gojira ni-sen mireniamu (1999)", "year": 1999.0, "location_name": "新宿", "prefecture": "埼玉県"}}, {"type": "Feature", "geometry": {"type": "Point", "coordinates": [139.6917724609375, 35.6896286010742]}, "properties": {"category": "godzilla", "category_name": "Godzilla", "color": "#2ecc71", "location_type": "filming", "film_title": "ゴジラ２０００ ミレニアム", "english_title": "Gojira ni-sen mireniamu (1999)", "year": 1999.0, "location_name": "東京", "prefecture": "東京都"}}, {"type": "Feature", "geometry": {"type": "Point", "coordinates": [140.44407653808594, 36.3406791687012]}, "properties": {"category": "godzilla", "category_name": "Godzilla", "color": "#2ecc71", "location_type": "filming", "film_title": "ゴジラ２０００ ミレニアム", "english_title": "Gojira ni-sen mireniamu (1999)", "year": 1999.0, "location_name": "茨城県", "prefecture": "茨城県"}}, {"type": "Feature", "geometry": {"type": "Point", "coordinates": [132.7324364, 34.3947165]}, "properties": {"category": "godzilla", "category_name": "Godzilla", "color": "#2ecc71", "location_type": "filming", "film_title": "ゴジラvsキングギドラ", "english_title": "[T] Godzilla vs King Ghidorah", "year": 1991.0, "location_name": "広島市", "prefecture": "広島県"}}, {"type": "Feature", "geometry": {"type": "Point", "coordinates": [139.68408203125, 35.8924598693848]}, "properties": {"category": "godzilla", "category_name": "Godzilla", "color": "#2ecc71", "location_type": "filming", "film_title": "ゴジラvsキングギドラ", "english_title": "[T] Godzilla vs King Ghidorah", "year": 1991.0, "location_name": "新宿", "prefecture": "埼玉県"}}, {"type": "Feature", "geometry": {"type": "Point", "coordinates": [139.7036319, 35.6937632]}, "properties": {"category": "godzilla", "category_name": "Godzilla", "color": "#2ecc71", "location_type": "filming", "film_title": "ゴジラvsキングギドラ", "english_title": "[T] Godzilla vs King Ghidorah", "year": 1991.0, "location_name": "新宿区", "prefecture": "東京都"}}, {"type": "Feature", "geometry": {"type": "Point", "coordinates": [141.3542924, 43.061936]}, "properties": {"category": "godzilla", "category_name": "Godzilla", "color": "#2ecc71", "location_type": "filming", "film_title": "ゴジラvsキングギドラ", "english_title": "[T] Godzilla vs King Ghidorah", "year": 1991.0, "location_name": "札幌市", "prefecture": "北海道"}}, {"type": "Feature", "geometry": {"type": "Point", "coordinates": [139.6917724609375, 35.6896286010742]}, "properties": {"category": "godzilla", "category_name": "Godzilla", "color": "#2ecc71", "location_type": "filming", "film_title": "ゴジラvsキングギドラ", "english_title": "[T] Godzilla vs King Ghidorah", "year": 1991.0, "location_name": "東京", "prefecture": "東京都"}}, {"type": "Feature", "geometry": {"type": "Point", "coordinates": [130.4017509, 33.5898988]}, "properties": {"category": "godzilla", "category_name": "Godzilla", "color": "#2ecc71", "location_type": "filming", "film_title": "ゴジラvsキングギドラ", "english_title": "[T] Godzilla vs King Ghidorah", "year": 1991.0, "location_name": "福岡市", "prefecture": "福岡県"}}, {"type": "Feature", "geometry": {"type": "Point", "coordinates": [144.2304223, 44.0156546]}, "properties": {"category": "godzilla", "category_name": "Godzilla", "color": "#2ecc71", "location_type": "filming", "film_title": "ゴジラvsキングギドラ", "english_title": "[T] Godzilla vs King Ghidorah", "year": 1991.0, "location_name": "網走市", "prefecture": "北海道"}}, {"type": "Feature", "geometry": {"type": "Point", "coordinates": [140.1231231689453, 35.6042785644531]}, "properties": {"category": "godzilla", "category_name": "Godzilla", "color": "#2ecc71", "location_type": "filming", "film_title": "ゴジラ×メカゴジラ", "english_title": "Gojira X Mekagojira (2002)", "year": 2002.0, "location_name": "千葉県", "prefecture": "千葉県"}}, {"type": "Feature", "geometry": {"type": "Point", "coordinates": [139.6917724609375, 35.6896286010742]}, "properties": {"category": "godzilla", "category_name": "Godzilla", "color": "#2ecc71", "location_type": "filming", "film_title": "ゴジラ×メカゴジラ", "english_title": "Gojira X Mekagojira (2002)", "year": 2002.0, "location_name": "東京", "prefecture": "東京都"}}, {"type": "Feature", "geometry": {"type": "Point", "coordinates": [139.6462837, 35.4272033]}, "properties": {"category": "godzilla", "category_name": "Godzilla", "color": "#2ecc71", "location_type": "filming", "film_title": "ゴジラ×メカゴジラ", "english_title": "Gojira X Mekagojira (2002)", "year": 2002.0, "location_name": "横浜市", "prefecture": "神奈川県"}}, {"type": "Feature", "geometry": {"type": "Point", "coordinates": [135.5021651, 34.6937378]}, "properties": {"category": "godzilla", "category_name": "Godzilla", "color": "#2ecc71", "location_type": "filming", "film_title": "ゴジラ×メガギラス Ｇ消滅作戦", "english_title": "Godzilla vs. Megaguirus", "year": 2000.0, "location_name": "大阪市", "prefecture": "大阪府"}}, {"type": "Feature", "geometry": {"type": "Point", "coordinates": [138.56906127929688, 35.6648788452148]}, "properties": {"category": "godzilla", "category_name": "Godzilla", "color": "#2ecc71", "location_type": "filming", "film_title": "ゴジラ×メガギラス Ｇ消滅作戦", "english_title": "Godzilla vs. Megaguirus", "year": 2000.0, "location_name": "山梨県", "prefecture": "山梨県"}}, {"type": "Feature", "geometry": {"type": "Point", "coordinates": [139.6917724609375, 35.6896286010742]}, "properties": {"category": "godzilla", "category_name": "Godzilla", "color": "#2ecc71", "location_type": "filming", "film_title": "ゴジラ×メガギラス Ｇ消滅作戦", "english_title": "Godzilla vs. Megaguirus", "year": 2000.0, "location_name": "東京", "prefecture": "東京都"}}, {"type": "Feature", "geometry": {"type": "Point", "coordinates": [139.7040506, 35.6617773]}, "properties": {"category": "godzilla", "category_name": "Godzilla", "color": "#2ecc71", "location_type": "filming", "film_title": "ゴジラ×メガギラス Ｇ消滅作戦", "english_title": "Godzilla vs. Megaguirus", "year": 2000.0, "location_name": "渋谷", "prefecture": "東京都"}}, {"type": "Feature", "geometry": {"type": "Point", "coordinates": [140.729008, 41.768793]}, "properties": {"category": "godzilla", "category_name": "Godzilla", "color": "#2ecc71", "location_type": "filming", "film_title": "メカゴジラの逆襲", "english_title": "Mekagojira no gyakushu (1975)", "year": 1975.0, "location_name": "函館市", "prefecture": "北海道"}}, {"type": "Feature", "geometry": {"type": "Point", "coordinates": [135.5021651, 34.6937378]}, "properties": {"category": "godzilla", "category_name": "Godzilla", "color": "#2ecc71", "location_type": "filming", "film_title": "メカゴジラの逆襲", "english_title": "Mekagojira no gyakushu (1975)", "year": 1975.0, "location_name": "大阪市", "prefecture": "大阪府"}}, {"type": "Feature", "geometry": {"type": "Point", "coordinates": [139.6917724609375, 35.6896286010742]}, "properties": {"category": "godzilla", "category_name": "Godzilla", "color": "#2ecc71", "location_type": "filming", "film_title": "ゴジラ・エビラ・モスラ 南海の大決闘", "english_title": "Ebirah,Horror of the Deep", "year": 1966.0, "location_name": "東京", "prefecture": "東京都"}}, {"type": "Feature", "geometry": {"type": "Point", "coordinates": [140.7399984, 40.8243077]}, "properties": {"category": "godzilla", "category_name": "Godzilla", "color": "#2ecc71", "location_type": "filming", "film_title": "ゴジラ・エビラ・モスラ 南海の大決闘", "english_title": "Ebirah,Horror of the Deep", "year": 1966.0, "location_name": "青森県", "prefecture": "青森県"}}, {"type": "Feature", "geometry": {"type": "Point", "coordinates": [139.7037668, 35.5306639]}, "properties": {"category": "godzilla", "category_name": "Godzilla", "color": "#2ecc71", "location_type": "filming", "film_title": "ゴジラ・ミニラ・ガバラ オール怪獣大進撃", "english_title": "ALL MONSTERS ATTACK", "year": 1969.0, "location_name": "川崎市", "prefecture": "神奈川県"}}, {"type": "Feature", "geometry": {"type": "Point", "coordinates": [138.38131713867188, 34.9770011901855]}, "properties": {"category": "godzilla", "category_name": "Godzilla", "color": "#2ecc71", "location_type": "filming", "film_title": "ゴジラ対ヘドラ", "english_title": "GODZILLA VS HEDORAH", "year": 1971.0, "location_name": "静岡県", "prefecture": "静岡県"}}, {"type": "Feature", "geometry": {"type": "Point", "coordinates": [139.6917724609375, 35.6896286010742]}, "properties": {"category": "godzilla", "category_name": "Godzilla", "color": "#2ecc71", "location_type": "filming", "film_title": "ゴジラ対メカゴジラ", "english_title": "Gojira tai Mekagojira (1974)", "year": 1974.0, "location_name": "東京", "prefecture": "東京都"}}, {"type": "Feature", "geometry": {"type": "Point", "coordinates": [127.67945861816406, 26.2127799987793]}, "properties": {"category": "godzilla", "category_name": "Godzilla", "color": "#2ecc71", "location_type": "filming", "film_title": "ゴジラ対メカゴジラ", "english_title": "Gojira tai Mekagojira (1974)", "year": 1974.0, "location_name": "沖縄県", "prefecture": "沖縄県"}}, {"type": "Feature", "geometry": {"type": "Point", "coordinates": [138.38131713867188, 34.9770011901855]}, "properties": {"category": "godzilla", "category_name": "Godzilla", "color": "#2ecc71", "location_type": "filming", "film_title": "ゴジラ対メカゴジラ", "english_title": "Gojira tai Mekagojira (1974)", "year": 1974.0, "location_name": "静岡県", "prefecture": "静岡県"}}, {"type": "Feature", "geometry": {"type": "Point", "coordinates": [139.6917064, 35.6894875]}, "properties": {"category": "godzilla", "category_name": "Godzilla", "color": "#2ecc71", "location_type": "filming", "film_title": "ゴジラ対メガロ", "english_title": "Godzilla vs Megalon", "year": 1973.0, "location_name": "東京都", "prefecture": "東京都"}}, {"type": "Feature", "geometry": {"type": "Point", "coordinates": [140.1231231689453, 35.6042785644531]}, "properties": {"category": "godzilla", "category_name": "Godzilla", "color": "#2ecc71", "location_type": "filming", "film_title": "シン・ゴジラ", "english_title": "Shin Gojira (2016)", "year": 2016.0, "location_name": "千葉県", "prefecture": "千葉県"}}, {"type": "Feature", "geometry": {"type": "Point", "coordinates": [139.6917064, 35.6894875]}, "properties": {"category": "godzilla", "category_name": "Godzilla", "color": "#2ecc71", "location_type": "filming", "film_title": "シン・ゴジラ", "english_title": "Shin Gojira (2016)", "year": 2016.0, "location_name": "東京都", "prefecture": "東京都"}}, {"type": "Feature", "geometry": {"type": "Point", "coordinates": [139.6423446, 35.4475073]}, "properties": {"category": "godzilla", "category_name": "Godzilla", "color": "#2ecc71", "location_type": "filming", "film_title": "シン・ゴジラ", "english_title": "Shin Gojira (2016)", "year": 2016.0, "location_name": "神奈川県", "prefecture": "神奈川県"}}, {"type": "Feature", "geometry": {"type": "Point", "coordinates": [141.02430725097656, 38.7339324951172]}, "properties": {"category": "godzilla", "category_name": "Godzilla", "color": "#2ecc71", "location_type": "filming", "film_title": "メカゴジラの逆襲", "english_title": "Mekagojira no gyakushu (1975)", "year": 1975.0, "location_name": "伊豆半島", "prefecture": "宮城県"}}, {"type": "Feature", "geometry": {"type": "Point", "coordinates": [139.6917724609375, 35.6896286010742]}, "properties": {"category": "godzilla", "category_name": "Godzilla", "color": "#2ecc71", "location_type": "filming", "film_title": "メカゴジラの逆襲", "english_title": "Mekagojira no gyakushu (1975)", "year": 1975.0, "location_name": "東京", "prefecture": "東京都"}}, {"type": "Feature", "geometry": {"type": "Point", "coordinates": [139.6719597, 35.2814779]}, "properties": {"category": "godzilla", "category_name": "Godzilla", "color": "#2ecc71", "location_type": "filming", "film_title": "メカゴジラの逆襲", "english_title": "Mekagojira no gyakushu (1975)", "year": 1975.0, "location_name": "横須賀市", "prefecture": "神奈川県"}}, {"type": "Feature", "geometry": {"type": "Point", "coordinates": [127.67945861816406, 26.2127799987793]}, "properties": {"category": "godzilla", "category_name": "Godzilla", "color": "#2ecc71", "location_type": "filming", "film_title": "メカゴジラの逆襲", "english_title": "Mekagojira no gyakushu (1975)", "year": 1975.0, "location_name": "沖縄県", "prefecture": "沖縄県"}}, {"type": "Feature", "geometry": {"type": "Point", "coordinates": [136.50889587402344, 34.7305717468262]}, "properties": {"category": "godzilla", "category_name": "Godzilla", "color": "#2ecc71", "location_type": "filming", "film_title": "モスラ対ゴジラ", "english_title": "MOTHRA VS. GODZILLA", "year": 1964.0, "location_name": "三重県", "prefecture": "三重県"}}, {"type": "Feature", "geometry": {"type": "Point", "coordinates": [136.8998438, 35.1851045]}, "properties": {"category": "godzilla", "category_name": "Godzilla", "color": "#2ecc71", "location_type": "filming", "film_title": "モスラ対ゴジラ", "english_title": "MOTHRA VS. GODZILLA", "year": 1964.0, "location_name": "名古屋市", "prefecture": "愛知県"}},