{"generated": "2025-12-21T15:50:45.477911", "metadata": {"categories": {"godzilla": {"name": "Godzilla", "name_jp": "ゴジラ", "film_count": 85, "location_count": 2445, "filming_locations": 558, "represented_locations": 1887, "color": "#2ecc71"}, "torasan": {"name": "Tora-san", "name_jp": "男はつらいよ", "film_count": 82, "location_count": 3076, "filming_locations": 1513, "represented_locations": 1563, "color": "#f1c40f"}}}, "locations": [{"type": "Feature", "geometry": {"type": "Point", "coordinates": [139.078682, 35.086406]}, "properties": {"category": "godzilla", "location_type": "filming", "film_title": "キングコング対ゴジラ", "film_title_en": "Kingu Kongu tai Gojira (1962)", "year": 1962.0, "location_name": "Atami, Japan", "prefecture": "静岡県"}}, {"type": "Feature", "geometry": {"type": "Point", "coordinates": [40.712784, 40.712784]}, "properties": {"category": "godzilla", "location_type": "filming", "film_title": "ＧＯＤＺＩＬＬＡ 星を喰う者", "film_title_en": "Godzilla", "year": 1996.0, "location_name": "New York City, NY", "prefecture": "Overseas"}}, {"type": "Feature", "geometry": {"type": "Point", "coordinates": [139.763389, 35.665636]}, "properties": {"category": "godzilla", "location_type": "filming", "film_title": "ゴジラ×コング 新たなる帝国", "film_title_en": "Gojira (1954)", "year": 1954.0, "location_name": "Chūō, Tokyo", "prefecture": "東京都"}}, {"type": "Feature", "geometry": {"type": "Point", "coordinates": [139.672172, 35.281228]}, "properties": {"category": "godzilla", "location_type": "filming", "film_title": "メカゴジラの逆襲", "film_title_en": "Mekagojira no gyakushu (1975)", "year": 1975.0, "location_name": "Yokosuka, Kanagawa, Japan", "prefecture": "神奈川県"}}, {"type": "Feature", "geometry": {"type": "Point", "coordinates": [141.35, 43.066667]}, "properties": {"category": "godzilla", "location_type": "filming", "film_title": "ゴジラvsキングギドラ", "film_title_en": "[T] Godzilla vs King Ghidorah", "year": 1991.0, "location_name": "Sapporo", "prefecture": "北海道"}}, {"type": "Feature", "geometry": {"type": "Point", "coordinates": [139.744735, 35.675862]}, "properties": {"category": "godzilla", "location_type": "filming", "film_title": "キングコング対ゴジラ", "film_title_en": "Kingu Kongu tai Gojira (1962)", "year": 1962.0, "location_name": "National Diet Building, Chiyoda, Tokyo, Japan", "prefecture": "東京都"}}, {"type": "Feature", "geometry": {"type": "Point", "coordinates": [137.6333, 36.247]}, "properties": {"category": "godzilla", "location_type": "filming", "film_title": "怪獣大戦争", "film_title_en": "Godzilla vs. Monster Zero", "year": 1965.0, "location_name": "Lake Myojin", "prefecture": "長野県"}}, {"type": "Feature", "geometry": {"type": "Point", "coordinates": [139.691706, 35.689488]}, "properties": {"category": "godzilla", "location_type": "filming", "film_title": "シン・ゴジラ", "film_title_en": "Shin Gojira (2016)", "year": 2016.0, "location_name": "Tokyo", "prefecture": "東京都"}}, {"type": "Feature", "geometry": {"type": "Point", "coordinates": [-155.5828, 19.8968]}, "properties": {"category": "godzilla", "location_type": "filming", "film_title": "ゴジラ", "film_title_en": "Tokyo Calling (2012)", "year": 2012.0, "location_name": "Hawaii", "prefecture": "Overseas"}}, {"type": "Feature", "geometry": {"type": "Point", "coordinates": [136.842139, 34.487889]}, "properties": {"category": "godzilla", "location_type": "filming", "film_title": "ゴジラ×コング 新たなる帝国", "film_title_en": "Gojira (1954)", "year": 1954.0, "location_name": "Toba, Mie Prefecture", "prefecture": "三重県"}}, {"type": "Feature", "geometry": {"type": "Point", "coordinates": [139.271495, 36.655227]}, "properties": {"category": "godzilla", "location_type": "filming", "film_title": "ゴジラ×コング 新たなる帝国", "film_title_en": "Gojira (1954)", "year": 1954.0, "location_name": "Japan", "prefecture": "群馬県"}}, {"type": "Feature", "geometry": {"type": "Point", "coordinates": [139.713884, 35.562479]}, "properties": {"category": "godzilla", "location_type": "filming", "film_title": "シン・ゴジラ", "film_title_en": "Shin Gojira (2016)", "year": 2016.0, "location_name": "Kamata", "prefecture": "東京都"}}, {"type": "Feature", "geometry": {"type": "Point", "coordinates": [139.691706, 35.689488]}, "properties": {"category": "godzilla", "location_type": "filming", "film_title": "ゴジラ対メガロ", "film_title_en": "Godzilla vs Megalon", "year": 1973.0, "location_name": "Tokyo", "prefecture": "東京都"}}, {"type": "Feature", "geometry": {"type": "Point", "coordinates": [135.502162, 34.693726]}, "properties": {"category": "godzilla", "location_type": "filming", "film_title": "ゴジラ", "film_title_en": "Godzilla vs. Biollante", "year": 1989.0, "location_name": "Osaka, Japan", "prefecture": "大阪府"}}, {"type": "Feature", "geometry": {"type": "Point", "coordinates": [139.271495, 36.655227]}, "properties": {"category": "godzilla", "location_type": "filming", "film_title": "シン・ゴジラ", "film_title_en": "Shin Gojira (2016)", "year": 2016.0, "location_name": "Japan", "prefecture": "群馬県"}}, {"type": "Feature", "geometry": {"type": "Point", "coordinates": [136.786305, 34.456484]}, "properties": {"category": "godzilla", "location_type": "filming", "film_title": "ゴジラ×コング 新たなる帝国", "film_title_en": "Gojira (1954)", "year": 1954.0, "location_name": "Odo Island", "prefecture": "三重県"}}, {"type": "Feature", "geometry": {"type": "Point", "coordinates": [139.691706, 35.689488]}, "properties": {"category": "godzilla", "location_type": "filming", "film_title": "ゴジラ×コング 新たなる帝国", "film_title_en": "Gojira (1954)", "year": 1954.0, "location_name": "Tokyo", "prefecture": "東京都"}}, {"type": "Feature", "geometry": {"type": "Point", "coordinates": [2.3414, 48.85717]}, "properties": {"category": "godzilla", "location_type": "filming", "film_title": "ゴジラ", "film_title_en": "Godzilla", "year": 2004.0, "location_name": "Paris, France", "prefecture": "Overseas"}}, {"type": "Feature", "geometry": {"type": "Point", "coordinates": [139.706331, 35.657676]}, "properties": {"category": "godzilla", "location_type": "filming", "film_title": "", "film_title_en": "The Amazing Race\" (2001) {They Thought Godzilla Was Walking Down the Street (#15.1)}", "year": 2009.0, "location_name": "Konno Hachimangu Shrine, Shibuya-ku, Tokyo, Japan", "prefecture": "東京都"}}, {"type": "Feature", "geometry": {"type": "Point", "coordinates": [140.385767, 35.764352]}, "properties": {"category": "godzilla", "location_type": "filming", "film_title": "", "film_title_en": "The Amazing Race\" (2001) {They Thought Godzilla Was Walking Down the Street (#15.1)}", "year": 2009.0, "location_name": "Narita Airport, Narita, Chiba, Japan", "prefecture": "千葉県"}}, {"type": "Feature", "geometry": {"type": "Point", "coordinates": [139.705022, 35.659055]}, "properties": {"category": "godzilla", "location_type": "filming", "film_title": "", "film_title_en": "The Amazing Race\" (2001) {They Thought Godzilla Was Walking Down the Street (#15.1)}", "year": 2009.0, "location_name": "Shibuya Crossing, Shibuya-ku, Tokyo, Japan", "prefecture": "東京都"}}, {"type": "Feature", "geometry": {"type": "Point", "coordinates": [139.750555, 35.649576]}, "properties": {"category": "godzilla", "location_type": "filming", "film_title": "", "film_title_en": "The Amazing Race\" (2001) {They Thought Godzilla Was Walking Down the Street (#15.1)}", "year": 2009.0, "location_name": "Tokyo Tower Studios - 4-2-8 Tokyo Tower, Shiba Park, Minato-ku, Tokyo, Japan", "prefecture": "東京都"}}, {"type": "Feature", "geometry": {"type": "Point", "coordinates": [139.691706, 35.689488]}, "properties": {"category": "godzilla", "location_type": "filming", "film_title": "", "film_title_en": "The Amazing Race\" (2001) {They Thought Godzilla Was Walking Down the Street (#15.1)}", "year": 2009.0, "location_name": "Tokyo", "prefecture": "東京都"}}, {"type": "Feature", "geometry": {"type": "Point", "coordinates": [139.691706, 35.689488]}, "properties": {"category": "godzilla", "location_type": "filming", "film_title": "ゴジラ キング・オブ・モンスターズ", "film_title_en": "Bringing Godzilla Down to Size: The Art of Japanese Special Effects", "year": 2008.0, "location_name": "Tokyo", "prefecture": "東京都"}}, {"type": "Feature", "geometry": {"type": "Point", "coordinates": [139.691706, 35.689488]}, "properties": {"category": "godzilla", "location_type": "filming", "film_title": "", "film_title_en": "Der Mann der Godzilla fliegen ließ ! (2015) (V)", "year": 2015.0, "location_name": "Tokyo", "prefecture": "東京都"}}, {"type": "Feature", "geometry": {"type": "Point", "coordinates": [139.294109, 35.728941]}, "properties": {"category": "godzilla", "location_type": "filming", "film_title": "GODZILLA ゴジラ", "film_title_en": "For Udon and Country (2012)", "year": 2012.0, "location_name": "Akiruno, Tokyo, Japan", "prefecture": "東京都"}}, {"type": "Feature", "geometry": {"type": "Point", "coordinates": [139.691706, 35.689488]}, "properties": {"category": "godzilla", "location_type": "filming", "film_title": "GODZILLA ゴジラ", "film_title_en": "For Udon and Country (2012)", "year": 2012.0, "location_name": "Tokyo", "prefecture": "東京都"}}, {"type": "Feature", "geometry": {"type": "Point", "coordinates": [139.271495, 36.655227]}, "properties": {"category": "godzilla", "location_type": "filming", "film_title": "ゴジラ２０００ ミレニアム", "film_title_en": "Gojira ni-sen mireniamu (1999)", "year": 1999.0, "location_name": "Japan", "prefecture": "群馬県"}}, {"type": "Feature", "geometry": {"type": "Point", "coordinates": [127.680947, 26.212281]}, "properties": {"category": "godzilla", "location_type": "filming", "film_title": "ゴジラ対メカゴジラ", "film_title_en": "Gojira tai Mekagojira (1974)", "year": 1974.0, "location_name": "Okinawa, Japan", "prefecture": "沖縄県"}}, {"type": "Feature", "geometry": {"type": "Point", "coordinates": [127.680947, 26.212281]}, "properties": {"category": "godzilla", "location_type": "filming", "film_title": "ゴジラ対メカゴジラ", "film_title_en": "Gojira tai Mekagojira (1974)", "year": 1974.0, "location_name": "Gyokusen Cave, Okinawa, Japan", "prefecture": "沖縄県"}}, {"type": "Feature", "geometry": {"type": "Point", "coordinates": [139.749601, 35.660249]}, "properties": {"category": "godzilla", "location_type": "filming", "film_title": "ゴジラ", "film_title_en": "Godzilla", "year": 2003.0, "location_name": "Shiba Park, Minato-ku, Tokyo, Japan", "prefecture": "東京都"}}, {"type": "Feature", "geometry": {"type": "Point", "coordinates": [131.0, 33.0]}, "properties": {"category": "godzilla", "location_type": "filming", "film_title": "ゴジラ", "film_title_en": "Godzilla", "year": 1991.0, "location_name": "Kyushu, Japan", "prefecture": "熊本県"}}, {"type": "Feature", "geometry": {"type": "Point", "coordinates": [141.354369, 43.062037]}, "properties": {"category": "godzilla", "location_type": "filming", "film_title": "ゴジラ", "film_title_en": "Godzilla", "year": 1991.0, "location_name": "Sapporo, Hokkaido, Japan", "prefecture": "北海道"}}, {"type": "Feature", "geometry": {"type": "Point", "coordinates": [139.691706, 35.689488]}, "properties": {"category": "godzilla", "location_type": "filming", "film_title": "ゴジラ", "film_title_en": "Godzilla", "year": 1991.0, "location_name": "Tokyo", "prefecture": "東京都"}}, {"type": "Feature", "geometry": {"type": "Point", "coordinates": [139.605144, 35.636138]}, "properties": {"category": "godzilla", "location_type": "filming", "film_title": "ゴジラ モスラ キングギドラ 大怪獣総攻撃", "film_title_en": "Godzilla, Mothra and King Ghidorah: Attack of the Giant Monsters", "year": 2001.0, "location_name": "Studio 1, Toho Studios, Tokyo, Japan", "prefecture": "東京都"}}, {"type": "Feature", "geometry": {"type": "Point", "coordinates": [139.605144, 35.636138]}, "properties": {"category": "godzilla", "location_type": "filming", "film_title": "ゴジラ モスラ キングギドラ 大怪獣総攻撃", "film_title_en": "Godzilla, Mothra and King Ghidorah: Attack of the Giant Monsters", "year": 2001.0, "location_name": "Studio 8, Toho Studios, Tokyo, Japan", "prefecture": "東京都"}}, {"type": "Feature", "geometry": {"type": "Point", "coordinates": [139.605144, 35.636138]}, "properties": {"category": "godzilla", "location_type": "filming", "film_title": "ゴジラ モスラ キングギドラ 大怪獣総攻撃", "film_title_en": "Godzilla, Mothra and King Ghidorah: Attack of the Giant Monsters", "year": 2001.0, "location_name": "Studio 9, Toho Studios, Tokyo, Japan", "prefecture": "東京都"}}, {"type": "Feature", "geometry": {"type": "Point", "coordinates": [139.638026, 35.443708]}, "properties": {"category": "godzilla", "location_type": "filming", "film_title": "ゴジラ モスラ キングギドラ 大怪獣総攻撃", "film_title_en": "Godzilla, Mothra and King Ghidorah: Attack of the Giant Monsters", "year": 2001.0, "location_name": "Yokohama, Kanagawa, Japan", "prefecture": "神奈川県"}}, {"type": "Feature", "geometry": {"type": "Point", "coordinates": [139.271495, 36.655227]}, "properties": {"category": "godzilla", "location_type": "filming", "film_title": "ゴジラ", "film_title_en": "Godzilla", "year": 2004.0, "location_name": "Japan", "prefecture": "群馬県"}}, {"type": "Feature", "geometry": {"type": "Point", "coordinates": [139.691706, 35.689488]}, "properties": {"category": "godzilla", "location_type": "filming", "film_title": "ゴジラ", "film_title_en": "Godzilla", "year": 2004.0, "location_name": "Tokyo", "prefecture": "東京都"}}, {"type": "Feature", "geometry": {"type": "Point", "coordinates": [139.691706, 35.689488]}, "properties": {"category": "godzilla", "location_type": "filming", "film_title": "怪獣王ゴジラ", "film_title_en": "Godzilla, King of the Monsters", "year": 1998.0, "location_name": "Tokyo", "prefecture": "東京都"}}, {"type": "Feature", "geometry": {"type": "Point", "coordinates": [136.843433, 34.481334]}, "properties": {"category": "godzilla", "location_type": "filming", "film_title": "ゴジラ×コング 新たなる帝国", "film_title_en": "Gojira (1954)", "year": 1954.0, "location_name": "Toba, Mie, Japan", "prefecture": "三重県"}}, {"type": "Feature", "geometry": {"type": "Point", "coordinates": [139.605144, 35.636138]}, "properties": {"category": "godzilla", "location_type": "filming", "film_title": "ゴジラ×コング 新たなる帝国", "film_title_en": "Gojira (1954)", "year": 1954.0, "location_name": "Toho Studios, Tokyo, Japan", "prefecture": "東京都"}}, {"type": "Feature", "geometry": {"type": "Point", "coordinates": [139.605144, 35.636138]}, "properties": {"category": "godzilla", "location_type": "filming", "film_title": "ゴジラ×メカゴジラ", "film_title_en": "Gojira X Mekagojira (2002)", "year": 2002.0, "location_name": "Studio 9, Toho Studios, Tokyo, Japan", "prefecture": "東京都"}}, {"type": "Feature", "geometry": {"type": "Point", "coordinates": [133.529102, 33.559587]}, "properties": {"category": "godzilla", "location_type": "filming", "film_title": "怪獣大戦争", "film_title_en": "Godzilla vs. Monster Zero", "year": 1965.0, "location_name": "Lake Myojin, Kochi, Japan", "prefecture": "高知県"}}, {"type": "Feature", "geometry": {"type": "Point", "coordinates": [139.691706, 35.689488]}, "properties": {"category": "godzilla", "location_type": "filming", "film_title": "ゴジラ", "film_title_en": "Tokyo Calling (2012)", "year": 2012.0, "location_name": "Tokyo", "prefecture": "東京都"}}, {"type": "Feature", "geometry": {"type": "Point", "coordinates": [139.271495, 36.655227]}, "properties": {"category": "godzilla", "location_type": "filming", "film_title": "キングコング対ゴジラ", "film_title_en": "Kingu Kongu tai Gojira (1962)", "year": 1962.0, "location_name": "Japan", "prefecture": "群馬県"}}, {"type": "Feature", "geometry": {"type": "Point", "coordinates": [139.271495, 36.655227]}, "properties": {"category": "godzilla", "location_type": "filming", "film_title": "ＧＯＤＺＩＬＬＡ 星を喰う者", "film_title_en": "Godzilla", "year": 1996.0, "location_name": "Japan", "prefecture": "群馬県"}}, {"type": "Feature", "geometry": {"type": "Point", "coordinates": [139.271495, 36.655227]}, "properties": {"category": "godzilla", "location_type": "filming", "film_title": "ゴジラvsキングギドラ", "film_title_en": "[T] Godzilla vs King Ghidorah", "year": 1991.0, "location_name": "Japan", "prefecture": "群馬県"}}, {"type": "Feature", "geometry": {"type": "Point", "coordinates": [139.271495, 36.655227]}, "properties": {"category": "godzilla", "location_type": "filming", "film_title": "怪獣大戦争", "film_title_en": "Godzilla vs. Monster Zero", "year": 1965.0, "location_name": "Japan", "prefecture": "群馬県"}}, {"type": "Feature", "geometry": {"type": "Point", "coordinates": [139.271495, 36.655227]}, "properties": {"category": "godzilla", "location_type": "filming", "film_title": "ゴジラ対メガロ", "film_title_en": "Godzilla vs Megalon", "year": 1973.0, "location_name": "Japan", "prefecture": "群馬県"}}, {"type": "Feature", "geometry": {"type": "Point", "coordinates": [139.271495, 36.655227]}, "properties": {"category": "godzilla", "location_type": "filming", "film_title": "ゴジラ", "film_title_en": "Godzilla vs. Biollante", "year": 1989.0, "location_name": "Japan", "prefecture": "群馬県"}}, {"type": "Feature", "geometry": {"type": "Point", "coordinates": [139.271495, 36.655227]}, "properties": {"category": "godzilla", "location_type": "filming", "film_title": "ゴジラ モスラ キングギドラ 大怪獣総攻撃", "film_title_en": "Godzilla, Mothra and King Ghidorah: Attack of the Giant Monsters", "year": 2001.0, "location_name": "Japan", "prefecture": "群馬県"}}, {"type": "Feature", "geometry": {"type": "Point", "coordinates": [-74.006, 40.7128]}, "properties": {"category": "godzilla", "location_type": "filming", "film_title": "ゴジラ", "film_title_en": "Godzilla", "year": 2004.0, "location_name": "New York City", "prefecture": "Overseas"}}, {"type": "Feature", "geometry": {"type": "Point", "coordinates": [2.352222, 48.856614]}, "properties": {"category": "godzilla", "location_type": "filming", "film_title": "ゴジラ", "film_title_en": "Godzilla", "year": 2004.0, "location_name": "Paris", "prefecture": "Overseas"}}, {"type": "Feature", "geometry": {"type": "Point", "coordinates": [-111.0937, 34.0489]}, "properties": {"category": "godzilla", "location_type": "filming", "film_title": "ゴジラ", "film_title_en": "Godzilla", "year": 2004.0, "location_name": "Arizona", "prefecture": "Overseas"}}, {"type": "Feature", "geometry": {"type": "Point", "coordinates": [139.271495, 36.655227]}, "properties": {"category": "godzilla", "location_type": "filming", "film_title": "ゴジラ対メカゴジラ", "film_title_en": "Gojira tai Mekagojira (1974)", "year": 1974.0, "location_name": "Japan", "prefecture": "群馬県"}}, {"type": "Feature", "geometry": {"type": "Point", "coordinates": [139.271495, 36.655227]}, "properties": {"category": "godzilla", "location_type": "filming", "film_title": "ゴジラ", "film_title_en": "Godzilla", "year": 2003.0, "location_name": "Japan", "prefecture": "群馬県"}}, {"type": "Feature", "geometry": {"type": "Point", "coordinates": [139.271495, 36.655227]}, "properties": {"category": "godzilla", "location_type": "filming", "film_title": "ゴジラ", "film_title_en": "Godzilla", "year": 1991.0, "location_name": "Japan", "prefecture": "群馬県"}}, {"type": "Feature", "geometry": {"type": "Point", "coordinates": [139.271495, 36.655227]}, "properties": {"category": "godzilla", "location_type": "filming", "film_title": "ゴジラ×メカゴジラ", "film_title_en": "Gojira X Mekagojira (2002)", "year": 2002.0, "location_name": "Japan", "prefecture": "群馬県"}}, {"type": "Feature", "geometry": {"type": "Point", "coordinates": [139.271495, 36.655227]}, "properties": {"category": "godzilla", "location_type": "filming", "film_title": "ゴジラ", "film_title_en": "Godzilla vs. SpaceGodzilla", "year": 1994.0, "location_name": "Japan", "prefecture": "群馬県"}}, {"type": "Feature", "geometry": {"type": "Point", "coordinates": [139.271495, 36.655227]}, "properties": {"category": "godzilla", "location_type": "filming", "film_title": "ゴジラ・エビラ・モスラ 南海の大決闘", "film_title_en": "Ebirah,Horror of the Deep", "year": 1966.0, "location_name": "Japan", "prefecture": "群馬県"}}, {"type": "Feature", "geometry": {"type": "Point", "coordinates": [139.271495, 36.655227]}, "properties": {"category": "godzilla", "location_type": "filming", "film_title": "怪獣島の決戦 ゴジラの息子", "film_title_en": "SON OF GODZILLA", "year": 1967.0, "location_name": "Japan", "prefecture": "群馬県"}}, {"type": "Feature", "geometry": {"type": "Point", "coordinates": [139.271495, 36.655227]}, "properties": {"category": "godzilla", "location_type": "filming", "film_title": "ゴジラ・ミニラ・ガバラ オール怪獣大進撃", "film_title_en": "ALL MONSTERS ATTACK", "year": 1969.0, "location_name": "Japan", "prefecture": "群馬県"}}, {"type": "Feature", "geometry": {"type": "Point", "coordinates": [139.271495, 36.655227]}, "properties": {"category": "godzilla", "location_type": "filming", "film_title": "地球攻撃命令 ゴジラ対ガイガン", "film_title_en": "Godzilla vs.Gigan", "year": 1972.0, "location_name": "Japan", "prefecture": "群馬県"}}, {"type": "Feature", "geometry": {"type": "Point", "coordinates": [139.271495, 36.655227]}, "properties": {"category": "godzilla", "location_type": "filming", "film_title": "メカゴジラの逆襲", "film_title_en": "GODZILLA RAIDS AGAIN", "year": 1955.0, "location_name": "Japan", "prefecture": "群馬県"}}, {"type": "Feature", "geometry": {"type": "Point", "coordinates": [136.899086, 35.185492]}, "properties": {"category": "godzilla", "location_type": "filming", "film_title": "ゴジラ", "film_title_en": "Godzilla vs. Mothra", "year": 1992.0, "location_name": "Nagoya", "prefecture": "愛知県"}}, {"type": "Feature", "geometry": {"type": "Point", "coordinates": [139.271495, 36.655227]}, "properties": {"category": "godzilla", "location_type": "filming", "film_title": "ゴジラ", "film_title_en": "Godzilla vs. Mothra", "year": 1992.0, "location_name": "Japan", "prefecture": "群馬県"}}, {"type": "Feature", "geometry": {"type": "Point", "coordinates": [139.271495, 36.655227]}, "properties": {"category": "godzilla", "location_type": "filming", "film_title": "ゴジラ (1984)", "film_title_en": "Godzilla 1984", "year": 1984.0, "location_name": "Japan", "prefecture": "群馬県"}}, {"type": "Feature", "geometry": {"type": "Point", "coordinates": [139.271495, 36.655227]}, "properties": {"category": "godzilla", "location_type": "filming", "film_title": "ゴジラ", "film_title_en": "Godzilla vs. Mechagodzilla II", "year": 1993.0, "location_name": "Japan", "prefecture": "群馬県"}}, {"type": "Feature", "geometry": {"type": "Point", "coordinates": [139.271495, 36.655227]}, "properties": {"category": "godzilla", "location_type": "filming", "film_title": "ゴジラ×メガギラス Ｇ消滅作戦", "film_title_en": "Godzilla vs. Megaguirus", "year": 2000.0, "location_name": "Japan", "prefecture": "群馬県"}}, {"type": "Feature", "geometry": {"type": "Point", "coordinates": [139.271495, 36.655227]}, "properties": {"category": "godzilla", "location_type": "filming", "film_title": "ゴジラ対ヘドラ", "film_title_en": "GODZILLA VS HEDORAH", "year": 1971.0, "location_name": "Japan", "prefecture": "群馬県"}}, {"type": "Feature", "geometry": {"type": "Point", "coordinates": [139.271495, 36.655227]}, "properties": {"category": "godzilla", "location_type": "filming", "film_title": "モスラ対ゴジラ", "film_title_en": "MOTHRA VS. GODZILLA", "year": 1964.0, "location_name": "Japan", "prefecture": "群馬県"}}, {"type": "Feature", "geometry": {"type": "Point", "coordinates": [139.291234, 34.472635]}, "properties": {"category": "godzilla", "location_type": "filming", "film_title": "メカゴジラの逆襲", "film_title_en": "GODZILLA RAIDS AGAIN", "year": 1955.0, "location_name": "鵜渡根島<br>（開始5分55秒）", "prefecture": "東京都"}}, {"type": "Feature", "geometry": {"type": "Point", "coordinates": [135.52652, 34.685864]}, "properties": {"category": "godzilla", "location_type": "filming", "film_title": "メカゴジラの逆襲", "film_title_en": "GODZILLA RAIDS AGAIN", "year": 1955.0, "location_name": "大阪市警察本部（旧陸軍第四師団司令部庁舎）<br>大阪城天守閣からパン<br>（開始10分19秒）", "prefecture": "大阪府"}}, {"type": "Feature", "geometry": {"type": "Point", "coordinates": [135.526373, 34.685875]}, "properties": {"category": "godzilla", "location_type": "filming", "film_title": "メカゴジラの逆襲", "film_title_en": "GODZILLA RAIDS AGAIN", "year": 1955.0, "location_name": "大阪市警察本部正面玄関<br>（開始10分21秒）", "prefecture": "大阪府"}}, {"type": "Feature", "geometry": {"type": "Point", "coordinates": [135.495586, 34.701789]}, "properties": {"category": "godzilla", "location_type": "filming", "film_title": "メカゴジラの逆襲", "film_title_en": "GODZILLA RAIDS AGAIN", "year": 1955.0, "location_name": "国鉄大阪駅<br>（開始24分34秒）", "prefecture": "大阪府"}}, {"type": "Feature", "geometry": {"type": "Point", "coordinates": [135.524896, 34.678583]}, "properties": {"category": "godzilla", "location_type": "filming", "film_title": "メカゴジラの逆襲", "film_title_en": "GODZILLA RAIDS AGAIN", "year": 1955.0, "location_name": "法円坂住宅から大阪城を臨む<br>（開始24分37秒）", "prefecture": "大阪府"}}, {"type": "Feature", "geometry": {"type": "Point", "coordinates": [135.500374, 34.664816]}, "properties": {"category": "godzilla", "location_type": "filming", "film_title": "メカゴジラの逆襲", "film_title_en": "GODZILLA RAIDS AGAIN", "year": 1955.0, "location_name": "難波から御堂筋を臨む<br>（開始24分38秒）", "prefecture": "大阪府"}}, {"type": "Feature", "geometry": {"type": "Point", "coordinates": [135.501313, 34.668968]}, "properties": {"category": "godzilla", "location_type": "filming", "film_title": "メカゴジラの逆襲", "film_title_en": "GODZILLA RAIDS AGAIN", "year": 1955.0, "location_name": "道頓堀橋から戎橋方面<br>（開始24分40秒）", "prefecture": "大阪府"}}, {"type": "Feature", "geometry": {"type": "Point", "coordinates": [135.495532, 34.693453]}, "properties": {"category": "godzilla", "location_type": "filming", "film_title": "メカゴジラの逆襲", "film_title_en": "GODZILLA RAIDS AGAIN", "year": 1955.0, "location_name": "朝日新聞大阪本社<br>（開始24分43秒）<br>https://www.google.co.jp/maps/@34.694005,135.495914,3a,75y,221.22h,110.25t/data=!3m7!1e1!3m5!1szM77U1XlDP2aGhye6NNxOg!2e0!6s%2F%2Fgeo3.ggpht.com%2Fcbk%3Fpanoid%3DzM77U1XlDP2aGhye6NNxOg%26output%3Dthumbnail%26cb_client%3Dmaps_sv.tactile.gps%26thumb%3D2%26w%3D203%26h%3D100%26yaw%3D276.1525%26pitch%3D0%26thumbfov%3D100!7i13312!8i6656", "prefecture": "大阪府"}}, {"type": "Feature", "geometry": {"type": "Point", "coordinates": [135.491241, 34.69378]}, "properties": {"category": "godzilla", "location_type": "filming", "film_title": "メカゴジラの逆襲", "film_title_en": "GODZILLA RAIDS AGAIN", "year": 1955.0, "location_name": "渡辺橋から西方向を望む<br>（開始24分43秒）", "prefecture": "大阪府"}}, {"type": "Feature", "geometry": {"type": "Point", "coordinates": [135.494063, 34.693802]}, "properties": {"category": "godzilla", "location_type": "filming", "film_title": "メカゴジラの逆襲", "film_title_en": "GODZILLA RAIDS AGAIN", "year": 1955.0, "location_name": "大阪中央電信局を望む<br>（開始24分53秒）", "prefecture": "大阪府"}}, {"type": "Feature", "geometry": {"type": "Point", "coordinates": [135.427426, 34.651674]}, "properties": {"category": "godzilla", "location_type": "filming", "film_title": "メカゴジラの逆襲", "film_title_en": "GODZILLA RAIDS AGAIN", "year": 1955.0, "location_name": "大阪港中央突堤<br>（開始25分08秒／35分39秒／37分05秒／38分28秒）", "prefecture": "大阪府"}}, {"type": "Feature", "geometry": {"type": "Point", "coordinates": [135.429097, 34.652611]}, "properties": {"category": "godzilla", "location_type": "filming", "film_title": "メカゴジラの逆襲", "film_title_en": "GODZILLA RAIDS AGAIN", "year": 1955.0, "location_name": "現大阪水上警察署<br>（開始25分19秒）", "prefecture": "大阪府"}}, {"type": "Feature", "geometry": {"type": "Point", "coordinates": [135.500017, 34.693758]}, "properties": {"category": "godzilla", "location_type": "filming", "film_title": "メカゴジラの逆襲", "film_title_en": "GODZILLA RAIDS AGAIN", "year": 1955.0, "location_name": "日本銀行大阪支店旧館<br>（開始41分41秒）<br>https://www.google.co.jp/maps/@34.6925265,135.4991073,3a,15y,56h,92.8t/data=!3m7!1e1!3m5!1s-GzgYlpVl5dm-60snkJ4qg!2e0!6s%2F%2Fgeo1.ggpht.com%2Fcbk%3Fpanoid%3D-GzgYlpVl5dm-60snkJ4qg%26output%3Dthumbnail%26cb_client%3Dmaps_sv.tactile.gps%26thumb%3D2%26w%3D203%26h%3D100%26yaw%3D288.5011%26pitch%3D0%26thumbfov%3D100!7i13312!8i6656", "prefecture": "大阪府"}}, {"type": "Feature", "geometry": {"type": "Point", "coordinates": [135.502981, 34.694298]}, "properties": {"category": "godzilla", "location_type": "filming", "film_title": "メカゴジラの逆襲", "film_title_en": "GODZILLA RAIDS AGAIN", "year": 1955.0, "location_name": "水晶橋<br>（開始41分49秒）", "prefecture": "大阪府"}}, {"type": "Feature", "geometry": {"type": "Point", "coordinates": [135.501128, 34.692827]}, "properties": {"category": "godzilla", "location_type": "filming", "film_title": "メカゴジラの逆襲", "film_title_en": "GODZILLA RAIDS AGAIN", "year": 1955.0, "location_name": "淀屋橋<br>（開始42分15秒）", "prefecture": "大阪府"}}, {"type": "Feature", "geometry": {"type": "Point", "coordinates": [135.501023, 34.692258]}, "properties": {"category": "godzilla", "location_type": "filming", "film_title": "メカゴジラの逆襲", "film_title_en": "GODZILLA RAIDS AGAIN", "year": 1955.0, "location_name": "地下鉄淀屋橋駅市役所側階段<br>（開始42分44秒）", "prefecture": "大阪府"}}, {"type": "Feature", "geometry": {"type": "Point", "coordinates": [135.501149, 34.692694]}, "properties": {"category": "godzilla", "location_type": "filming", "film_title": "メカゴジラの逆襲", "film_title_en": "GODZILLA RAIDS AGAIN", "year": 1955.0, "location_name": "地下鉄淀屋橋駅入り口<br>（開始42分30秒-32秒）", "prefecture": "大阪府"}}, {"type": "Feature", "geometry": {"type": "Point", "coordinates": [135.501021, 34.692403]}, "properties": {"category": "godzilla", "location_type": "filming", "film_title": "メカゴジラの逆襲", "film_title_en": "GODZILLA RAIDS AGAIN", "year": 1955.0, "location_name": "地下鉄淀屋橋駅市役所側改札<br>（開始42分40秒）", "prefecture": "大阪府"}}, {"type": "Feature", "geometry": {"type": "Point", "coordinates": [135.500606, 34.692465]}, "properties": {"category": "godzilla", "location_type": "filming", "film_title": "メカゴジラの逆襲", "film_title_en": "GODZILLA RAIDS AGAIN", "year": 1955.0, "location_name": "石原ビルディング（淀屋橋中央ビルディング）・白洋舎ビル<br>（開始43分00秒）", "prefecture": "大阪府"}}, {"type": "Feature", "geometry": {"type": "Point", "coordinates": [135.501002, 34.692055]}, "properties": {"category": "godzilla", "location_type": "filming", "film_title": "メカゴジラの逆襲", "film_title_en": "GODZILLA RAIDS AGAIN", "year": 1955.0, "location_name": "地下鉄淀屋橋駅ホーム<br>（開始43分17秒）", "prefecture": "大阪府"}}, {"type": "Feature", "geometry": {"type": "Point", "coordinates": [135.522902, 34.685214]}, "properties": {"category": "godzilla", "location_type": "filming", "film_title": "メカゴジラの逆襲", "film_title_en": "GODZILLA RAIDS AGAIN", "year": 1955.0, "location_name": "大手門前<br>（開始43分34秒）", "prefecture": "大阪府"}}, {"type": "Feature", "geometry": {"type": "Point", "coordinates": [135.526314, 34.685609]}, "properties": {"category": "godzilla", "location_type": "filming", "film_title": "メカゴジラの逆襲", "film_title_en": "GODZILLA RAIDS AGAIN", "year": 1955.0, "location_name": "旧陸軍第四師団司令部庁舎<br>（開始43分43秒）", "prefecture": "大阪府"}}, {"type": "Feature", "geometry": {"type": "Point", "coordinates": [135.526145, 34.685643]}, "properties": {"category": "godzilla", "location_type": "filming", "film_title": "メカゴジラの逆襲", "film_title_en": "GODZILLA RAIDS AGAIN", "year": 1955.0, "location_name": "旧陸軍第四師団司令部庁舎前<br>（開始43分54秒）", "prefecture": "大阪府"}}, {"type": "Feature", "geometry": {"type": "Point", "coordinates": [135.525682, 34.685066]}, "properties": {"category": "godzilla", "location_type": "filming", "film_title": "メカゴジラの逆襲", "film_title_en": "GODZILLA RAIDS AGAIN", "year": 1955.0, "location_name": "桜門<br>（開始43分57秒）", "prefecture": "大阪府"}}, {"type": "Feature", "geometry": {"type": "Point", "coordinates": [135.526121, 34.686599]}, "properties": {"category": "godzilla", "location_type": "filming", "film_title": "メカゴジラの逆襲", "film_title_en": "GODZILLA RAIDS AGAIN", "year": 1955.0, "location_name": "天守閣前<br>（開始44分02秒）", "prefecture": "大阪府"}}, {"type": "Feature", "geometry": {"type": "Point", "coordinates": [135.522124, 34.684609]}, "properties": {"category": "godzilla", "location_type": "filming", "film_title": "メカゴジラの逆襲", "film_title_en": "GODZILLA RAIDS AGAIN", "year": 1955.0, "location_name": "大手前広場<br>（開始44分27秒）", "prefecture": "大阪府"}}, {"type": "Feature", "geometry": {"type": "Point", "coordinates": [135.524383, 34.687419]}, "properties": {"category": "godzilla", "location_type": "filming", "film_title": "メカゴジラの逆襲", "film_title_en": "GODZILLA RAIDS AGAIN", "year": 1955.0, "location_name": "西の丸公園内濠沿いから望む<br>（開始45分26秒）", "prefecture": "大阪府"}}, {"type": "Feature", "geometry": {"type": "Point", "coordinates": [135.52449, 34.688354]}, "properties": {"category": "godzilla", "location_type": "filming", "film_title": "メカゴジラの逆襲", "film_title_en": "GODZILLA RAIDS AGAIN", "year": 1955.0, "location_name": "天守閣の北西側<br>（開始44分49秒）", "prefecture": "大阪府"}}, {"type": "Feature", "geometry": {"type": "Point", "coordinates": [135.525874, 34.689369]}, "properties": {"category": "godzilla", "location_type": "filming", "film_title": "メカゴジラの逆襲", "film_title_en": "GODZILLA RAIDS AGAIN", "year": 1955.0, "location_name": "天守閣北側<br>（開始45分28秒）", "prefecture": "大阪府"}}, {"type": "Feature", "geometry": {"type": "Point", "coordinates": [135.525852, 34.68741]}, "properties": {"category": "godzilla", "location_type": "filming", "film_title": "メカゴジラの逆襲", "film_title_en": "GODZILLA RAIDS AGAIN", "year": 1955.0, "location_name": "大阪城天守閣<br>（開始10分12秒）", "prefecture": "大阪府"}}, {"type": "Feature", "geometry": {"type": "Point", "coordinates": [135.500592, 34.669054]}, "properties": {"category": "godzilla", "location_type": "filming", "film_title": "メカゴジラの逆襲", "film_title_en": "GODZILLA RAIDS AGAIN", "year": 1955.0, "location_name": "道頓堀戎橋周辺を望む。<br>（開始22分16秒）", "prefecture": "大阪府"}}, {"type": "Feature", "geometry": {"type": "Point", "coordinates": [135.501388, 34.668679]}, "properties": {"category": "godzilla", "location_type": "filming", "film_title": "メカゴジラの逆襲", "film_title_en": "GODZILLA RAIDS AGAIN", "year": 1955.0, "location_name": "現TSUTAYA戎橋店<br>（開始22分19秒）", "prefecture": "大阪府"}}, {"type": "Feature", "geometry": {"type": "Point", "coordinates": [135.501101, 34.668692]}, "properties": {"category": "godzilla", "location_type": "filming", "film_title": "メカゴジラの逆襲", "film_title_en": "GODZILLA RAIDS AGAIN", "year": 1955.0, "location_name": "戎橋付近<br>（開始22分27秒）", "prefecture": "大阪府"}}, {"type": "Feature", "geometry": {"type": "Point", "coordinates": [135.492175, 34.694759]}, "properties": {"category": "godzilla", "location_type": "filming", "film_title": "メカゴジラの逆襲", "film_title_en": "GODZILLA RAIDS AGAIN", "year": 1955.0, "location_name": "現NTTテレパーク堂島第2ビル<br>（開始41分13秒）", "prefecture": "大阪府"}}, {"type": "Feature", "geometry": {"type": "Point", "coordinates": [135.525032, 34.685472]}, "properties": {"category": "godzilla", "location_type": "filming", "film_title": "メカゴジラの逆襲", "film_title_en": "GODZILLA RAIDS AGAIN", "year": 1955.0, "location_name": "（開始44分25秒）", "prefecture": "大阪府"}}, {"type": "Feature", "geometry": {"type": "Point", "coordinates": [135.522408, 34.684115]}, "properties": {"category": "godzilla", "location_type": "filming", "film_title": "メカゴジラの逆襲", "film_title_en": "GODZILLA RAIDS AGAIN", "year": 1955.0, "location_name": "大手前広場から大手門方向を望む<br>（開始44分31秒）", "prefecture": "大阪府"}}, {"type": "Feature", "geometry": {"type": "Point", "coordinates": [135.524379, 34.685057]}, "properties": {"category": "godzilla", "location_type": "filming", "film_title": "メカゴジラの逆襲", "film_title_en": "GODZILLA RAIDS AGAIN", "year": 1955.0, "location_name": "桜門内側<br>（開始44分51秒）", "prefecture": "大阪府"}}, {"type": "Feature", "geometry": {"type": "Point", "coordinates": [140.607247, 35.960154]}, "properties": {"category": "godzilla", "location_type": "filming", "film_title": "モスラ対ゴジラ", "film_title_en": "MOTHRA VS. GODZILLA", "year": 1964.0, "location_name": "旧神宮橋（現存せず）", "prefecture": "茨城県"}}, {"type": "Feature", "geometry": {"type": "Point", "coordinates": [136.90642, 35.181438]}, "properties": {"category": "godzilla", "location_type": "filming", "film_title": "モスラ対ゴジラ", "film_title_en": "MOTHRA VS. GODZILLA", "year": 1964.0, "location_name": "名古屋市役所 (Nagoya city hall)", "prefecture": "愛知県"}}, {"type": "Feature", "geometry": {"type": "Point", "coordinates": [136.899844, 35.185105]}, "properties": {"category": "godzilla", "location_type": "filming", "film_title": "モスラ対ゴジラ", "film_title_en": "MOTHRA VS. GODZILLA", "year": 1964.0, "location_name": "愛知県庁", "prefecture": "愛知県"}}, {"type": "Feature", "geometry": {"type": "Point", "coordinates": [136.897566, 35.18313]}, "properties": {"category": "godzilla", "location_type": "filming", "film_title": "モスラ対ゴジラ", "film_title_en": "MOTHRA VS. GODZILLA", "year": 1964.0, "location_name": "名古屋城本丸前", "prefecture": "愛知県"}}, {"type": "Feature", "geometry": {"type": "Point", "coordinates": [136.898639, 35.183928]}, "properties": {"category": "godzilla", "location_type": "filming", "film_title": "モスラ対ゴジラ", "film_title_en": "MOTHRA VS. GODZILLA", "year": 1964.0, "location_name": "名古屋城構内", "prefecture": "愛知県"}}, {"type": "Feature", "geometry": {"type": "Point", "coordinates": [136.897561, 35.183566]}, "properties": {"category": "godzilla", "location_type": "filming", "film_title": "モスラ対ゴジラ", "film_title_en": "MOTHRA VS. GODZILLA", "year": 1964.0, "location_name": "名古屋城正門前", "prefecture": "愛知県"}}, {"type": "Feature", "geometry": {"type": "Point", "coordinates": [136.908331, 35.172343]}, "properties": {"category": "godzilla", "location_type": "filming", "film_title": "モスラ対ゴジラ", "film_title_en": "MOTHRA VS. GODZILLA", "year": 1964.0, "location_name": "名古屋テレビ塔周辺", "prefecture": "愛知県"}}, {"type": "Feature", "geometry": {"type": "Point", "coordinates": [136.908427, 35.172337]}, "properties": {"category": "godzilla", "location_type": "filming", "film_title": "モスラ対ゴジラ", "film_title_en": "MOTHRA VS. GODZILLA", "year": 1964.0, "location_name": "名古屋テレビ塔下", "prefecture": "愛知県"}}, {"type": "Feature", "geometry": {"type": "Point", "coordinates": [136.904242, 35.177886]}, "properties": {"category": "godzilla", "location_type": "filming", "film_title": "モスラ対ゴジラ", "film_title_en": "MOTHRA VS. GODZILLA", "year": 1964.0, "location_name": "名古屋市役所から名古屋城へパン<br>（名城小学校のビル屋上からの撮影と思われる）", "prefecture": "愛知県"}}, {"type": "Feature", "geometry": {"type": "Point", "coordinates": [136.637607, 34.967297]}, "properties": {"category": "godzilla", "location_type": "filming", "film_title": "モスラ対ゴジラ", "film_title_en": "MOTHRA VS. GODZILLA", "year": 1964.0, "location_name": "コスモ石油四日市製油所", "prefecture": "三重県"}}, {"type": "Feature", "geometry": {"type": "Point", "coordinates": [136.899079, 35.185559]}, "properties": {"category": "godzilla", "location_type": "filming", "film_title": "モスラ対ゴジラ", "film_title_en": "MOTHRA VS. GODZILLA", "year": 1964.0, "location_name": "名古屋城天守閣周辺", "prefecture": "愛知県"}}, {"type": "Feature", "geometry": {"type": "Point", "coordinates": [138.884233, 35.051739]}, "properties": {"category": "godzilla", "location_type": "filming", "film_title": "モスラ対ゴジラ", "film_title_en": "MOTHRA VS. GODZILLA", "year": 1964.0, "location_name": "獅子浜", "prefecture": "静岡県"}}, {"type": "Feature", "geometry": {"type": "Point", "coordinates": [138.882878, 35.056186]}, "properties": {"category": "godzilla", "location_type": "filming", "film_title": "モスラ対ゴジラ", "film_title_en": "MOTHRA VS. GODZILLA", "year": 1964.0, "location_name": "静浦港", "prefecture": "静岡県"}}, {"type": "Feature", "geometry": {"type": "Point", "coordinates": [138.922203, 34.655083]}, "properties": {"category": "godzilla", "location_type": "filming", "film_title": "モスラ対ゴジラ", "film_title_en": "MOTHRA VS. GODZILLA", "year": 1964.0, "location_name": "舞磯浜", "prefecture": "静岡県"}}, {"type": "Feature", "geometry": {"type": "Point", "coordinates": [138.766889, 34.969266]}, "properties": {"category": "godzilla", "location_type": "filming", "film_title": "モスラ対ゴジラ", "film_title_en": "MOTHRA VS. GODZILLA", "year": 1964.0, "location_name": "https://www.google.co.jp/maps/@34.9692865,138.7666437,3a,28y,65.64h,91.36t/data=!3m6!1e1!3m4!1s9DRPXMrcEMhvM1MdhjenLw!2e0!7i16384!8i8192?hl=ja", "prefecture": "静岡県"}}, {"type": "Feature", "geometry": {"type": "Point", "coordinates": [139.692712, 35.285254]}, "properties": {"category": "godzilla", "location_type": "filming", "film_title": "ゴジラ・エビラ・モスラ 南海の大決闘", "film_title_en": "Ebirah,Horror of the Deep", "year": 1966.0, "location_name": "猿島船着き場", "prefecture": "Ocean"}}, {"type": "Feature", "geometry": {"type": "Point", "coordinates": [139.604275, 35.63468]}, "properties": {"category": "godzilla", "location_type": "filming", "film_title": "ゴジラ・エビラ・モスラ 南海の大決闘", "film_title_en": "Ebirah,Horror of the Deep", "year": 1966.0, "location_name": "東宝スタジオ旧社屋", "prefecture": "東京都"}}, {"type": "Feature", "geometry": {"type": "Point", "coordinates": [139.752574, 35.677091]}, "properties": {"category": "godzilla", "location_type": "filming", "film_title": "ゴジラ・エビラ・モスラ 南海の大決闘", "film_title_en": "Ebirah,Horror of the Deep", "year": 1966.0, "location_name": "警視庁本部旧庁舎", "prefecture": "東京都"}}, {"type": "Feature", "geometry": {"type": "Point", "coordinates": [139.482937, 35.30574]}, "properties": {"category": "godzilla", "location_type": "filming", "film_title": "ゴジラ・エビラ・モスラ 南海の大決闘", "film_title_en": "Ebirah,Horror of the Deep", "year": 1966.0, "location_name": "江ノ島", "prefecture": "神奈川県"}}, {"type": "Feature", "geometry": {"type": "Point", "coordinates": [139.792481, 35.677172]}, "properties": {"category": "godzilla", "location_type": "filming", "film_title": "メカゴジラの逆襲", "film_title_en": "GODZILLA RAIDS AGAIN", "year": 1955.0, "location_name": "緑橋", "prefecture": "東京都"}}, {"type": "Feature", "geometry": {"type": "Point", "coordinates": [139.720436, 35.513898]}, "properties": {"category": "godzilla", "location_type": "filming", "film_title": "ゴジラ・ミニラ・ガバラ オール怪獣大進撃", "film_title_en": "ALL MONSTERS ATTACK", "year": 1969.0, "location_name": "浜町歩道橋", "prefecture": "神奈川県"}}, {"type": "Feature", "geometry": {"type": "Point", "coordinates": [139.719306, 35.516933]}, "properties": {"category": "godzilla", "location_type": "filming", "film_title": "ゴジラ・ミニラ・ガバラ オール怪獣大進撃", "film_title_en": "ALL MONSTERS ATTACK", "year": 1969.0, "location_name": "県道101号線", "prefecture": "神奈川県"}}, {"type": "Feature", "geometry": {"type": "Point", "coordinates": [139.749248, 35.52945]}, "properties": {"category": "godzilla", "location_type": "filming", "film_title": "ゴジラ・ミニラ・ガバラ オール怪獣大進撃", "film_title_en": "ALL MONSTERS ATTACK", "year": 1969.0, "location_name": "ＪＲ貨物川崎車輌所周辺", "prefecture": "神奈川県"}}, {"type": "Feature", "geometry": {"type": "Point", "coordinates": [139.747242, 35.526589]}, "properties": {"category": "godzilla", "location_type": "filming", "film_title": "ゴジラ・ミニラ・ガバラ オール怪獣大進撃", "film_title_en": "ALL MONSTERS ATTACK", "year": 1969.0, "location_name": "神奈川臨海鉄道", "prefecture": "神奈川県"}}, {"type": "Feature", "geometry": {"type": "Point", "coordinates": [139.763552, 35.534282]}, "properties": {"category": "godzilla", "location_type": "filming", "film_title": "ゴジラ対へドラ", "film_title_en": "Godzilla vs. Hedorah", "year": 1971.0, "location_name": "https://www.google.co.jp/maps/@35.53445,139.7636917,3a,38.9y,112.82h,85.83t/data=!3m7!1e1!3m5!1sRiHX3p8l0iAavtxMrhYXFA!2e0!6s%2F%2Fgeo0.ggpht.com%2Fcbk%3Fpanoid%3DRiHX3p8l0iAavtxMrhYXFA%26output%3Dthumbnail%26cb_client%3Dmaps_sv.tactile.gps%26thumb%3D2%26w%3D203%26h%3D100%26yaw%3D254.44281%26pitch%3D0%26thumbfov%3D100!7i13312!8i6656?hl=ja", "prefecture": "神奈川県"}}, {"type": "Feature", "geometry": {"type": "Point", "coordinates": [139.763142, 35.53399]}, "properties": {"category": "godzilla", "location_type": "filming", "film_title": "ゴジラ対へドラ", "film_title_en": "Godzilla vs. Hedorah", "year": 1971.0, "location_name": "多摩運河<br>https://www.google.co.jp/maps/@35.53445,139.7636917,3a,75y,165.74h,80.3t/data=!3m7!1e1!3m5!1sRiHX3p8l0iAavtxMrhYXFA!2e0!6s%2F%2Fgeo0.ggpht.com%2Fcbk%3Fpanoid%3DRiHX3p8l0iAavtxMrhYXFA%26output%3Dthumbnail%26cb_client%3Dmaps_sv.tactile.gps%26thumb%3D2%26w%3D203%26h%3D100%26yaw%3D341.55344%26pitch%3D0%26thumbfov%3D100!7i13312!8i6656?hl=ja", "prefecture": "神奈川県"}}, {"type": "Feature", "geometry": {"type": "Point", "coordinates": [139.60512, 35.635046]}, "properties": {"category": "godzilla", "location_type": "filming", "film_title": "ゴジラ対へドラ", "film_title_en": "Godzilla vs. Hedorah", "year": 1971.0, "location_name": "東宝撮影所変電所前", "prefecture": "東京都"}}, {"type": "Feature", "geometry": {"type": "Point", "coordinates": [139.761651, 35.672672]}, "properties": {"category": "godzilla", "location_type": "filming", "film_title": "地球攻撃命令 ゴジラ対ガイガン", "film_title_en": "Godzilla vs.Gigan", "year": 1972.0, "location_name": "東京高速道路ニユー・トーキヨー本店付近", "prefecture": "東京都"}}, {"type": "Feature", "geometry": {"type": "Point", "coordinates": [139.745433, 35.65858]}, "properties": {"category": "godzilla", "location_type": "filming", "film_title": "地球攻撃命令 ゴジラ対ガイガン", "film_title_en": "Godzilla vs.Gigan", "year": 1972.0, "location_name": "東京タワー", "prefecture": "東京都"}}, {"type": "Feature", "geometry": {"type": "Point", "coordinates": [139.615211, 35.643718]}, "properties": {"category": "godzilla", "location_type": "filming", "film_title": "地球攻撃命令 ゴジラ対ガイガン", "film_title_en": "Godzilla vs.Gigan", "year": 1972.0, "location_name": "富士見公園", "prefecture": "東京都"}}, {"type": "Feature", "geometry": {"type": "Point", "coordinates": [139.75659, 35.691115]}, "properties": {"category": "godzilla", "location_type": "filming", "film_title": "地球攻撃命令 ゴジラ対ガイガン", "film_title_en": "Godzilla vs.Gigan", "year": 1972.0, "location_name": "毎日新聞社", "prefecture": "東京都"}}, {"type": "Feature", "geometry": {"type": "Point", "coordinates": [139.762856, 35.680021]}, "properties": {"category": "godzilla", "location_type": "filming", "film_title": "地球攻撃命令 ゴジラ対ガイガン", "film_title_en": "Godzilla vs.Gigan", "year": 1972.0, "location_name": "仲通り", "prefecture": "東京都"}}, {"type": "Feature", "geometry": {"type": "Point", "coordinates": [139.762976, 35.672746]}, "properties": {"category": "godzilla", "location_type": "filming", "film_title": "ゴジラ (1984)", "film_title_en": "Godzilla 1984", "year": 1984.0, "location_name": "数寄屋橋交差点", "prefecture": "東京都"}}, {"type": "Feature", "geometry": {"type": "Point", "coordinates": [139.762273, 35.673435]}, "properties": {"category": "godzilla", "location_type": "filming", "film_title": "ゴジラ (1984)", "film_title_en": "Godzilla 1984", "year": 1984.0, "location_name": "マリオン", "prefecture": "東京都"}}, {"type": "Feature", "geometry": {"type": "Point", "coordinates": [139.761538, 35.673627]}, "properties": {"category": "godzilla", "location_type": "filming", "film_title": "ゴジラ (1984)", "film_title_en": "Godzilla 1984", "year": 1984.0, "location_name": "有楽町駅付近高架", "prefecture": "東京都"}}, {"type": "Feature", "geometry": {"type": "Point", "coordinates": [139.748572, 35.647018]}, "properties": {"category": "godzilla", "location_type": "filming", "film_title": "ゴジラ (1984)", "film_title_en": "Godzilla 1984", "year": 1984.0, "location_name": "第一田町ビル", "prefecture": "東京都"}}, {"type": "Feature", "geometry": {"type": "Point", "coordinates": [139.759538, 35.666214]}, "properties": {"category": "godzilla", "location_type": "filming", "film_title": "ゴジラ (1984)", "film_title_en": "Godzilla 1984", "year": 1984.0, "location_name": "新橋駅前ビル１号館", "prefecture": "東京都"}}, {"type": "Feature", "geometry": {"type": "Point", "coordinates": [139.701121, 35.69248]}, "properties": {"category": "godzilla", "location_type": "filming", "film_title": "ゴジラ (1984)", "film_title_en": "Godzilla 1984", "year": 1984.0, "location_name": "スタジオアルタ前", "prefecture": "東京都"}}, {"type": "Feature", "geometry": {"type": "Point", "coordinates": [139.702044, 35.692154]}, "properties": {"category": "godzilla", "location_type": "filming", "film_title": "ゴジラ (1984)", "film_title_en": "Godzilla 1984", "year": 1984.0, "location_name": "新宿通り", "prefecture": "東京都"}}, {"type": "Feature", "geometry": {"type": "Point", "coordinates": [139.701692, 35.693574]}, "properties": {"category": "godzilla", "location_type": "filming", "film_title": "ゴジラ (1984)", "film_title_en": "Godzilla 1984", "year": 1984.0, "location_name": "歌舞伎町交差点付近", "prefecture": "東京都"}}, {"type": "Feature", "geometry": {"type": "Point", "coordinates": [139.698855, 35.69133]}, "properties": {"category": "godzilla", "location_type": "filming", "film_title": "ゴジラ (1984)", "film_title_en": "Godzilla 1984", "year": 1984.0, "location_name": "新宿駅西口", "prefecture": "東京都"}}, {"type": "Feature", "geometry": {"type": "Point", "coordinates": [139.690374, 35.687884]}, "properties": {"category": "godzilla", "location_type": "filming", "film_title": "ゴジラ (1984)", "film_title_en": "Godzilla 1984", "year": 1984.0, "location_name": "新宿中央公園・公園小橋", "prefecture": "東京都"}}, {"type": "Feature", "geometry": {"type": "Point", "coordinates": [139.692589, 35.687226]}, "properties": {"category": "godzilla", "location_type": "filming", "film_title": "ゴジラ (1984)", "film_title_en": "Godzilla 1984", "year": 1984.0, "location_name": "新宿ワシントンホテル本館前", "prefecture": "東京都"}}, {"type": "Feature", "geometry": {"type": "Point", "coordinates": [139.689773, 35.689978]}, "properties": {"category": "godzilla", "location_type": "filming", "film_title": "ゴジラ (1984)", "film_title_en": "Godzilla 1984", "year": 1984.0, "location_name": "新宿中央公園", "prefecture": "東京都"}}, {"type": "Feature", "geometry": {"type": "Point", "coordinates": [139.691409, 35.688655]}, "properties": {"category": "godzilla", "location_type": "filming", "film_title": "ゴジラ (1984)", "film_title_en": "Godzilla 1984", "year": 1984.0, "location_name": "新宿中央公園南付近", "prefecture": "東京都"}}, {"type": "Feature", "geometry": {"type": "Point", "coordinates": [139.691768, 35.689649]}, "properties": {"category": "godzilla", "location_type": "filming", "film_title": "ゴジラ (1984)", "film_title_en": "Godzilla 1984", "year": 1984.0, "location_name": "都庁予定地", "prefecture": "東京都"}}, {"type": "Feature", "geometry": {"type": "Point", "coordinates": [139.691138, 35.690668]}, "properties": {"category": "godzilla", "location_type": "filming", "film_title": "ゴジラ (1984)", "film_title_en": "Godzilla 1984", "year": 1984.0, "location_name": "ホテルセンチュリーハイアット（現 ハイアットリージェンシー東京）付近", "prefecture": "東京都"}}, {"type": "Feature", "geometry": {"type": "Point", "coordinates": [139.692605, 35.691278]}, "properties": {"category": "godzilla", "location_type": "filming", "film_title": "ゴジラ (1984)", "film_title_en": "Godzilla 1984", "year": 1984.0, "location_name": "新宿住友ビルディング", "prefecture": "東京都"}}, {"type": "Feature", "geometry": {"type": "Point", "coordinates": [139.694021, 35.690193]}, "properties": {"category": "godzilla", "location_type": "filming", "film_title": "ゴジラ (1984)", "film_title_en": "Godzilla 1984", "year": 1984.0, "location_name": "京王プラザホテル", "prefecture": "東京都"}}, {"type": "Feature", "geometry": {"type": "Point", "coordinates": [139.693705, 35.689988]}, "properties": {"category": "godzilla", "location_type": "filming", "film_title": "ゴジラ (1984)", "film_title_en": "Godzilla 1984", "year": 1984.0, "location_name": "京王プラザホテル前。", "prefecture": "東京都"}}, {"type": "Feature", "geometry": {"type": "Point", "coordinates": [139.694252, 35.690851]}, "properties": {"category": "godzilla", "location_type": "filming", "film_title": "ゴジラ (1984)", "film_title_en": "Godzilla 1984", "year": 1984.0, "location_name": "新宿三井ビルディング前", "prefecture": "東京都"}}, {"type": "Feature", "geometry": {"type": "Point", "coordinates": [139.618584, 35.465601]}, "properties": {"category": "godzilla", "location_type": "filming", "film_title": "ゴジラ", "film_title_en": "Godzilla vs. Mothra", "year": 1992.0, "location_name": "内海橋付近", "prefecture": "神奈川県"}}, {"type": "Feature", "geometry": {"type": "Point", "coordinates": [139.61848, 35.461867]}, "properties": {"category": "godzilla", "location_type": "filming", "film_title": "ゴジラ", "film_title_en": "Godzilla vs. Mothra", "year": 1992.0, "location_name": "平沼橋", "prefecture": "神奈川県"}}, {"type": "Feature", "geometry": {"type": "Point", "coordinates": [139.736272, 35.678991]}, "properties": {"category": "godzilla", "location_type": "filming", "film_title": "ゴジラ", "film_title_en": "Godzilla vs. Mothra", "year": 1992.0, "location_name": "弁慶橋", "prefecture": "東京都"}}, {"type": "Feature", "geometry": {"type": "Point", "coordinates": [139.631515, 35.453596]}, "properties": {"category": "godzilla", "location_type": "filming", "film_title": "ゴジラ", "film_title_en": "Godzilla vs. Mothra", "year": 1992.0, "location_name": "動く歩道", "prefecture": "神奈川県"}}, {"type": "Feature", "geometry": {"type": "Point", "coordinates": [139.631467, 35.454622]}, "properties": {"category": "godzilla", "location_type": "filming", "film_title": "ゴジラ", "film_title_en": "Godzilla vs. Mothra", "year": 1992.0, "location_name": "横浜ランドマークタワー", "prefecture": "神奈川県"}}, {"type": "Feature", "geometry": {"type": "Point", "coordinates": [139.756748, 35.656067]}, "properties": {"category": "godzilla", "location_type": "filming", "film_title": "ゴジラ", "film_title_en": "Godzilla vs. Mothra", "year": 1992.0, "location_name": "世界貿易センタービルディング、シーサイドトップから東側を望む。", "prefecture": "東京都"}}, {"type": "Feature", "geometry": {"type": "Point", "coordinates": [136.908329, 35.172342]}, "properties": {"category": "godzilla", "location_type": "filming", "film_title": "ゴジラ", "film_title_en": "Godzilla vs. Mothra", "year": 1992.0, "location_name": "名古屋テレビ塔", "prefecture": "愛知県"}}, {"type": "Feature", "geometry": {"type": "Point", "coordinates": [136.899545, 35.185531]}, "properties": {"category": "godzilla", "location_type": "filming", "film_title": "ゴジラ", "film_title_en": "Godzilla vs. Mothra", "year": 1992.0, "location_name": "名古屋城 (Nagoya Castle)", "prefecture": "愛知県"}}, {"type": "Feature", "geometry": {"type": "Point", "coordinates": [136.897566, 35.183437]}, "properties": {"category": "godzilla", "location_type": "filming", "film_title": "ゴジラ", "film_title_en": "Godzilla vs. Mothra", "year": 1992.0, "location_name": "名古屋城大手門", "prefecture": "愛知県"}}, {"type": "Feature", "geometry": {"type": "Point", "coordinates": [136.908869, 35.170283]}, "properties": {"category": "godzilla", "location_type": "filming", "film_title": "ゴジラ", "film_title_en": "Godzilla vs. Mothra", "year": 1992.0, "location_name": "錦通久屋交差点付近", "prefecture": "愛知県"}}, {"type": "Feature", "geometry": {"type": "Point", "coordinates": [136.909304, 35.16859]}, "properties": {"category": "godzilla", "location_type": "filming", "film_title": "ゴジラ", "film_title_en": "Godzilla vs. Mothra", "year": 1992.0, "location_name": "名古屋地下鉄栄駅の13番出入口付近", "prefecture": "愛知県"}}, {"type": "Feature", "geometry": {"type": "Point", "coordinates": [136.89166, 35.167726]}, "properties": {"category": "godzilla", "location_type": "filming", "film_title": "ゴジラ", "film_title_en": "Godzilla vs. Mothra", "year": 1992.0, "location_name": "納屋橋", "prefecture": "愛知県"}}, {"type": "Feature", "geometry": {"type": "Point", "coordinates": [135.759323, 34.98757]}, "properties": {"category": "godzilla", "location_type": "filming", "film_title": "ゴジラ", "film_title_en": "Godzilla vs. Mechagodzilla II", "year": 1993.0, "location_name": "京都タワー<br>（合成カットはホテル京阪 京都から撮影？）", "prefecture": "京都府"}}, {"type": "Feature", "geometry": {"type": "Point", "coordinates": [135.771795, 35.009053]}, "properties": {"category": "godzilla", "location_type": "filming", "film_title": "ゴジラ", "film_title_en": "Godzilla vs. Mechagodzilla II", "year": 1993.0, "location_name": "三条大橋", "prefecture": "京都府"}}, {"type": "Feature", "geometry": {"type": "Point", "coordinates": [135.785046, 34.994856]}, "properties": {"category": "godzilla", "location_type": "filming", "film_title": "ゴジラ", "film_title_en": "Godzilla vs. Mechagodzilla II", "year": 1993.0, "location_name": "清水寺", "prefecture": "京都府"}}, {"type": "Feature", "geometry": {"type": "Point", "coordinates": [135.780834, 34.998346]}, "properties": {"category": "godzilla", "location_type": "filming", "film_title": "ゴジラ", "film_title_en": "Godzilla vs. Mechagodzilla II", "year": 1993.0, "location_name": "二年坂", "prefecture": "京都府"}}, {"type": "Feature", "geometry": {"type": "Point", "coordinates": [135.766138, 35.037997]}, "properties": {"category": "godzilla", "location_type": "filming", "film_title": "ゴジラ", "film_title_en": "Godzilla vs. Mechagodzilla II", "year": 1993.0, "location_name": "出雲路橋付近", "prefecture": "京都府"}}, {"type": "Feature", "geometry": {"type": "Point", "coordinates": [130.351464, 33.593305]}, "properties": {"category": "godzilla", "location_type": "filming", "film_title": "ゴジラ", "film_title_en": "Godzilla vs. SpaceGodzilla", "year": 1994.0, "location_name": "福岡タワー", "prefecture": "福岡県"}}, {"type": "Feature", "geometry": {"type": "Point", "coordinates": [130.353599, 33.595166]}, "properties": {"category": "godzilla", "location_type": "filming", "film_title": "ゴジラ", "film_title_en": "Godzilla vs. SpaceGodzilla", "year": 1994.0, "location_name": "シーサイドももち", "prefecture": "福岡県"}}, {"type": "Feature", "geometry": {"type": "Point", "coordinates": [130.402442, 33.590863]}, "properties": {"category": "godzilla", "location_type": "filming", "film_title": "ゴジラ", "film_title_en": "Godzilla vs. SpaceGodzilla", "year": 1994.0, "location_name": "天神中央公園", "prefecture": "福岡県"}}, {"type": "Feature", "geometry": {"type": "Point", "coordinates": [130.401567, 33.591046]}, "properties": {"category": "godzilla", "location_type": "filming", "film_title": "ゴジラ", "film_title_en": "Godzilla vs. SpaceGodzilla", "year": 1994.0, "location_name": "ベスト電器福岡本店", "prefecture": "福岡県"}}, {"type": "Feature", "geometry": {"type": "Point", "coordinates": [130.396173, 33.591352]}, "properties": {"category": "godzilla", "location_type": "filming", "film_title": "ゴジラ", "film_title_en": "Godzilla vs. SpaceGodzilla", "year": 1994.0, "location_name": "昭和通り福岡天神センタービル前", "prefecture": "福岡県"}}, {"type": "Feature", "geometry": {"type": "Point", "coordinates": [139.740515, 35.626448]}, "properties": {"category": "godzilla", "location_type": "filming", "film_title": "ゴジラ", "film_title_en": "Godzilla", "year": 1954.0, "location_name": "東海道新幹線車両基地（現品川グランドコモンズ）", "prefecture": "東京都"}}, {"type": "Feature", "geometry": {"type": "Point", "coordinates": [139.737693, 35.628995]}, "properties": {"category": "godzilla", "location_type": "filming", "film_title": "ゴジラ", "film_title_en": "Godzilla", "year": 1954.0, "location_name": "品川駅高輪口", "prefecture": "東京都"}}, {"type": "Feature", "geometry": {"type": "Point", "coordinates": [139.765221, 35.671419]}, "properties": {"category": "godzilla", "location_type": "filming", "film_title": "ゴジラ", "film_title_en": "Godzilla", "year": 1954.0, "location_name": "銀座4丁目交差点", "prefecture": "東京都"}}, {"type": "Feature", "geometry": {"type": "Point", "coordinates": [139.762659, 35.650392]}, "properties": {"category": "godzilla", "location_type": "filming", "film_title": "ゴジラ", "film_title_en": "Godzilla vs. Mothra", "year": 1992.0, "location_name": "カメラは世界貿易センタービルディング", "prefecture": ""}}, {"type": "Feature", "geometry": {"type": "Point", "coordinates": [139.73721, 35.67765]}, "properties": {"category": "godzilla", "location_type": "filming", "film_title": "ゴジラ", "film_title_en": "Godzilla vs. Mothra", "year": 1992.0, "location_name": "東急プラザ赤坂", "prefecture": "東京都"}}, {"type": "Feature", "geometry": {"type": "Point", "coordinates": [140.040327, 35.646124]}, "properties": {"category": "godzilla", "location_type": "filming", "film_title": "ゴジラ", "film_title_en": "Godzilla vs. Mothra", "year": 1992.0, "location_name": "ホテルグリーンタワー幕張", "prefecture": "千葉県"}}, {"type": "Feature", "geometry": {"type": "Point", "coordinates": [139.647849, 35.443987]}, "properties": {"category": "godzilla", "location_type": "filming", "film_title": "ゴジラ", "film_title_en": "Godzilla vs. Mothra", "year": 1992.0, "location_name": "中華街東門（朝陽門）", "prefecture": "神奈川県"}}, {"type": "Feature", "geometry": {"type": "Point", "coordinates": [139.650252, 35.44465]}, "properties": {"category": "godzilla", "location_type": "filming", "film_title": "ゴジラ", "film_title_en": "Godzilla vs. Mothra", "year": 1992.0, "location_name": "スターホテル横浜屋上", "prefecture": "神奈川県"}}, {"type": "Feature", "geometry": {"type": "Point", "coordinates": [139.650886, 35.443953]}, "properties": {"category": "godzilla", "location_type": "filming", "film_title": "ゴジラ", "film_title_en": "Godzilla vs. Mothra", "year": 1992.0, "location_name": "マリンタワー周辺", "prefecture": "神奈川県"}}, {"type": "Feature", "geometry": {"type": "Point", "coordinates": [139.674296, 35.455182]}, "properties": {"category": "godzilla", "location_type": "filming", "film_title": "ゴジラ", "film_title_en": "Godzilla vs. Mothra", "year": 1992.0, "location_name": "ベイブリッジ", "prefecture": ""}}, {"type": "Feature", "geometry": {"type": "Point", "coordinates": [139.636481, 35.457728]}, "properties": {"category": "godzilla", "location_type": "filming", "film_title": "ゴジラ", "film_title_en": "Godzilla vs. Mothra", "year": 1992.0, "location_name": "パシフィコ横浜", "prefecture": "神奈川県"}}, {"type": "Feature", "geometry": {"type": "Point", "coordinates": [139.630335, 35.456978]}, "properties": {"category": "godzilla", "location_type": "filming", "film_title": "ゴジラ", "film_title_en": "Godzilla vs. Mothra", "year": 1992.0, "location_name": "横浜美術館", "prefecture": "神奈川県"}}, {"type": "Feature", "geometry": {"type": "Point", "coordinates": [139.637232, 35.457809]}, "properties": {"category": "godzilla", "location_type": "filming", "film_title": "ゴジラ", "film_title_en": "Godzilla vs. Mothra", "year": 1992.0, "location_name": "ヨコハマ グランド インターコンチネンタルホテル", "prefecture": "神奈川県"}}, {"type": "Feature", "geometry": {"type": "Point", "coordinates": [135.746837, 34.979077]}, "properties": {"category": "godzilla", "location_type": "filming", "film_title": "ゴジラ", "film_title_en": "Godzilla vs. Mechagodzilla II", "year": 1993.0, "location_name": "マリネットA-ワン屋上から東寺", "prefecture": "京都府"}}, {"type": "Feature", "geometry": {"type": "Point", "coordinates": [135.74616, 34.979261]}, "properties": {"category": "godzilla", "location_type": "filming", "film_title": "ゴジラ", "film_title_en": "Godzilla vs. Mechagodzilla II", "year": 1993.0, "location_name": "京阪国道口交差点", "prefecture": "京都府"}}, {"type": "Feature", "geometry": {"type": "Point", "coordinates": [135.499304, 34.709229]}, "properties": {"category": "godzilla", "location_type": "filming", "film_title": "ゴジラ", "film_title_en": "Godzilla vs. Mechagodzilla II", "year": 1993.0, "location_name": "梅田・茶屋町付近", "prefecture": "大阪府"}}, {"type": "Feature", "geometry": {"type": "Point", "coordinates": [135.499773, 34.708452]}, "properties": {"category": "godzilla", "location_type": "filming", "film_title": "ゴジラ", "film_title_en": "Godzilla vs. Mechagodzilla II", "year": 1993.0, "location_name": "毎日放送（MBS）本社", "prefecture": "大阪府"}}, {"type": "Feature", "geometry": {"type": "Point", "coordinates": [135.498687, 34.708536]}, "properties": {"category": "godzilla", "location_type": "filming", "film_title": "ゴジラ", "film_title_en": "Godzilla vs. Mechagodzilla II", "year": 1993.0, "location_name": "ホテル阪急インターナショナル", "prefecture": "大阪府"}}, {"type": "Feature", "geometry": {"type": "Point", "coordinates": [139.768254, 35.650597]}, "properties": {"category": "godzilla", "location_type": "filming", "film_title": "ゴジラ", "film_title_en": "Godzilla vs. Mechagodzilla II", "year": 1993.0, "location_name": "月島埠頭", "prefecture": ""}}, {"type": "Feature", "geometry": {"type": "Point", "coordinates": [139.75369, 35.636843]}, "properties": {"category": "godzilla", "location_type": "filming", "film_title": "ゴジラ", "film_title_en": "Godzilla vs. Mechagodzilla II", "year": 1993.0, "location_name": "レインボーブリッジ", "prefecture": "東京都"}}, {"type": "Feature", "geometry": {"type": "Point", "coordinates": [140.882036, 38.260453]}, "properties": {"category": "godzilla", "location_type": "filming", "film_title": "ゴジラ", "film_title_en": "Godzilla vs. Mechagodzilla II", "year": 1993.0, "location_name": "仙台駅付近", "prefecture": "宮城県"}}, {"type": "Feature", "geometry": {"type": "Point", "coordinates": [140.881175, 38.26178]}, "properties": {"category": "godzilla", "location_type": "filming", "film_title": "ゴジラ", "film_title_en": "Godzilla vs. Mechagodzilla II", "year": 1993.0, "location_name": "仙台駅前", "prefecture": "宮城県"}}, {"type": "Feature", "geometry": {"type": "Point", "coordinates": [140.88092, 38.260095]}, "properties": {"category": "godzilla", "location_type": "filming", "film_title": "ゴジラ", "film_title_en": "Godzilla vs. Mechagodzilla II", "year": 1993.0, "location_name": "仙台ロフト前", "prefecture": "宮城県"}}, {"type": "Feature", "geometry": {"type": "Point", "coordinates": [140.856923, 38.253379]}, "properties": {"category": "godzilla", "location_type": "filming", "film_title": "ゴジラ", "film_title_en": "Godzilla vs. Mechagodzilla II", "year": 1993.0, "location_name": "青葉城址から仙台市外を望む。", "prefecture": "宮城県"}}, {"type": "Feature", "geometry": {"type": "Point", "coordinates": [140.855445, 38.257207]}, "properties": {"category": "godzilla", "location_type": "filming", "film_title": "ゴジラ", "film_title_en": "Godzilla vs. Mechagodzilla II", "year": 1993.0, "location_name": "大手門脇櫓", "prefecture": "宮城県"}}, {"type": "Feature", "geometry": {"type": "Point", "coordinates": [140.875024, 38.259859]}, "properties": {"category": "godzilla", "location_type": "filming", "film_title": "ゴジラ", "film_title_en": "Godzilla vs. Mechagodzilla II", "year": 1993.0, "location_name": "未確定", "prefecture": "宮城県"}}, {"type": "Feature", "geometry": {"type": "Point", "coordinates": [135.485877, 34.689614]}, "properties": {"category": "godzilla", "location_type": "filming", "film_title": "ゴジラ×メガギラス Ｇ消滅作戦", "film_title_en": "Godzilla vs. Megaguirus", "year": 2000.0, "location_name": "阪国際会議場（グランキューブ大阪）", "prefecture": "大阪府"}}, {"type": "Feature", "geometry": {"type": "Point", "coordinates": [139.740901, 35.628367]}, "properties": {"category": "godzilla", "location_type": "filming", "film_title": "ゴジラ×メカゴジラ", "film_title_en": "Gojira X Mekagojira (2002)", "year": 2002.0, "location_name": "品川駅港南口", "prefecture": "東京都"}}, {"type": "Feature", "geometry": {"type": "Point", "coordinates": [139.742242, 35.625314]}, "properties": {"category": "godzilla", "location_type": "filming", "film_title": "ゴジラ×メカゴジラ", "film_title_en": "Gojira X Mekagojira (2002)", "year": 2002.0, "location_name": "品川インターシティ（東八ツ山公園付近からアオリ）", "prefecture": "東京都"}}, {"type": "Feature", "geometry": {"type": "Point", "coordinates": [139.745032, 35.625227]}, "properties": {"category": "godzilla", "location_type": "filming", "film_title": "ゴジラ×メカゴジラ", "film_title_en": "Gojira X Mekagojira (2002)", "year": 2002.0, "location_name": "旧海岸通り", "prefecture": "東京都"}}, {"type": "Feature", "geometry": {"type": "Point", "coordinates": [139.746019, 35.625131]}, "properties": {"category": "godzilla", "location_type": "filming", "film_title": "ゴジラ×メカゴジラ", "film_title_en": "Gojira X Mekagojira (2002)", "year": 2002.0, "location_name": "高浜運河", "prefecture": "東京都"}}, {"type": "Feature", "geometry": {"type": "Point", "coordinates": [139.545652, 35.604637]}, "properties": {"category": "godzilla", "location_type": "filming", "film_title": "ゴジラ", "film_title_en": "Godzilla", "year": 2003.0, "location_name": "川崎市上下水道局長沢浄水場", "prefecture": "神奈川県"}}, {"type": "Feature", "geometry": {"type": "Point", "coordinates": [139.744858, 35.675888]}, "properties": {"category": "godzilla", "location_type": "filming", "film_title": "ゴジラ", "film_title_en": "Godzilla", "year": 2003.0, "location_name": "国会議事堂", "prefecture": "東京都"}}, {"type": "Feature", "geometry": {"type": "Point", "coordinates": [139.730537, 35.691182]}, "properties": {"category": "godzilla", "location_type": "filming", "film_title": "ゴジラ", "film_title_en": "Godzilla", "year": 2003.0, "location_name": "現防衛省正門前", "prefecture": "東京都"}}, {"type": "Feature", "geometry": {"type": "Point", "coordinates": [139.749184, 35.657305]}, "properties": {"category": "godzilla", "location_type": "filming", "film_title": "ゴジラ", "film_title_en": "Godzilla", "year": 2003.0, "location_name": "増上寺", "prefecture": "東京都"}}, {"type": "Feature", "geometry": {"type": "Point", "coordinates": [139.745433, 35.65858]}, "properties": {"category": "godzilla", "location_type": "filming", "film_title": "ゴジラ", "film_title_en": "Godzilla", "year": 2003.0, "location_name": "東京タワー", "prefecture": "東京都"}}, {"type": "Feature", "geometry": {"type": "Point", "coordinates": [139.759131, 35.631881]}, "properties": {"category": "godzilla", "location_type": "filming", "film_title": "ゴジラ", "film_title_en": "Godzilla", "year": 2003.0, "location_name": "品川埠頭", "prefecture": "東京都"}}, {"type": "Feature", "geometry": {"type": "Point", "coordinates": [139.729228, 35.660408]}, "properties": {"category": "godzilla", "location_type": "filming", "film_title": "ゴジラ", "film_title_en": "Godzilla", "year": 2003.0, "location_name": "六本木ヒルズ", "prefecture": "東京都"}}, {"type": "Feature", "geometry": {"type": "Point", "coordinates": [139.749967, 35.67021]}, "properties": {"category": "godzilla", "location_type": "filming", "film_title": "ゴジラ", "film_title_en": "Godzilla", "year": 2003.0, "location_name": "東京メトロ虎ノ門駅", "prefecture": "東京都"}}, {"type": "Feature", "geometry": {"type": "Point", "coordinates": [139.653064, 35.487937]}, "properties": {"category": "godzilla", "location_type": "filming", "film_title": "ゴジラ", "film_title_en": "Godzilla", "year": 2003.0, "location_name": "横浜市立子安小学校（移転済み）", "prefecture": "神奈川県"}}, {"type": "Feature", "geometry": {"type": "Point", "coordinates": [139.899752, 35.75729]}, "properties": {"category": "godzilla", "location_type": "filming", "film_title": "ゴジラ", "film_title_en": "Godzilla", "year": 2003.0, "location_name": "矢切駅", "prefecture": "千葉県"}}, {"type": "Feature", "geometry": {"type": "Point", "coordinates": [139.781612, 35.682444]}, "properties": {"category": "godzilla", "location_type": "filming", "film_title": "ゴジラ", "film_title_en": "Godzilla", "year": 2003.0, "location_name": "蛎殻町交差点", "prefecture": "東京都"}}, {"type": "Feature", "geometry": {"type": "Point", "coordinates": [139.450045, 35.457245]}, "properties": {"category": "godzilla", "location_type": "filming", "film_title": "ゴジラ×メカゴジラ", "film_title_en": "Gojira X Mekagojira (2002)", "year": 2002.0, "location_name": "海上自衛隊厚木航空基地", "prefecture": "神奈川県"}}, {"type": "Feature", "geometry": {"type": "Point", "coordinates": [135.78535, 34.994943]}, "properties": {"category": "godzilla", "location_type": "filming", "film_title": "ゴジラ", "film_title_en": "Godzilla vs. Mechagodzilla II", "year": 1993.0, "location_name": "2a", "prefecture": "京都府"}}, {"type": "Feature", "geometry": {"type": "Point", "coordinates": [140.884305, 38.257472]}, "properties": {"category": "godzilla", "location_type": "filming", "film_title": "ゴジラ", "film_title_en": "Godzilla vs. Mechagodzilla II", "year": 1993.0, "location_name": "仙台駅", "prefecture": "宮城県"}}, {"type": "Feature", "geometry": {"type": "Point", "coordinates": [136.917978, 34.441435]}, "properties": {"category": "godzilla", "location_type": "filming", "film_title": "ゴジラ", "film_title_en": "Godzilla", "year": 1954.0, "location_name": "石鏡の漁村・漁港", "prefecture": "三重県"}}, {"type": "Feature", "geometry": {"type": "Point", "coordinates": [134.860666, 34.914934]}, "properties": {"category": "godzilla", "location_type": "filming", "film_title": "ゴジラ FINAL WARS", "film_title_en": "GODZILLA: FINAL WARS", "year": 2004.0, "location_name": "スカイブリッジ", "prefecture": "兵庫県"}}, {"type": "Feature", "geometry": {"type": "Point", "coordinates": [135.194376, 34.693238]}, "properties": {"category": "godzilla", "location_type": "filming", "film_title": "ゴジラ FINAL WARS", "film_title_en": "GODZILLA: FINAL WARS", "year": 2004.0, "location_name": "神戸市営地下鉄御崎車両基地", "prefecture": "兵庫県"}}, {"type": "Feature", "geometry": {"type": "Point", "coordinates": [139.932466, 36.31807]}, "properties": {"category": "godzilla", "location_type": "filming", "film_title": "ゴジラ‐1.0", "film_title_en": "GODZILLA MINUS ONE", "year": 2023.0, "location_name": "ヒロサワ運動公園（下館運動場）、野球場、ソフトボール場、テニスコートなどがあります。、茨城県筑西市上平塚 (筑西市, 茨城県筑西市上平塚)", "prefecture": "茨城県"}}, {"type": "Feature", "geometry": {"type": "Point", "coordinates": [140.372686, 36.004975]}, "properties": {"category": "godzilla", "location_type": "filming", "film_title": "ゴジラ‐1.0", "film_title_en": "GODZILLA MINUS ONE", "year": 2023.0, "location_name": "大山湖畔公園（鹿島海軍航空隊跡）、「鹿島海軍航空隊」の跡地にある公園、茨城県稲敷郡美浦村大山2014-8 (稲敷郡美浦村, 茨城県稲敷郡美浦村大山2014-8)", "prefecture": "茨城県"}}, {"type": "Feature", "geometry": {"type": "Point", "coordinates": [139.767346, 35.680727]}, "properties": {"category": "godzilla", "location_type": "filming", "film_title": "シン・ゴジラ", "film_title_en": "Shin Gojira (2016)", "year": 2016.0, "location_name": "東京駅、関東から各地へ旅する出発地、東京都千代田区丸の内 (千代田区, 東京都千代田区丸の内)", "prefecture": "東京都"}}, {"type": "Feature", "geometry": {"type": "Point", "coordinates": [140.123123, 35.604279]}, "properties": {"category": "godzilla", "location_type": "filming", "film_title": "キングコング対ゴジラ", "film_title_en": "Kingu Kongu tai Gojira (1962)", "year": 1962.0, "location_name": "千葉県", "prefecture": "千葉県"}}, {"type": "Feature", "geometry": {"type": "Point", "coordinates": [140.87178, 38.268501]}, "properties": {"category": "godzilla", "location_type": "filming", "film_title": "キングコング対ゴジラ", "film_title_en": "Kingu Kongu tai Gojira (1962)", "year": 1962.0, "location_name": "宮城県", "prefecture": "宮城県"}}, {"type": "Feature", "geometry": {"type": "Point", "coordinates": [139.691772, 35.689629]}, "properties": {"category": "godzilla", "location_type": "filming", "film_title": "キングコング対ゴジラ", "film_title_en": "Kingu Kongu tai Gojira (1962)", "year": 1962.0, "location_name": "東京", "prefecture": "東京都"}}, {"type": "Feature", "geometry": {"type": "Point", "coordinates": [139.883514, 36.566132]}, "properties": {"category": "godzilla", "location_type": "filming", "film_title": "キングコング対ゴジラ", "film_title_en": "Kingu Kongu tai Gojira (1962)", "year": 1962.0, "location_name": "栃木県", "prefecture": "栃木県"}}, {"type": "Feature", "geometry": {"type": "Point", "coordinates": [139.071787, 35.096471]}, "properties": {"category": "godzilla", "location_type": "filming", "film_title": "キングコング対ゴジラ", "film_title_en": "Kingu Kongu tai Gojira (1962)", "year": 1962.0, "location_name": "熱海市", "prefecture": "静岡県"}}, {"type": "Feature", "geometry": {"type": "Point", "coordinates": [139.06073, 36.390881]}, "properties": {"category": "godzilla", "location_type": "filming", "film_title": "キングコング対ゴジラ", "film_title_en": "Kingu Kongu tai Gojira (1962)", "year": 1962.0, "location_name": "群馬県", "prefecture": "群馬県"}}, {"type": "Feature", "geometry": {"type": "Point", "coordinates": [139.691772, 35.689629]}, "properties": {"category": "godzilla", "location_type": "filming", "film_title": "ゴジラ", "film_title_en": "Godzilla", "year": 1954.0, "location_name": "東京", "prefecture": "東京都"}}, {"type": "Feature", "geometry": {"type": "Point", "coordinates": [141.024307, 38.733932]}, "properties": {"category": "godzilla", "location_type": "filming", "film_title": "ゴジラ", "film_title_en": "Godzilla", "year": 1954.0, "location_name": "伊豆諸島", "prefecture": "宮城県"}}, {"type": "Feature", "geometry": {"type": "Point", "coordinates": [139.684082, 35.89246]}, "properties": {"category": "godzilla", "location_type": "filming", "film_title": "ゴジラ", "film_title_en": "Godzilla", "year": 1954.0, "location_name": "新宿", "prefecture": "埼玉県"}}, {"type": "Feature", "geometry": {"type": "Point", "coordinates": [138.381317, 34.977001]}, "properties": {"category": "godzilla", "location_type": "filming", "film_title": "ゴジラ", "film_title_en": "Godzilla", "year": 1954.0, "location_name": "静岡県", "prefecture": "静岡県"}}, {"type": "Feature", "geometry": {"type": "Point", "coordinates": [138.569061, 35.664879]}, "properties": {"category": "godzilla", "location_type": "filming", "film_title": "ゴジラ FINAL WARS", "film_title_en": "GODZILLA: FINAL WARS", "year": 2004.0, "location_name": "山梨県", "prefecture": "山梨県"}}, {"type": "Feature", "geometry": {"type": "Point", "coordinates": [139.691772, 35.689629]}, "properties": {"category": "godzilla", "location_type": "filming", "film_title": "ゴジラ FINAL WARS", "film_title_en": "GODZILLA: FINAL WARS", "year": 2004.0, "location_name": "東京", "prefecture": "東京都"}}, {"type": "Feature", "geometry": {"type": "Point", "coordinates": [139.642345, 35.447507]}, "properties": {"category": "godzilla", "location_type": "filming", "film_title": "ゴジラ FINAL WARS", "film_title_en": "GODZILLA: FINAL WARS", "year": 2004.0, "location_name": "神奈川県", "prefecture": "神奈川県"}}, {"type": "Feature", "geometry": {"type": "Point", "coordinates": [138.381317, 34.977001]}, "properties": {"category": "godzilla", "location_type": "filming", "film_title": "ゴジラ FINAL WARS", "film_title_en": "GODZILLA: FINAL WARS", "year": 2004.0, "location_name": "静岡県", "prefecture": "静岡県"}}, {"type": "Feature", "geometry": {"type": "Point", "coordinates": [139.691706, 35.689487]}, "properties": {"category": "godzilla", "location_type": "filming", "film_title": "ゴジラ‐1.0", "film_title_en": "GODZILLA MINUS ONE", "year": 2023.0, "location_name": "東京都", "prefecture": "東京都"}}, {"type": "Feature", "geometry": {"type": "Point", "coordinates": [141.346924, 43.064011]}, "properties": {"category": "godzilla", "location_type": "filming", "film_title": "ゴジラ２０００ ミレニアム", "film_title_en": "Gojira ni-sen mireniamu (1999)", "year": 1999.0, "location_name": "北海道", "prefecture": "北海道"}}, {"type": "Feature", "geometry": {"type": "Point", "coordinates": [140.123123, 35.604279]}, "properties": {"category": "godzilla", "location_type": "filming", "film_title": "ゴジラ２０００ ミレニアム", "film_title_en": "Gojira ni-sen mireniamu (1999)", "year": 1999.0, "location_name": "千葉県", "prefecture": "千葉県"}}, {"type": "Feature", "geometry": {"type": "Point", "coordinates": [139.684082, 35.89246]}, "properties": {"category": "godzilla", "location_type": "filming", "film_title": "ゴジラ２０００ ミレニアム", "film_title_en": "Gojira ni-sen mireniamu (1999)", "year": 1999.0, "location_name": "新宿", "prefecture": "埼玉県"}}, {"type": "Feature", "geometry": {"type": "Point", "coordinates": [139.691772, 35.689629]}, "properties": {"category": "godzilla", "location_type": "filming", "film_title": "ゴジラ２０００ ミレニアム", "film_title_en": "Gojira ni-sen mireniamu (1999)", "year": 1999.0, "location_name": "東京", "prefecture": "東京都"}}, {"type": "Feature", "geometry": {"type": "Point", "coordinates": [140.444077, 36.340679]}, "properties": {"category": "godzilla", "location_type": "filming", "film_title": "ゴジラ２０００ ミレニアム", "film_title_en": "Gojira ni-sen mireniamu (1999)", "year": 1999.0, "location_name": "茨城県", "prefecture": "茨城県"}}, {"type": "Feature", "geometry": {"type": "Point", "coordinates": [132.732436, 34.394717]}, "properties": {"category": "godzilla", "location_type": "filming", "film_title": "ゴジラvsキングギドラ", "film_title_en": "[T] Godzilla vs King Ghidorah", "year": 1991.0, "location_name": "広島市", "prefecture": "広島県"}}, {"type": "Feature", "geometry": {"type": "Point", "coordinates": [139.684082, 35.89246]}, "properties": {"category": "godzilla", "location_type": "filming", "film_title": "ゴジラvsキングギドラ", "film_title_en": "[T] Godzilla vs King Ghidorah", "year": 1991.0, "location_name": "新宿", "prefecture": "埼玉県"}}, {"type": "Feature", "geometry": {"type": "Point", "coordinates": [139.703632, 35.693763]}, "properties": {"category": "godzilla", "location_type": "filming", "film_title": "ゴジラvsキングギドラ", "film_title_en": "[T] Godzilla vs King Ghidorah", "year": 1991.0, "location_name": "新宿区", "prefecture": "東京都"}}, {"type": "Feature", "geometry": {"type": "Point", "coordinates": [141.354292, 43.061936]}, "properties": {"category": "godzilla", "location_type": "filming", "film_title": "ゴジラvsキングギドラ", "film_title_en": "[T] Godzilla vs King Ghidorah", "year": 1991.0, "location_name": "札幌市", "prefecture": "北海道"}}, {"type": "Feature", "geometry": {"type": "Point", "coordinates": [139.691772, 35.689629]}, "properties": {"category": "godzilla", "location_type": "filming", "film_title": "ゴジラvsキングギドラ", "film_title_en": "[T] Godzilla vs King Ghidorah", "year": 1991.0, "location_name": "東京", "prefecture": "東京都"}}, {"type": "Feature", "geometry": {"type": "Point", "coordinates": [130.401751, 33.589899]}, "properties": {"category": "godzilla", "location_type": "filming", "film_title": "ゴジラvsキングギドラ", "film_title_en": "[T] Godzilla vs King Ghidorah", "year": 1991.0, "location_name": "福岡市", "prefecture": "福岡県"}}, {"type": "Feature", "geometry": {"type": "Point", "coordinates": [144.230422, 44.015655]}, "properties": {"category": "godzilla", "location_type": "filming", "film_title": "ゴジラvsキングギドラ", "film_title_en": "[T] Godzilla vs King Ghidorah", "year": 1991.0, "location_name": "網走市", "prefecture": "北海道"}}, {"type": "Feature", "geometry": {"type": "Point", "coordinates": [140.123123, 35.604279]}, "properties": {"category": "godzilla", "location_type": "filming", "film_title": "ゴジラ×メカゴジラ", "film_title_en": "Gojira X Mekagojira (2002)", "year": 2002.0, "location_name": "千葉県", "prefecture": "千葉県"}}, {"type": "Feature", "geometry": {"type": "Point", "coordinates": [139.691772, 35.689629]}, "properties": {"category": "godzilla", "location_type": "filming", "film_title": "ゴジラ×メカゴジラ", "film_title_en": "Gojira X Mekagojira (2002)", "year": 2002.0, "location_name": "東京", "prefecture": "東京都"}}, {"type": "Feature", "geometry": {"type": "Point", "coordinates": [139.646284, 35.427203]}, "properties": {"category": "godzilla", "location_type": "filming", "film_title": "ゴジラ×メカゴジラ", "film_title_en": "Gojira X Mekagojira (2002)", "year": 2002.0, "location_name": "横浜市", "prefecture": "神奈川県"}}, {"type": "Feature", "geometry": {"type": "Point", "coordinates": [135.502165, 34.693738]}, "properties": {"category": "godzilla", "location_type": "filming", "film_title": "ゴジラ×メガギラス Ｇ消滅作戦", "film_title_en": "Godzilla vs. Megaguirus", "year": 2000.0, "location_name": "大阪市", "prefecture": "大阪府"}}, {"type": "Feature", "geometry": {"type": "Point", "coordinates": [138.569061, 35.664879]}, "properties": {"category": "godzilla", "location_type": "filming", "film_title": "ゴジラ×メガギラス Ｇ消滅作戦", "film_title_en": "Godzilla vs. Megaguirus", "year": 2000.0, "location_name": "山梨県", "prefecture": "山梨県"}}, {"type": "Feature", "geometry": {"type": "Point", "coordinates": [139.691772, 35.689629]}, "properties": {"category": "godzilla", "location_type": "filming", "film_title": "ゴジラ×メガギラス Ｇ消滅作戦", "film_title_en": "Godzilla vs. Megaguirus", "year": 2000.0, "location_name": "東京", "prefecture": "東京都"}}, {"type": "Feature", "geometry": {"type": "Point", "coordinates": [139.704051, 35.661777]}, "properties": {"category": "godzilla", "location_type": "filming", "film_title": "ゴジラ×メガギラス Ｇ消滅作戦", "film_title_en": "Godzilla vs. Megaguirus", "year": 2000.0, "location_name": "渋谷", "prefecture": "東京都"}}, {"type": "Feature", "geometry": {"type": "Point", "coordinates": [140.729008, 41.768793]}, "properties": {"category": "godzilla", "location_type": "filming", "film_title": "メカゴジラの逆襲", "film_title_en": "GODZILLA RAIDS AGAIN", "year": 1955.0, "location_name": "函館市", "prefecture": "北海道"}}, {"type": "Feature", "geometry": {"type": "Point", "coordinates": [135.502165, 34.693738]}, "properties": {"category": "godzilla", "location_type": "filming", "film_title": "メカゴジラの逆襲", "film_title_en": "GODZILLA RAIDS AGAIN", "year": 1955.0, "location_name": "大阪市", "prefecture": "大阪府"}}, {"type": "Feature", "geometry": {"type": "Point", "coordinates": [139.691772, 35.689629]}, "properties": {"category": "godzilla", "location_type": "filming", "film_title": "ゴジラ・エビラ・モスラ 南海の大決闘", "film_title_en": "Ebirah,Horror of the Deep", "year": 1966.0, "location_name": "東京", "prefecture": "東京都"}}, {"type": "Feature", "geometry": {"type": "Point", "coordinates": [140.739998, 40.824308]}, "properties": {"category": "godzilla", "location_type": "filming", "film_title": "ゴジラ・エビラ・モスラ 南海の大決闘", "film_title_en": "Ebirah,Horror of the Deep", "year": 1966.0, "location_name": "青森県", "prefecture": "青森県"}}, {"type": "Feature", "geometry": {"type": "Point", "coordinates": [139.703767, 35.530664]}, "properties": {"category": "godzilla", "location_type": "filming", "film_title": "ゴジラ・ミニラ・ガバラ オール怪獣大進撃", "film_title_en": "ALL MONSTERS ATTACK", "year": 1969.0, "location_name": "川崎市", "prefecture": "神奈川県"}}, {"type": "Feature", "geometry": {"type": "Point", "coordinates": [138.381317, 34.977001]}, "properties": {"category": "godzilla", "location_type": "filming", "film_title": "ゴジラ対ヘドラ", "film_title_en": "GODZILLA VS HEDORAH", "year": 1971.0, "location_name": "静岡県", "prefecture": "静岡県"}}, {"type": "Feature", "geometry": {"type": "Point", "coordinates": [139.691772, 35.689629]}, "properties": {"category": "godzilla", "location_type": "filming", "film_title": "ゴジラ対メカゴジラ", "film_title_en": "Gojira tai Mekagojira (1974)", "year": 1974.0, "location_name": "東京", "prefecture": "東京都"}}, {"type": "Feature", "geometry": {"type": "Point", "coordinates": [127.679459, 26.21278]}, "properties": {"category": "godzilla", "location_type": "filming", "film_title": "ゴジラ対メカゴジラ", "film_title_en": "Gojira tai Mekagojira (1974)", "year": 1974.0, "location_name": "沖縄県", "prefecture": "沖縄県"}}, {"type": "Feature", "geometry": {"type": "Point", "coordinates": [138.381317, 34.977001]}, "properties": {"category": "godzilla", "location_type": "filming", "film_title": "ゴジラ対メカゴジラ", "film_title_en": "Gojira tai Mekagojira (1974)", "year": 1974.0, "location_name": "静岡県", "prefecture": "静岡県"}}, {"type": "Feature", "geometry": {"type": "Point", "coordinates": [139.691706, 35.689487]}, "properties": {"category": "godzilla", "location_type": "filming", "film_title": "ゴジラ対メガロ", "film_title_en": "Godzilla vs Megalon", "year": 1973.0, "location_name": "東京都", "prefecture": "東京都"}}, {"type": "Feature", "geometry": {"type": "Point", "coordinates": [140.123123, 35.604279]}, "properties": {"category": "godzilla", "location_type": "filming", "film_title": "シン・ゴジラ", "film_title_en": "Shin Gojira (2016)", "year": 2016.0, "location_name": "千葉県", "prefecture": "千葉県"}}, {"type": "Feature", "geometry": {"type": "Point", "coordinates": [139.691706, 35.689487]}, "properties": {"category": "godzilla", "location_type": "filming", "film_title": "シン・ゴジラ", "film_title_en": "Shin Gojira (2016)", "year": 2016.0, "location_name": "東京都", "prefecture": "東京都"}}, {"type": "Feature", "geometry": {"type": "Point", "coordinates": [139.642345, 35.447507]}, "properties": {"category": "godzilla", "location_type": "filming", "film_title": "シン・ゴジラ", "film_title_en": "Shin Gojira (2016)", "year": 2016.0, "location_name": "神奈川県", "prefecture": "神奈川県"}}, {"type": "Feature", "geometry": {"type": "Point", "coordinates": [141.024307, 38.733932]}, "properties": {"category": "godzilla", "location_type": "filming", "film_title": "メカゴジラの逆襲", "film_title_en": "Mekagojira no gyakushu (1975)", "year": 1975.0, "location_name": "伊豆半島", "prefecture": "宮城県"}}, {"type": "Feature", "geometry": {"type": "Point", "coordinates": [139.691772, 35.689629]}, "properties": {"category": "godzilla", "location_type": "filming", "film_title": "メカゴジラの逆襲", "film_title_en": "Mekagojira no gyakushu (1975)", "year": 1975.0, "location_name": "東京", "prefecture": "東京都"}}, {"type": "Feature", "geometry": {"type": "Point", "coordinates": [139.67196, 35.281478]}, "properties": {"category": "godzilla", "location_type": "filming", "film_title": "メカゴジラの逆襲", "film_title_en": "Mekagojira no gyakushu (1975)", "year": 1975.0, "location_name": "横須賀市", "prefecture": "神奈川県"}}, {"type": "Feature", "geometry": {"type": "Point", "coordinates": [127.679459, 26.21278]}, "properties": {"category": "godzilla", "location_type": "filming", "film_title": "メカゴジラの逆襲", "film_title_en": "Mekagojira no gyakushu (1975)", "year": 1975.0, "location_name": "沖縄県", "prefecture": "沖縄県"}}, {"type": "Feature", "geometry": {"type": "Point", "coordinates": [136.508896, 34.730572]}, "properties": {"category": "godzilla", "location_type": "filming", "film_title": "モスラ対ゴジラ", "film_title_en": "MOTHRA VS. GODZILLA", "year": 1964.0, "location_name": "三重県", "prefecture": "三重県"}}, {"type": "Feature", "geometry": {"type": "Point", "coordinates": [136.899844, 35.185105]}, "properties": {"category": "godzilla", "location_type": "filming", "film_title": "モスラ対ゴジラ", "film_title_en": "MOTHRA VS. GODZILLA", "year": 1964.0, "location_name": "名古屋市", "prefecture": "愛知県"}}, {"type": "Feature", "geometry": {"type": "Point", "coordinates": [138.381317, 34.977001]}, "properties": {"category": "godzilla", "location_type": "filming", "film_title": "モスラ対ゴジラ", "film_title_en": "MOTHRA VS. GODZILLA", "year": 1964.0, "location_name": "静岡県", "prefecture": "静岡県"}}, {"type": "Feature", "geometry": {"type": "Point", "coordinates": [139.691772, 35.689629]}, "properties": {"category": "godzilla", "location_type": "filming", "film_title": "地球攻撃命令 ゴジラ対ガイガン", "film_title_en": "Godzilla vs.Gigan", "year": 1972.0, "location_name": "東京", "prefecture": "東京都"}}, {"type": "Feature", "geometry": {"type": "Point", "coordinates": [139.642345, 35.447507]}, "properties": {"category": "godzilla", "location_type": "filming", "film_title": "地球攻撃命令 ゴジラ対ガイガン", "film_title_en": "Godzilla vs.Gigan", "year": 1972.0, "location_name": "神奈川県", "prefecture": "神奈川県"}}, {"type": "Feature", "geometry": {"type": "Point", "coordinates": [139.691772, 35.689629]}, "properties": {"category": "godzilla", "location_type": "filming", "film_title": "怪獣大戦争", "film_title_en": "Godzilla vs. Monster Zero", "year": 1965.0, "location_name": "東京", "prefecture": "東京都"}}, {"type": "Feature", "geometry": {"type": "Point", "coordinates": [138.381317, 34.977001]}, "properties": {"category": "godzilla", "location_type": "filming", "film_title": "怪獣大戦争", "film_title_en": "Godzilla vs. Monster Zero", "year": 1965.0, "location_name": "静岡県", "prefecture": "静岡県"}}, {"type": "Feature", "geometry": {"type": "Point", "coordinates": [141.024307, 38.733932]}, "properties": {"category": "godzilla", "location_type": "filming", "film_title": "ゴジラ1985", "film_title_en": "Godzilla 1985", "year": 1985.0, "location_name": "伊豆諸島", "prefecture": "宮城県"}}, {"type": "Feature", "geometry": {"type": "Point", "coordinates": [139.684082, 35.89246]}, "properties": {"category": "godzilla", "location_type": "filming", "film_title": "ゴジラ1985", "film_title_en": "Godzilla 1985", "year": 1985.0, "location_name": "新宿", "prefecture": "埼玉県"}}, {"type": "Feature", "geometry": {"type": "Point", "coordinates": [139.691772, 35.689629]}, "properties": {"category": "godzilla", "location_type": "filming", "film_title": "ゴジラ1985", "film_title_en": "Godzilla 1985", "year": 1985.0, "location_name": "東京", "prefecture": "東京都"}}, {"type": "Feature", "geometry": {"type": "Point", "coordinates": [138.381317, 34.977001]}, "properties": {"category": "godzilla", "location_type": "filming", "film_title": "ゴジラ1985", "film_title_en": "Godzilla 1985", "year": 1985.0, "location_name": "静岡県", "prefecture": "静岡県"}}, {"type": "Feature", "geometry": {"type": "Point", "coordinates": [131.612427, 33.238232]}, "properties": {"category": "godzilla", "location_type": "filming", "film_title": "ゴジラvsスペースゴジラ", "film_title_en": "GODZILLA VS. SPACE GODZILLA", "year": 1994.0, "location_name": "大分県", "prefecture": "大分県"}}, {"type": "Feature", "geometry": {"type": "Point", "coordinates": [140.36293, 38.240299]}, "properties": {"category": "godzilla", "location_type": "filming", "film_title": "ゴジラvsスペースゴジラ", "film_title_en": "GODZILLA VS. SPACE GODZILLA", "year": 1994.0, "location_name": "山形県", "prefecture": "山形県"}}, {"type": "Feature", "geometry": {"type": "Point", "coordinates": [141.354292, 43.061936]}, "properties": {"category": "godzilla", "location_type": "filming", "film_title": "ゴジラvsスペースゴジラ", "film_title_en": "GODZILLA VS. SPACE GODZILLA", "year": 1994.0, "location_name": "札幌市", "prefecture": "北海道"}}, {"type": "Feature", "geometry": {"type": "Point", "coordinates": [130.55485, 32.923561]}, "properties": {"category": "godzilla", "location_type": "filming", "film_title": "ゴジラvsスペースゴジラ", "film_title_en": "GODZILLA VS. SPACE GODZILLA", "year": 1994.0, "location_name": "熊本市", "prefecture": "熊本県"}}, {"type": "Feature", "geometry": {"type": "Point", "coordinates": [130.742004, 32.789379]}, "properties": {"category": "godzilla", "location_type": "filming", "film_title": "ゴジラvsスペースゴジラ", "film_title_en": "GODZILLA VS. SPACE GODZILLA", "year": 1994.0, "location_name": "熊本県", "prefecture": "熊本県"}}, {"type": "Feature", "geometry": {"type": "Point", "coordinates": [135.214752, 34.717585]}, "properties": {"category": "godzilla", "location_type": "filming", "film_title": "ゴジラvsスペースゴジラ", "film_title_en": "GODZILLA VS. SPACE GODZILLA", "year": 1994.0, "location_name": "神戸市", "prefecture": "兵庫県"}}, {"type": "Feature", "geometry": {"type": "Point", "coordinates": [130.401751, 33.589899]}, "properties": {"category": "godzilla", "location_type": "filming", "film_title": "ゴジラvsスペースゴジラ", "film_title_en": "GODZILLA VS. SPACE GODZILLA", "year": 1994.0, "location_name": "福岡市", "prefecture": "福岡県"}}, {"type": "Feature", "geometry": {"type": "Point", "coordinates": [140.444077, 36.340679]}, "properties": {"category": "godzilla", "location_type": "filming", "film_title": "ゴジラvsスペースゴジラ", "film_title_en": "GODZILLA VS. SPACE GODZILLA", "year": 1994.0, "location_name": "茨城県", "prefecture": "茨城県"}}, {"type": "Feature", "geometry": {"type": "Point", "coordinates": [130.557195, 31.596793]}, "properties": {"category": "godzilla", "location_type": "filming", "film_title": "ゴジラvsスペースゴジラ", "film_title_en": "GODZILLA VS. SPACE GODZILLA", "year": 1994.0, "location_name": "鹿児島市", "prefecture": "鹿児島県"}}, {"type": "Feature", "geometry": {"type": "Point", "coordinates": [132.766113, 33.84174]}, "properties": {"category": "godzilla", "location_type": "filming", "film_title": "ゴジラvsデストロイア", "film_title_en": "GODZILLA VS. DESTROYAH", "year": 1995.0, "location_name": "愛媛県", "prefecture": "愛媛県"}}, {"type": "Feature", "geometry": {"type": "Point", "coordinates": [139.691772, 35.689629]}, "properties": {"category": "godzilla", "location_type": "filming", "film_title": "ゴジラvsデストロイア", "film_title_en": "GODZILLA VS. DESTROYAH", "year": 1995.0, "location_name": "東京", "prefecture": "東京都"}}, {"type": "Feature", "geometry": {"type": "Point", "coordinates": [140.444077, 36.340679]}, "properties": {"category": "godzilla", "location_type": "filming", "film_title": "ゴジラvsデストロイア", "film_title_en": "GODZILLA VS. DESTROYAH", "year": 1995.0, "location_name": "茨城県", "prefecture": "茨城県"}}, {"type": "Feature", "geometry": {"type": "Point", "coordinates": [138.381317, 34.977001]}, "properties": {"category": "godzilla", "location_type": "filming", "film_title": "ゴジラvsデストロイア", "film_title_en": "GODZILLA VS. DESTROYAH", "year": 1995.0, "location_name": "静岡県", "prefecture": "静岡県"}}, {"type": "Feature", "geometry": {"type": "Point", "coordinates": [141.024307, 38.733932]}, "properties": {"category": "godzilla", "location_type": "filming", "film_title": "ゴジラvsビオランテ", "film_title_en": "GODZILLA VS. BIOLLANTE", "year": 1989.0, "location_name": "伊豆諸島", "prefecture": "宮城県"}}, {"type": "Feature", "geometry": {"type": "Point", "coordinates": [135.502165, 34.693738]}, "properties": {"category": "godzilla", "location_type": "filming", "film_title": "ゴジラvsビオランテ", "film_title_en": "GODZILLA VS. BIOLLANTE", "year": 1989.0, "location_name": "大阪市", "prefecture": "大阪府"}}, {"type": "Feature", "geometry": {"type": "Point", "coordinates": [139.691772, 35.689629]}, "properties": {"category": "godzilla", "location_type": "filming", "film_title": "ゴジラvsビオランテ", "film_title_en": "GODZILLA VS. BIOLLANTE", "year": 1989.0, "location_name": "東京", "prefecture": "東京都"}}, {"type": "Feature", "geometry": {"type": "Point", "coordinates": [136.221283, 36.06562]}, "properties": {"category": "godzilla", "location_type": "filming", "film_title": "ゴジラvsビオランテ", "film_title_en": "GODZILLA VS. BIOLLANTE", "year": 1989.0, "location_name": "福井県", "prefecture": "福井県"}}, {"type": "Feature", "geometry": {"type": "Point", "coordinates": [139.030861, 35.184965]}, "properties": {"category": "godzilla", "location_type": "filming", "film_title": "ゴジラvsビオランテ", "film_title_en": "GODZILLA VS. BIOLLANTE", "year": 1989.0, "location_name": "箱根", "prefecture": "神奈川県"}}, {"type": "Feature", "geometry": {"type": "Point", "coordinates": [140.444077, 36.340679]}, "properties": {"category": "godzilla", "location_type": "filming", "film_title": "ゴジラvsビオランテ", "film_title_en": "GODZILLA VS. BIOLLANTE", "year": 1989.0, "location_name": "茨城県", "prefecture": "茨城県"}}, {"type": "Feature", "geometry": {"type": "Point", "coordinates": [136.508896, 34.730572]}, "properties": {"category": "godzilla", "location_type": "filming", "film_title": "ゴジラvsメカゴジラ", "film_title_en": "GODZILLA VS. MECHAGODZILLA", "year": 1993.0, "location_name": "三重県", "prefecture": "三重県"}}, {"type": "Feature", "geometry": {"type": "Point", "coordinates": [135.773741, 35.000257]}, "properties": {"category": "godzilla", "location_type": "filming", "film_title": "ゴジラvsメカゴジラ", "film_title_en": "GODZILLA VS. MECHAGODZILLA", "year": 1993.0, "location_name": "京都市", "prefecture": "京都府"}}, {"type": "Feature", "geometry": {"type": "Point", "coordinates": [140.906477, 38.2598]}, "properties": {"category": "godzilla", "location_type": "filming", "film_title": "ゴジラvsメカゴジラ", "film_title_en": "GODZILLA VS. MECHAGODZILLA", "year": 1993.0, "location_name": "仙台市", "prefecture": "宮城県"}}, {"type": "Feature", "geometry": {"type": "Point", "coordinates": [140.123123, 35.604279]}, "properties": {"category": "godzilla", "location_type": "filming", "film_title": "ゴジラvsメカゴジラ", "film_title_en": "GODZILLA VS. MECHAGODZILLA", "year": 1993.0, "location_name": "千葉県", "prefecture": "千葉県"}}, {"type": "Feature", "geometry": {"type": "Point", "coordinates": [135.502165, 34.693738]}, "properties": {"category": "godzilla", "location_type": "filming", "film_title": "ゴジラvsメカゴジラ", "film_title_en": "GODZILLA VS. MECHAGODZILLA", "year": 1993.0, "location_name": "大阪市", "prefecture": "大阪府"}}, {"type": "Feature", "geometry": {"type": "Point", "coordinates": [135.868607, 35.004181]}, "properties": {"category": "godzilla", "location_type": "filming", "film_title": "ゴジラvsメカゴジラ", "film_title_en": "GODZILLA VS. MECHAGODZILLA", "year": 1993.0, "location_name": "滋賀県", "prefecture": "滋賀県"}}, {"type": "Feature", "geometry": {"type": "Point", "coordinates": [140.739998, 40.824308]}, "properties": {"category": "godzilla", "location_type": "filming", "film_title": "ゴジラvsメカゴジラ", "film_title_en": "GODZILLA VS. MECHAGODZILLA", "year": 1993.0, "location_name": "青森県", "prefecture": "青森県"}}, {"type": "Feature", "geometry": {"type": "Point", "coordinates": [136.899844, 35.185105]}, "properties": {"category": "godzilla", "location_type": "filming", "film_title": "ゴジラvsモスラ", "film_title_en": "GODZILLA VS. MOTHRA", "year": 1992.0, "location_name": "名古屋市", "prefecture": "愛知県"}}, {"type": "Feature", "geometry": {"type": "Point", "coordinates": [139.691772, 35.689629]}, "properties": {"category": "godzilla", "location_type": "filming", "film_title": "ゴジラvsモスラ", "film_title_en": "GODZILLA VS. MOTHRA", "year": 1992.0, "location_name": "東京", "prefecture": "東京都"}}, {"type": "Feature", "geometry": {"type": "Point", "coordinates": [139.646284, 35.427203]}, "properties": {"category": "godzilla", "location_type": "filming", "film_title": "ゴジラvsモスラ", "film_title_en": "GODZILLA VS. MOTHRA", "year": 1992.0, "location_name": "横浜市", "prefecture": "神奈川県"}}, {"type": "Feature", "geometry": {"type": "Point", "coordinates": [140.123123, 35.604279]}, "properties": {"category": "godzilla", "location_type": "filming", "film_title": "ゴジラ×モスラ×メカゴジラ 東京SOS", "film_title_en": "GODZILLA: TOKYO SOS", "year": 2003.0, "location_name": "千葉県", "prefecture": "千葉県"}}, {"type": "Feature", "geometry": {"type": "Point", "coordinates": [138.464401, 35.612083]}, "properties": {"category": "godzilla", "location_type": "filming", "film_title": "ゴジラ×モスラ×メカゴジラ 東京SOS", "film_title_en": "GODZILLA: TOKYO SOS", "year": 2003.0, "location_name": "小笠原諸島", "prefecture": "山梨県"}}, {"type": "Feature", "geometry": {"type": "Point", "coordinates": [139.691772, 35.689629]}, "properties": {"category": "godzilla", "location_type": "filming", "film_title": "ゴジラ×モスラ×メカゴジラ 東京SOS", "film_title_en": "GODZILLA: TOKYO SOS", "year": 2003.0, "location_name": "東京", "prefecture": "東京都"}}, {"type": "Feature", "geometry": {"type": "Point", "coordinates": [138.936386, 37.433311]}, "properties": {"category": "godzilla", "location_type": "filming", "film_title": "ゴジラ×モスラ×メカゴジラ 東京SOS", "film_title_en": "GODZILLA: TOKYO SOS", "year": 2003.0, "location_name": "軽井沢", "prefecture": "新潟県"}},